$GPGSV,3,1,10,04,49,276,39,08,21,210,50,09,22,312,37,16,68,317,34,1*6C
$GPGSV,3,2,10,26,55,048,42,27,51,196,52,28,25,120,41,31,54,109,45,1*63
$GPGSV,3,3,10,41,00,000,44,42,00,000,44,1*66
$GLGSV,3,1,10,74,32,063,38,,00,000,47,66,00,000,32,76,17,290,42,1*7F
$GLGSV,3,2,10,75,53,349,36,65,37,262,39,84,33,058,41,83,01,018,23,1*7A
$GLGSV,3,3,10,85,37,123,47,72,16,205,46,1*74
$GAGSV,2,1,08,04,24,171,44,05,35,307,35,06,45,190,46,09,59,227,45,7*72
$GAGSV,2,2,08,16,19,257,37,23,21,059,33,31,67,018,43,33,15,105,44,7*73
$GQGSV,1,1,02,02,78,100,29,03,16,154,37,1*60
$GBGSV,4,1,15,28,12,183,40,25,41,080,44,23,67,345,44,20,14,311,32,1*7D
$GBGSV,4,2,15,16,75,352,44,11,43,085,42,10,26,214,46,09,56,317,36,1*73
$GBGSV,4,3,15,07,40,208,45,06,72,336,40,05,09,257,33,04,31,134,45,1*71
$GBGSV,4,4,15,03,42,205,49,02,28,237,34,01,41,152,48,1*4A
$GNGSA,A,3,04,08,09,16,18,26,27,28,31,,,,0.7,0.4,0.6,1*36
$GNGSA,A,3,65,72,74,75,76,84,85,,,,,,0.7,0.4,0.6,2*30
$GNGSA,A,3,04,05,06,09,16,23,31,33,,,,,0.7,0.4,0.6,3*3C
$GNGSA,A,3,01,03,06,07,09,10,11,16,20,23,25,28,0.7,0.4,0.6,4*33
$GNGSA,A,3,02,03,,,,,,,,,,,0.7,0.4,0.6,5*31
$GNVTG,,T,,M,0.0,N,0.0,K,A*3D
$GNDTM,P90,,0000.000025,S,00000.000001,W,0.982,W84*49
$GNRMC,070719.00,A,3727.037362,N,12639.114046,E,0.0,,191125,9.1,W,A,V*69
$GNGNS,070719.00,3727.037362,N,12639.114046,E,AAAAAN,38,0.4,15.0,18.0,,,V*1C
$GNGGA,070719.00,3727.037362,N,12639.114046,E,1,12,0.4,15.0,M,18.0,M,,*4B
$PSMSG,magcal=PASS,bluesky=0*00
$GPGSV,3,1,10,04,49,276,32,08,21,210,50,09,22,312,36,16,68,317,37,1*65
$GPGSV,3,2,10,26,55,048,40,27,51,196,53,28,25,120,41,31,54,109,47,1*62
$GPGSV,3,3,10,41,00,000,45,42,00,000,44,1*67
$GLGSV,3,1,10,74,32,063,38,,00,000,49,66,00,000,32,76,17,290,44,1*77
$GLGSV,3,2,10,75,53,349,41,65,37,262,35,84,33,058,44,83,01,018,23,1*73
$GLGSV,3,3,10,85,37,123,47,72,16,205,48,1*7A
$GAGSV,3,1,09,04,24,171,44,05,35,307,40,06,45,190,48,09,59,227,49,7*72
$GAGSV,3,2,09,16,19,257,33,23,21,059,33,26,11,057,26,31,67,018,44,7*72
$GAGSV,3,3,09,33,15,105,44,7*4A
$GQGSV,1,1,02,02,78,100,30,03,16,154,35,1*6A
$GBGSV,4,1,16,28,12,183,34,25,41,080,46,23,67,345,47,20,14,311,30,1*7E
$GBGSV,4,2,16,16,75,352,43,12,12,038,25,11,43,085,44,10,26,214,47,1*76
$GBGSV,4,3,16,09,56,317,37,07,40,208,45,06,72,336,42,05,09,257,33,1*7A
$GBGSV,4,4,16,04,31,134,46,03,42,205,49,02,28,237,35,01,41,152,49,1*7B
$GNGSA,A,3,04,08,09,16,18,26,27,28,31,,,,0.7,0.4,0.6,1*36
$GNGSA,A,3,65,72,74,75,76,84,85,,,,,,0.7,0.4,0.6,2*30
$GNGSA,A,3,04,05,06,09,16,23,26,31,33,,,,0.7,0.4,0.6,3*38
$GNGSA,A,3,01,03,06,07,09,10,11,12,16,20,23,25,0.7,0.4,0.6,4*3A
$GNGSA,A,3,02,03,,,,,,,,,,,0.7,0.4,0.6,5*31
$GNVTG,,T,,M,0.0,N,0.0,K,A*3D
$GNDTM,P90,,0000.000025,S,00000.000001,W,0.982,W84*49
$GNRMC,070720.00,A,3727.037327,N,12639.113972,E,0.0,,191125,9.1,W,A,V*6B
$GNGNS,070720.00,3727.037327,N,12639.113972,E,AAAAAN,40,0.4,14.9,18.0,,,V*19
$GNGGA,070720.00,3727.037327,N,12639.113972,E,1,12,0.4,14.9,M,18.0,M,,*41
$PSMSG,magcal=PASS,bluesky=0*00
$GPGSV,3,1,11,04,49,276,37,08,21,210,51,09,22,312,39,16,68,317,38,1*60
$GPGSV,3,2,11,18,19,079,30,26,55,048,42,27,51,196,53,28,25,120,40,1*64
$GPGSV,3,3,11,31,54,109,47,41,00,000,46,42,00,000,44,1*5D
$GLGSV,3,1,10,74,32,063,38,,00,000,49,66,00,000,32,76,17,290,46,1*75
$GLGSV,3,2,10,75,53,349,42,65,37,262,35,84,33,058,43,83,01,018,25,1*71
$GLGSV,3,3,10,85,37,123,48,72,16,205,48,1*75
$GAGSV,2,1,08,04,24,171,44,05,35,307,43,06,45,190,47,09,59,227,49,7*7E
$GAGSV,2,2,08,16,19,257,36,23,21,059,32,31,67,018,45,33,15,105,44,7*75
$GQGSV,1,1,02,02,78,100,33,03,16,154,35,1*69
$GBGSV,4,1,14,28,12,183,33,25,41,080,46,23,67,345,47,20,14,311,40,1*7C
$GBGSV,4,2,14,16,75,352,43,11,43,085,43,10,26,214,48,09,56,317,37,1*7B
$GBGSV,4,3,14,07,40,208,46,06,72,336,41,04,31,134,46,03,42,205,49,1*72
$GBGSV,4,4,14,02,28,237,35,01,41,152,48,1*75
$GNGSA,A,3,04,08,09,16,18,26,27,28,31,,,,0.7,0.4,0.6,1*36
$GNGSA,A,3,65,72,74,75,76,84,85,,,,,,0.7,0.4,0.6,2*30
$GNGSA,A,3,04,05,06,09,16,23,26,31,33,,,,0.7,0.4,0.6,3*38
$GNGSA,A,3,01,03,06,07,09,10,11,12,16,20,23,25,0.7,0.4,0.6,4*3A
$GNGSA,A,3,02,03,,,,,,,,,,,0.7,0.4,0.6,5*31
$GNVTG,,T,,M,0.0,N,0.0,K,A*3D
$GNDTM,P90,,0000.000025,S,00000.000001,W,0.982,W84*49
$GNRMC,070721.00,A,3727.037323,N,12639.113846,E,0.0,,191125,9.1,W,A,V*68
$GNGNS,070721.00,3727.037323,N,12639.113846,E,AAAAAN,40,0.4,14.5,18.0,,,V*16
$GNGGA,070721.00,3727.037323,N,12639.113846,E,1,12,0.4,14.5,M,18.0,M,,*4E
$PSMSG,magcal=PASS,bluesky=0*00
$GPGSV,3,1,10,04,49,276,31,08,21,210,50,09,22,312,37,16,68,317,39,1*69
$GPGSV,3,2,10,26,55,048,43,27,51,196,53,28,25,120,40,31,54,109,47,1*60
$GPGSV,3,3,10,41,00,000,46,42,00,000,43,1*63
$GLGSV,3,1,10,74,32,063,36,,00,000,49,66,00,000,32,76,17,290,47,1*7A
$GLGSV,3,2,10,75,53,349,44,65,37,262,31,84,33,058,43,83,01,018,24,1*72
$GLGSV,3,3,10,85,37,123,47,72,16,205,48,1*7A
$GAGSV,2,1,08,04,24,171,44,05,35,307,43,06,45,190,47,09,59,227,49,7*7E
$GAGSV,2,2,08,16,19,257,35,23,21,059,31,31,67,018,44,33,15,105,43,7*73
$GQGSV,1,1,02,02,78,100,33,03,16,154,35,1*69
$GBGSV,4,1,14,28,12,183,32,25,41,080,47,23,67,345,48,20,14,311,39,1*7D
$GBGSV,4,2,14,16,75,352,42,11,43,085,42,10,26,214,47,09,56,317,38,1*7B
$GBGSV,4,3,14,07,40,208,45,06,72,336,41,04,31,134,46,03,42,205,48,1*70
$GBGSV,4,4,14,02,28,237,35,01,41,152,48,1*75
$GNGSA,A,3,04,08,09,16,18,26,27,28,31,,,,0.7,0.4,0.6,1*36
$GNGSA,A,3,65,72,74,75,76,84,85,,,,,,0.7,0.4,0.6,2*30
$GNGSA,A,3,04,05,06,09,16,23,26,31,33,,,,0.7,0.4,0.6,3*38
$GNGSA,A,3,01,03,06,07,09,10,11,12,16,20,23,25,0.7,0.4,0.6,4*3A
$GNGSA,A,3,02,03,,,,,,,,,,,0.7,0.4,0.6,5*31
$GNVTG,,T,,M,0.0,N,0.0,K,A*3D
$GNDTM,P90,,0000.000025,S,00000.000001,W,0.982,W84*49
$GNRMC,070722.00,A,3727.037328,N,12639.113850,E,0.0,,191125,9.1,W,A,V*67
$GNGNS,070722.00,3727.037328,N,12639.113850,E,AAAAAN,40,0.4,14.2,18.0,,,V*1E
$GNGGA,070722.00,3727.037328,N,12639.113850,E,1,12,0.4,14.2,M,18.0,M,,*46
$PSMSG,magcal=PASS,bluesky=0*00
$GPGSV,3,1,10,04,49,276,25,08,21,210,50,09,22,312,39,16,68,317,40,1*6C
$GPGSV,3,2,10,26,55,048,42,27,51,196,52,28,25,120,39,31,54,109,47,1*6E
$GPGSV,3,3,10,41,00,000,46,42,00,000,44,1*64
$GLGSV,3,1,10,74,32,063,37,,00,000,49,66,00,000,32,76,17,290,46,1*7A
$GLGSV,3,2,10,75,53,349,42,65,37,262,36,84,33,058,42,83,01,018,25,1*73
$GLGSV,3,3,10,85,37,123,47,72,16,205,47,1*75
$GAGSV,3,1,09,04,24,171,44,05,35,307,42,06,45,190,47,09,59,227,48,7*7E
$GAGSV,3,2,09,16,19,257,35,23,21,059,32,26,11,057,26,31,67,018,44,7*75
$GAGSV,3,3,09,33,15,105,43,7*4D
$GQGSV,1,1,02,02,78,100,33,03,16,154,34,1*68
$GBGSV,4,1,15,28,12,183,32,25,41,080,47,23,67,345,47,20,14,311,40,1*7D
$GBGSV,4,2,15,16,75,352,42,11,43,085,41,10,26,214,47,09,56,317,38,1*79
$GBGSV,4,3,15,07,40,208,45,06,72,336,41,05,09,257,30,04,31,134,45,1*73
$GBGSV,4,4,15,03,42,205,49,02,28,237,35,01,41,152,48,1*4B
$GNGSA,A,3,04,08,09,16,18,26,27,28,31,,,,0.7,0.4,0.6,1*36
$GNGSA,A,3,65,72,74,75,76,84,85,,,,,,0.7,0.4,0.6,2*30
$GNGSA,A,3,04,05,06,09,16,23,26,31,33,,,,0.7,0.4,0.6,3*38
$GNGSA,A,3,01,03,06,07,09,10,11,12,16,20,23,25,0.7,0.4,0.6,4*3A
$GNGSA,A,3,02,03,,,,,,,,,,,0.7,0.4,0.6,5*31
$GNVTG,,T,,M,0.0,N,0.0,K,A*3D
$GNDTM,P90,,0000.000025,S,00000.000001,W,0.982,W84*49
$GNRMC,070723.00,A,3727.037344,N,12639.113890,E,0.0,,191125,9.1,W,A,V*60
$GNGNS,070723.00,3727.037344,N,12639.113890,E,AAAAAN,40,0.4,13.8,18.0,,,V*14
$GNGGA,070723.00,3727.037344,N,12639.113890,E,1,12,0.4,13.8,M,18.0,M,,*4C
$PSMSG,magcal=PASS,bluesky=0*00
$GPGSV,3,1,10,04,49,276,31,08,21,210,51,09,22,312,37,16,68,317,40,1*66
$GPGSV,3,2,10,26,55,048,41,27,51,196,53,28,25,120,40,31,54,109,47,1*62
$GPGSV,3,3,10,41,00,000,46,42,00,000,44,1*64
$GLGSV,3,1,10,74,32,063,36,,00,000,49,66,00,000,32,76,17,290,46,1*7B
$GLGSV,3,2,10,75,53,349,43,65,37,262,35,84,33,058,42,83,01,018,26,1*72
$GLGSV,3,3,10,85,37,123,47,72,16,205,47,1*75
$GAGSV,3,1,09,04,24,171,43,05,35,307,42,06,45,190,47,09,59,227,49,7*78
$GAGSV,3,2,09,16,19,257,35,23,21,059,32,26,11,057,27,31,67,018,44,7*74
$GAGSV,3,3,09,33,15,105,43,7*4D
$GQGSV,1,1,02,02,78,100,33,03,16,154,34,1*68
$GBGSV,4,1,14,28,12,183,34,25,41,080,46,23,67,345,48,20,14,311,39,1*7A
$GBGSV,4,2,14,16,75,352,42,11,43,085,42,10,26,214,47,09,56,317,39,1*7A
$GBGSV,4,3,14,07,40,208,46,06,72,336,42,04,31,134,45,03,42,205,49,1*72
$GBGSV,4,4,14,02,28,237,34,01,41,152,48,1*74
$GNGSA,A,3,04,08,09,16,18,26,27,28,31,,,,0.7,0.4,0.6,1*36
$GNGSA,A,3,65,72,74,75,76,84,85,,,,,,0.7,0.4,0.6,2*30
$GNGSA,A,3,04,05,06,09,16,23,26,31,33,,,,0.7,0.4,0.6,3*38
$GNGSA,A,3,01,03,06,07,09,10,11,12,16,20,23,25,0.7,0.4,0.6,4*3A
$GNGSA,A,3,02,03,,,,,,,,,,,0.7,0.4,0.6,5*31
$GNVTG,,T,,M,0.0,N,0.0,K,A*3D
$GNDTM,P90,,0000.000025,S,00000.000001,W,0.982,W84*49
$GNRMC,070724.00,A,3727.037400,N,12639.113905,E,0.0,,191125,9.1,W,A,V*6D
$GNGNS,070724.00,3727.037400,N,12639.113905,E,AAAAAN,40,0.4,13.4,18.0,,,V*15
$GNGGA,070724.00,3727.037400,N,12639.113905,E,1,12,0.4,13.4,M,18.0,M,,*4D
$PSMSG,magcal=PASS,bluesky=0*00
$GPGSV,3,1,10,04,49,276,29,08,21,210,51,09,22,312,35,16,68,317,39,1*63
$GPGSV,3,2,10,26,55,048,41,27,51,196,53,28,25,120,41,31,54,109,47,1*63
$GPGSV,3,3,10,41,00,000,46,42,00,000,43,1*63
$GLGSV,3,1,10,74,32,063,36,,00,000,50,66,00,000,32,76,17,290,45,1*70
$GLGSV,3,2,10,75,53,349,45,65,37,262,35,84,33,058,42,83,01,018,25,1*77
$GLGSV,3,3,10,85,37,123,47,72,16,205,47,1*75
$GAGSV,2,1,08,04,24,171,44,05,35,307,41,06,45,190,48,09,59,227,49,7*73
$GAGSV,2,2,08,16,19,257,35,23,21,059,32,31,67,018,44,33,15,105,44,7*77
$GQGSV,1,1,02,02,78,100,33,03,16,154,35,1*69
$GBGSV,4,1,15,28,12,183,34,25,41,080,46,23,67,345,49,20,14,311,35,1*76
$GBGSV,4,2,15,16,75,352,43,12,12,038,25,11,43,085,42,10,26,214,47,1*73
$GBGSV,4,3,15,09,56,317,38,07,40,208,46,06,72,336,42,04,31,134,46,1*7B
$GBGSV,4,4,15,03,42,205,49,02,28,237,34,01,41,152,48,1*4A
$GNGSA,A,3,04,08,09,16,18,26,27,28,31,,,,0.7,0.4,0.6,1*36
$GNGSA,A,3,65,72,74,75,76,84,85,,,,,,0.7,0.4,0.6,2*30
$GNGSA,A,3,04,05,06,09,16,23,26,31,33,,,,0.7,0.4,0.6,3*38
$GNGSA,A,3,01,03,06,07,09,10,11,12,16,20,23,25,0.7,0.4,0.6,4*3A
$GNGSA,A,3,02,03,,,,,,,,,,,0.7,0.4,0.6,5*31
$GNVTG,,T,,M,0.0,N,0.0,K,A*3D
$GNDTM,P90,,0000.000025,S,00000.000001,W,0.982,W84*49
$GNRMC,070725.00,A,3727.037366,N,12639.113942,E,0.0,,191125,9.1,W,A,V*68
$GNGNS,070725.00,3727.037366,N,12639.113942,E,AAAAAN,40,0.4,13.3,18.0,,,V*17
$GNGGA,070725.00,3727.037366,N,12639.113942,E,1,12,0.4,13.3,M,18.0,M,,*4F
$PSMSG,magcal=PASS,bluesky=0*00
$GPGSV,3,1,11,04,49,276,34,08,21,210,51,09,22,312,31,16,68,317,41,1*65
$GPGSV,3,2,11,18,19,079,31,26,55,048,43,27,51,196,53,28,25,120,40,1*64
$GPGSV,3,3,11,31,54,109,46,41,00,000,46,42,00,000,43,1*5B
$GLGSV,3,1,10,74,32,063,37,,00,000,49,66,00,000,32,76,17,290,41,1*7D
$GLGSV,3,2,10,75,53,349,44,65,37,262,32,84,33,058,42,83,01,018,26,1*72
$GLGSV,3,3,10,85,37,123,47,72,16,205,47,1*75
$GAGSV,2,1,08,04,24,171,44,05,35,307,41,06,45,190,47,09,59,227,49,7*7C
$GAGSV,2,2,08,16,19,257,35,23,21,059,32,31,67,018,44,33,15,105,44,7*77
$GQGSV,1,1,02,02,78,100,35,03,16,154,36,1*6C
$GBGSV,4,1,14,28,12,183,35,25,41,080,46,23,67,345,49,20,14,311,36,1*75
$GBGSV,4,2,14,16,75,352,44,11,43,085,42,10,26,214,47,09,56,317,37,1*72
$GBGSV,4,3,14,07,40,208,46,06,72,336,40,04,31,134,46,03,42,205,49,1*73
$GBGSV,4,4,14,02,28,237,33,01,41,152,48,1*73
$GNGSA,A,3,04,08,09,16,18,26,27,28,31,,,,0.7,0.4,0.6,1*36
$GNGSA,A,3,65,72,74,75,76,84,85,,,,,,0.7,0.4,0.6,2*30
$GNGSA,A,3,04,05,06,09,16,23,26,31,33,,,,0.7,0.4,0.6,3*38
$GNGSA,A,3,01,03,06,07,09,10,11,12,16,20,23,25,0.7,0.4,0.6,4*3A
$GNGSA,A,3,02,03,,,,,,,,,,,0.7,0.4,0.6,5*31
$GNVTG,,T,,M,0.0,N,0.0,K,A*3D
$GNDTM,P90,,0000.000025,S,00000.000001,W,0.982,W84*49
$GNRMC,070726.00,A,3727.037349,N,12639.113956,E,0.0,,191125,9.1,W,A,V*63
$GNGNS,070726.00,3727.037349,N,12639.113956,E,AAAAAN,40,0.4,13.2,18.0,,,V*1D
$GNGGA,070726.00,3727.037349,N,12639.113956,E,1,12,0.4,13.2,M,18.0,M,,*45
$PSMSG,magcal=PASS,bluesky=0*00
$GPGSV,3,1,11,04,49,276,26,08,21,210,51,09,22,312,33,16,68,317,40,1*65
$GPGSV,3,2,11,18,19,079,31,26,55,048,41,27,51,196,53,28,25,120,39,1*68
$GPGSV,3,3,11,31,54,109,47,41,00,000,46,42,00,000,43,1*5A
$GLGSV,3,1,10,74,32,063,35,,00,000,49,66,00,000,32,76,17,290,44,1*7A
$GLGSV,3,2,10,75,53,349,44,65,37,262,35,84,33,058,42,83,01,018,24,1*77
$GLGSV,3,3,10,85,37,123,47,72,16,205,46,1*74
$GAGSV,2,1,08,04,24,171,44,05,35,307,39,06,45,190,48,09,59,227,48,7*7D
$GAGSV,2,2,08,16,19,257,34,23,21,059,31,31,67,018,44,33,15,105,44,7*75
$GQGSV,1,1,02,02,78,100,33,03,16,154,36,1*6A
$GBGSV,4,1,15,28,12,183,36,25,41,080,46,23,67,345,48,20,14,311,35,1*75
$GBGSV,4,2,15,16,75,352,43,11,43,085,42,10,26,214,47,09,56,317,38,1*7B
$GBGSV,4,3,15,07,40,208,46,06,72,336,41,05,09,257,31,04,31,134,46,1*72
$GBGSV,4,4,15,03,42,205,49,02,28,237,34,01,41,152,48,1*4A
$GNGSA,A,3,04,08,09,16,18,26,27,28,31,,,,0.7,0.4,0.6,1*36
$GNGSA,A,3,65,72,74,75,76,84,85,,,,,,0.7,0.4,0.6,2*30
$GNGSA,A,3,04,05,06,09,16,23,26,31,33,,,,0.7,0.4,0.6,3*38
$GNGSA,A,3,01,03,06,07,09,10,11,12,16,20,23,25,0.7,0.4,0.6,4*3A
$GNGSA,A,3,02,03,,,,,,,,,,,0.7,0.4,0.6,5*31
$GNVTG,,T,,M,0.0,N,0.0,K,A*3D
$GNDTM,P90,,0000.000025,S,00000.000001,W,0.982,W84*49
$GNRMC,070727.00,A,3727.037333,N,12639.113965,E,0.0,,191125,9.1,W,A,V*6F
$GNGNS,070727.00,3727.037333,N,12639.113965,E,AAAAAN,40,0.4,13.2,18.0,,,V*11
$GNGGA,070727.00,3727.037333,N,12639.113965,E,1,12,0.4,13.2,M,18.0,M,,*49
$PSMSG,magcal=PASS,bluesky=0*00
$GPGSV,3,1,11,04,49,276,29,08,21,210,51,09,22,312,35,16,68,317,38,1*63
$GPGSV,3,2,11,18,19,079,32,26,55,048,42,27,51,196,52,28,25,120,41,1*66
$GPGSV,3,3,11,31,54,109,47,41,00,000,46,42,00,000,43,1*5A
$GLGSV,3,1,10,74,32,063,35,,00,000,50,66,00,000,32,76,17,290,44,1*72
$GLGSV,3,2,10,75,53,349,44,65,37,262,35,84,33,058,41,83,01,018,23,1*73
$GLGSV,3,3,10,85,37,123,47,72,16,205,47,1*75
$GAGSV,2,1,08,04,24,171,44,05,35,307,41,06,45,190,47,09,59,227,49,7*7C
$GAGSV,2,2,08,16,19,257,34,23,21,059,31,31,67,018,44,33,15,105,44,7*75
$GQGSV,1,1,02,02,78,100,33,03,16,154,34,1*68
$GBGSV,4,1,14,28,12,183,35,25,41,080,45,23,67,345,47,20,14,311,37,1*79
$GBGSV,4,2,14,16,75,352,44,11,43,085,41,10,26,214,48,09,56,317,39,1*70
$GBGSV,4,3,14,07,40,208,46,06,72,336,42,04,31,134,46,03,42,205,48,1*70
$GBGSV,4,4,14,02,28,237,35,01,41,152,48,1*75
$GNGSA,A,3,04,08,09,16,18,26,27,28,31,,,,0.7,0.4,0.6,1*36
$GNGSA,A,3,65,72,74,75,76,84,85,,,,,,0.7,0.4,0.6,2*30
$GNGSA,A,3,04,05,06,09,16,23,26,31,33,,,,0.7,0.4,0.6,3*38
$GNGSA,A,3,01,03,06,07,09,10,11,12,16,20,23,25,0.7,0.4,0.6,4*3A
$GNGSA,A,3,02,03,,,,,,,,,,,0.7,0.4,0.6,5*31
$GNVTG,,T,,M,0.0,N,0.0,K,A*3D
$GNDTM,P90,,0000.000025,S,00000.000001,W,0.982,W84*49
$GNRMC,070728.00,A,3727.037325,N,12639.113969,E,0.0,,191125,9.1,W,A,V*6B
$GNGNS,070728.00,3727.037325,N,12639.113969,E,AAAAAN,40,0.4,13.2,18.0,,,V*15
$GNGGA,070728.00,3727.037325,N,12639.113969,E,1,12,0.4,13.2,M,18.0,M,,*4D
$PSMSG,magcal=PASS,bluesky=0*00
$GPGSV,3,1,11,04,49,276,36,08,21,210,51,09,22,312,41,16,68,317,42,1*63
$GPGSV,3,2,11,18,19,079,33,26,55,048,42,27,51,196,53,28,25,120,40,1*67
$GPGSV,3,3,11,31,54,109,47,41,00,000,45,42,00,000,44,1*5E
$GLGSV,3,1,10,74,32,063,35,,00,000,50,66,00,000,32,76,17,290,44,1*72
$GLGSV,3,2,10,75,53,349,46,65,37,262,36,84,33,058,41,83,01,018,24,1*75
$GLGSV,3,3,10,85,37,123,47,72,16,205,47,1*75
$GAGSV,3,1,09,04,24,171,44,05,35,307,44,06,45,190,47,09,59,227,48,7*78
$GAGSV,3,2,09,16,19,257,34,23,21,059,30,26,11,057,25,31,67,018,45,7*74
$GAGSV,3,3,09,33,15,105,43,7*4D
$GQGSV,1,1,02,02,78,100,33,03,16,154,35,1*69
$GBGSV,4,1,15,28,12,183,38,25,41,080,45,23,67,345,48,20,14,311,39,1*74
$GBGSV,4,2,15,16,75,352,42,11,43,085,42,10,26,214,47,09,56,317,38,1*7A
$GBGSV,4,3,15,07,40,208,46,06,72,336,41,05,09,257,31,04,31,134,46,1*72
$GBGSV,4,4,15,03,42,205,48,02,28,237,37,01,41,152,48,1*48
$GNGSA,A,3,04,08,09,16,18,26,27,28,31,,,,0.7,0.4,0.6,1*36
$GNGSA,A,3,65,72,74,75,76,84,85,,,,,,0.7,0.4,0.6,2*30
$GNGSA,A,3,04,05,06,09,16,23,26,31,33,,,,0.7,0.4,0.6,3*38
$GNGSA,A,3,01,03,06,07,09,10,11,12,16,20,23,25,0.7,0.4,0.6,4*3A
$GNGSA,A,3,02,03,,,,,,,,,,,0.7,0.4,0.6,5*31
$GNVTG,,T,,M,0.0,N,0.0,K,A*3D
$GNDTM,P90,,0000.000025,S,00000.000001,W,0.982,W84*49
$GNRMC,070729.00,A,3727.037327,N,12639.113965,E,0.0,,191125,9.1,W,A,V*64
$GNGNS,070729.00,3727.037327,N,12639.113965,E,AAAAAN,40,0.4,13.2,18.0,,,V*1A
$GNGGA,070729.00,3727.037327,N,12639.113965,E,1,12,0.4,13.2,M,18.0,M,,*42
$PSMSG,magcal=PASS,bluesky=0*00
$GPGSV,3,1,11,04,49,276,35,08,21,210,51,09,22,312,38,16,68,317,37,1*6C
$GPGSV,3,2,11,18,19,079,33,26,55,048,41,27,51,196,53,28,25,120,41,1*65
$GPGSV,3,3,11,31,54,109,47,41,00,000,45,42,00,000,44,1*5E
$GLGSV,3,1,10,74,32,063,35,,00,000,50,66,00,000,32,76,17,290,40,1*76
$GLGSV,3,2,10,75,53,349,43,65,37,262,38,84,33,058,40,83,01,018,24,1*7F
$GLGSV,3,3,10,85,37,123,46,72,16,205,47,1*74
$GAGSV,3,1,09,04,24,171,44,05,35,307,31,06,45,190,47,09,59,227,48,7*7A
$GAGSV,3,2,09,16,19,257,34,23,21,059,31,26,11,057,25,31,67,018,43,7*73
$GAGSV,3,3,09,33,15,105,43,7*4D
$GQGSV,1,1,02,02,78,100,32,03,16,154,34,1*69
$GBGSV,4,1,15,28,12,183,41,25,41,080,43,23,67,345,44,20,14,311,38,1*71
$GBGSV,4,2,15,16,75,352,44,12,12,038,26,11,43,085,40,10,26,214,47,1*75
$GBGSV,4,3,15,09,56,317,35,07,40,208,46,06,72,336,42,04,31,134,45,1*75
$GBGSV,4,4,15,03,42,205,49,02,28,237,37,01,41,152,48,1*49
$GNGSA,A,3,04,08,09,16,18,26,27,28,31,,,,0.7,0.4,0.6,1*36
$GNGSA,A,3,65,72,74,75,76,84,85,,,,,,0.7,0.4,0.6,2*30
$GNGSA,A,3,04,05,06,09,16,23,26,31,33,,,,0.7,0.4,0.6,3*38
$GNGSA,A,3,01,03,06,07,09,10,11,12,16,20,23,25,0.7,0.4,0.6,4*3A
$GNGSA,A,3,02,03,,,,,,,,,,,0.7,0.4,0.6,5*31
$GNVTG,,T,,M,0.0,N,0.0,K,A*3D
$GNDTM,P90,,0000.000025,S,00000.000001,W,0.982,W84*49
$GNRMC,070730.00,A,3727.037331,N,12639.113960,E,0.0,,191125,9.1,W,A,V*6E
$GNGNS,070730.00,3727.037331,N,12639.113960,E,AAAAAN,40,0.4,13.2,18.0,,,V*10
$GNGGA,070730.00,3727.037331,N,12639.113960,E,1,12,0.4,13.2,M,18.0,M,,*48
$PSMSG,magcal=PASS,bluesky=0*00
$GPGSV,3,1,11,04,49,276,35,08,21,210,50,09,22,312,38,16,68,317,35,1*6F
$GPGSV,3,2,11,18,19,079,30,26,55,048,42,27,51,196,52,28,25,120,39,1*6B
$GPGSV,3,3,11,31,54,109,46,41,00,000,43,42,00,000,42,1*5F
$GLGSV,3,1,10,74,32,063,33,,00,000,47,66,00,000,32,76,17,290,41,1*77
$GLGSV,3,2,10,75,53,349,41,65,37,262,43,84,33,058,41,83,01,018,24,1*70
$GLGSV,3,3,10,85,37,123,47,72,16,205,42,1*70
$GAGSV,3,1,09,04,24,171,43,05,35,307,35,06,45,190,48,09,59,227,46,7*78
$GAGSV,3,2,09,16,19,257,36,23,21,059,30,26,11,057,26,31,67,018,43,7*73
$GAGSV,3,3,09,33,15,105,43,7*4D
$GQGSV,1,1,02,02,78,100,34,03,16,154,35,1*6E
$GBGSV,4,1,14,28,12,183,41,25,41,080,44,23,67,345,42,20,14,311,31,1*78
$GBGSV,4,2,14,16,75,352,43,11,43,085,40,10,26,214,47,09,56,317,35,1*75
$GBGSV,4,3,14,07,40,208,46,06,72,336,40,04,31,134,46,03,42,205,49,1*73
$GBGSV,4,4,14,02,28,237,34,01,41,152,49,1*75
$GNGSA,A,3,04,08,09,16,18,26,27,28,31,,,,0.7,0.4,0.6,1*36
$GNGSA,A,3,65,72,74,75,76,84,85,,,,,,0.7,0.4,0.6,2*30
$GNGSA,A,3,04,05,06,09,16,23,26,31,33,,,,0.7,0.4,0.6,3*38
$GNGSA,A,3,01,03,06,07,09,10,11,12,16,20,23,25,0.7,0.4,0.6,4*3A
$GNGSA,A,3,02,03,,,,,,,,,,,0.7,0.4,0.6,5*31
$GNVTG,,T,,M,0.0,N,0.0,K,A*3D
$GNDTM,P90,,0000.000025,S,00000.000001,W,0.982,W84*49
$GNRMC,070731.00,A,3727.037331,N,12639.113960,E,0.0,,191125,9.1,W,A,V*6F
$GNGNS,070731.00,3727.037331,N,12639.113960,E,AAAAAN,40,0.4,13.2,18.0,,,V*11
$GNGGA,070731.00,3727.037331,N,12639.113960,E,1,12,0.4,13.2,M,18.0,M,,*49
$PSMSG,magcal=PASS,bluesky=0*00
$GPGSV,3,1,10,04,49,276,31,08,21,210,50,09,22,312,39,16,68,317,32,1*6C
$GPGSV,3,2,10,26,55,048,41,27,51,196,52,28,25,120,41,31,54,109,44,1*61
$GPGSV,3,3,10,41,00,000,43,42,00,000,42,1*67
$GLGSV,3,1,10,74,32,063,33,,00,000,47,66,00,000,32,76,17,290,37,1*76
$GLGSV,3,2,10,75,53,349,41,65,37,262,43,84,33,058,40,83,01,018,25,1*70
$GLGSV,3,3,10,85,37,123,47,72,16,205,40,1*72
$GAGSV,3,1,09,04,24,171,44,05,35,307,30,06,45,190,47,09,59,227,47,7*74
$GAGSV,3,2,09,16,19,257,34,23,21,059,31,26,11,057,25,31,67,018,41,7*71
$GAGSV,3,3,09,33,15,105,44,7*4A
$GQGSV,1,1,02,02,78,100,34,03,16,154,32,1*69
$GBGSV,4,1,15,28,12,183,39,25,41,080,44,23,67,345,42,20,14,311,33,1*74
$GBGSV,4,2,15,16,75,352,43,11,43,085,41,10,26,214,47,09,56,317,33,1*73
$GBGSV,4,3,15,07,40,208,46,06,72,336,39,05,09,257,32,04,31,134,47,1*7F
$GBGSV,4,4,15,03,42,205,49,02,28,237,34,01,41,152,49,1*4B
$GNGSA,A,3,04,08,09,16,18,26,27,28,31,,,,0.7,0.4,0.6,1*36
$GNGSA,A,3,65,72,74,75,76,84,85,,,,,,0.7,0.4,0.6,2*30
$GNGSA,A,3,04,05,06,09,16,23,26,31,33,,,,0.7,0.4,0.6,3*38
$GNGSA,A,3,01,03,06,07,09,10,11,12,16,20,23,25,0.7,0.4,0.6,4*3A
$GNGSA,A,3,02,03,,,,,,,,,,,0.7,0.4,0.6,5*31
$GNVTG,,T,,M,0.0,N,0.0,K,A*3D
$GNDTM,P90,,0000.000025,S,00000.000001,W,0.982,W84*49
$GNRMC,070732.00,A,3727.037331,N,12639.113959,E,0.0,,191125,9.1,W,A,V*66
$GNGNS,070732.00,3727.037331,N,12639.113959,E,AAAAAN,40,0.4,13.2,18.0,,,V*18
$GNGGA,070732.00,3727.037331,N,12639.113959,E,1,12,0.4,13.2,M,18.0,M,,*40
$PSMSG,magcal=PASS,bluesky=0*00
$GPGSV,3,1,10,04,49,276,33,08,21,210,51,09,22,312,38,16,68,317,34,1*68
$GPGSV,3,2,10,26,55,048,39,27,51,196,53,28,25,120,42,31,54,109,46,1*6E
$GPGSV,3,3,10,41,00,000,42,42,00,000,42,1*66
$GLGSV,3,1,10,74,32,063,32,,00,000,49,66,00,000,32,76,17,290,38,1*76
$GLGSV,3,2,10,75,53,349,42,65,37,262,42,84,33,058,40,83,01,018,28,1*7F
$GLGSV,3,3,10,85,37,123,48,72,16,205,41,1*7C
$GAGSV,2,1,08,04,24,171,45,05,35,307,36,06,45,190,48,09,59,227,48,7*73
$GAGSV,2,2,08,16,19,257,39,23,21,059,32,31,67,018,42,33,15,105,44,7*7D
$GQGSV,1,1,02,02,78,100,36,03,16,154,32,1*6B
$GBGSV,4,1,14,28,12,183,35,25,41,080,45,23,67,345,42,20,14,311,36,1*7D
$GBGSV,4,2,14,16,75,352,42,11,43,085,41,10,26,214,47,09,56,317,36,1*76
$GBGSV,4,3,14,07,40,208,46,06,72,336,39,04,31,134,47,03,42,205,48,1*7D
$GBGSV,4,4,14,02,28,237,33,01,41,152,50,1*7A
$GNGSA,A,3,04,08,09,16,18,26,27,28,31,,,,0.7,0.4,0.6,1*36
$GNGSA,A,3,65,72,74,75,76,84,85,,,,,,0.7,0.4,0.6,2*30
$GNGSA,A,3,04,05,06,09,16,23,26,31,33,,,,0.7,0.4,0.6,3*38
$GNGSA,A,3,01,03,06,07,09,10,11,12,16,20,23,25,0.7,0.4,0.6,4*3A
$GNGSA,A,3,02,03,,,,,,,,,,,0.7,0.4,0.6,5*31
$GNVTG,,T,,M,0.0,N,0.0,K,A*3D
$GNDTM,P90,,0000.000025,S,00000.000001,W,0.982,W84*49
$GNRMC,070733.00,A,3727.037331,N,12639.113958,E,0.0,,191125,9.1,W,A,V*66
$GNGNS,070733.00,3727.037331,N,12639.113958,E,AAAAAN,40,0.4,13.2,18.0,,,V*18
$GNGGA,070733.00,3727.037331,N,12639.113958,E,1,12,0.4,13.2,M,18.0,M,,*40
$PSMSG,magcal=PASS,bluesky=0*00
$GPGSV,3,1,10,04,49,276,34,08,21,210,51,09,22,312,36,16,68,317,38,1*6D
$GPGSV,3,2,10,26,55,048,42,27,51,196,53,28,25,120,39,31,54,109,46,1*6E
$GPGSV,3,3,10,41,00,000,44,42,00,000,43,1*61
$GLGSV,3,1,10,74,32,063,31,,00,000,48,66,00,000,32,76,17,290,38,1*74
$GLGSV,3,2,10,75,53,349,42,65,37,262,42,84,33,058,42,83,01,018,26,1*73
$GLGSV,3,3,10,85,37,123,47,72,16,205,42,1*70
$GAGSV,2,1,08,04,24,171,44,05,35,307,36,06,45,190,48,09,59,227,48,7*72
$GAGSV,2,2,08,16,19,257,36,23,21,059,32,31,67,018,43,33,15,105,44,7*73
$GQGSV,1,1,02,02,78,100,34,03,16,154,34,1*6F
$GBGSV,4,1,15,28,12,183,41,25,41,080,45,23,67,345,44,20,14,311,37,1*78
$GBGSV,4,2,15,16,75,352,43,11,43,085,39,10,26,214,47,09,56,317,37,1*78
$GBGSV,4,3,15,07,40,208,47,06,72,336,41,05,09,257,33,04,31,134,45,1*72
$GBGSV,4,4,15,03,42,205,49,02,28,237,36,01,41,152,49,1*49
$GNGSA,A,3,04,08,09,16,18,26,27,28,31,,,,0.7,0.4,0.6,1*36
$GNGSA,A,3,65,72,74,75,76,84,85,,,,,,0.7,0.4,0.6,2*30
$GNGSA,A,3,04,05,06,09,16,23,26,31,33,,,,0.7,0.4,0.6,3*38
$GNGSA,A,3,01,03,06,07,09,10,11,12,16,20,23,25,0.7,0.4,0.6,4*3A
$GNGSA,A,3,02,03,,,,,,,,,,,0.7,0.4,0.6,5*31
$GNVTG,,T,,M,0.0,N,0.0,K,A*3D
$GNDTM,P90,,0000.000025,S,00000.000001,W,0.982,W84*49
$GNRMC,070734.00,A,3727.037331,N,12639.113956,E,0.0,,191125,9.1,W,A,V*6F
$GNGNS,070734.00,3727.037331,N,12639.113956,E,AAAAAN,40,0.4,13.2,18.0,,,V*11
$GNGGA,070734.00,3727.037331,N,12639.113956,E,1,12,0.4,13.2,M,18.0,M,,*49
$PSMSG,magcal=PASS,bluesky=0*00
$GPGSV,3,1,11,04,49,276,35,08,21,210,51,09,22,312,41,16,68,317,43,1*61
$GPGSV,3,2,11,18,19,079,30,26,55,048,44,27,51,196,53,28,25,120,40,1*62
$GPGSV,3,3,11,31,54,109,47,41,00,000,45,42,00,000,44,1*5E
$GLGSV,3,1,10,74,32,063,29,,00,000,48,66,00,000,32,76,17,290,44,1*76
$GLGSV,3,2,10,75,53,349,45,65,37,262,40,84,33,058,42,83,01,018,27,1*77
$GLGSV,3,3,10,85,37,123,47,72,16,205,38,1*7D
$GAGSV,2,1,08,04,24,171,45,05,35,307,45,06,45,190,48,09,59,227,48,7*77
$GAGSV,2,2,08,16,19,257,31,23,21,059,31,31,67,018,43,33,15,105,43,7*70
$GQGSV,1,1,02,02,78,100,34,03,16,154,35,1*6E
$GBGSV,4,1,16,28,12,183,38,25,41,080,46,23,67,345,47,20,14,311,40,1*75
$GBGSV,4,2,16,16,75,352,43,12,12,038,26,11,43,085,41,10,26,214,47,1*70
$GBGSV,4,3,16,09,56,317,37,07,40,208,46,06,72,336,42,05,09,257,32,1*78
$GBGSV,4,4,16,04,31,134,46,03,42,205,49,02,28,237,35,01,41,152,48,1*7A
$GNGSA,A,3,04,08,09,16,18,26,27,28,31,,,,0.7,0.4,0.6,1*36
$GNGSA,A,3,65,72,74,75,76,84,85,,,,,,0.7,0.4,0.6,2*30
$GNGSA,A,3,04,05,06,09,16,23,26,31,33,,,,0.7,0.4,0.6,3*38
$GNGSA,A,3,01,03,06,07,09,10,11,12,16,20,23,25,0.7,0.4,0.6,4*3A
$GNGSA,A,3,02,03,,,,,,,,,,,0.7,0.4,0.6,5*31
$GNVTG,,T,,M,0.0,N,0.0,K,A*3D
$GNDTM,P90,,0000.000025,S,00000.000001,W,0.982,W84*49
$GNRMC,070735.00,A,3727.037330,N,12639.113953,E,0.0,,191125,9.1,W,A,V*6A
$GNGNS,070735.00,3727.037330,N,12639.113953,E,AAAAAN,40,0.4,13.2,18.0,,,V*14
$GNGGA,070735.00,3727.037330,N,12639.113953,E,1,12,0.4,13.2,M,18.0,M,,*4C
$PSMSG,magcal=PASS,bluesky=0*00
$GPGSV,3,1,10,04,49,276,31,08,21,210,51,09,22,312,36,16,68,317,41,1*66
$GPGSV,3,2,10,26,55,048,42,27,51,196,53,28,25,120,40,31,54,109,47,1*61
$GPGSV,3,3,10,41,00,000,46,42,00,000,43,1*63
$GLGSV,3,1,10,74,32,063,31,,00,000,48,66,00,000,32,76,17,290,43,1*78
$GLGSV,3,2,10,75,53,349,37,65,37,262,38,84,33,058,42,83,01,018,28,1*72
$GLGSV,3,3,10,85,37,123,46,72,16,205,38,1*7C
$GAGSV,2,1,08,04,24,171,45,05,35,307,45,06,45,190,48,09,59,227,49,7*76
$GAGSV,2,2,08,16,19,257,33,23,21,059,31,31,67,018,43,33,15,105,43,7*72
$GQGSV,1,1,02,02,78,100,35,03,16,154,34,1*6E
$GBGSV,4,1,15,28,12,183,37,25,41,080,46,23,67,345,47,20,14,311,39,1*77
$GBGSV,4,2,15,16,75,352,43,11,43,085,42,10,26,214,47,09,56,317,36,1*75
$GBGSV,4,3,15,07,40,208,46,06,72,336,41,05,09,257,32,04,31,134,46,1*71
$GBGSV,4,4,15,03,42,205,49,02,28,237,36,01,41,152,48,1*48
$GNGSA,A,3,04,08,09,16,18,26,27,28,31,,,,0.7,0.4,0.6,1*36
$GNGSA,A,3,65,72,74,75,76,84,85,,,,,,0.7,0.4,0.6,2*30
$GNGSA,A,3,04,05,06,09,16,23,26,31,33,,,,0.7,0.4,0.6,3*38
$GNGSA,A,3,01,03,06,07,09,10,11,12,16,20,23,25,0.7,0.4,0.6,4*3A
$GNGSA,A,3,02,03,,,,,,,,,,,0.7,0.4,0.6,5*31
$GNVTG,,T,,M,0.0,N,0.0,K,A*3D
$GNDTM,P90,,0000.000025,S,00000.000001,W,0.982,W84*49
$GNRMC,070736.00,A,3727.037330,N,12639.113950,E,0.0,,191125,9.1,W,A,V*6A
$GNGNS,070736.00,3727.037330,N,12639.113950,E,AAAAAN,40,0.4,13.2,18.0,,,V*14
$GNGGA,070736.00,3727.037330,N,12639.113950,E,1,12,0.4,13.2,M,18.0,M,,*4C
$PSMSG,magcal=PASS,bluesky=0*00
$GPGSV,3,1,10,04,49,276,34,08,21,210,51,09,22,312,34,16,68,317,41,1*61
$GPGSV,3,2,10,26,55,048,42,27,51,196,53,28,25,120,40,31,54,109,47,1*61
$GPGSV,3,3,10,41,00,000,46,42,00,000,44,1*64
$GLGSV,3,1,10,74,32,063,32,,00,000,47,66,00,000,32,76,17,290,45,1*72
$GLGSV,3,2,10,75,53,349,38,65,37,262,37,84,33,058,42,83,01,018,27,1*7D
$GLGSV,3,3,10,85,37,123,46,72,16,205,38,1*7C
$GAGSV,2,1,08,04,24,171,44,05,35,307,44,06,45,190,48,09,59,227,49,7*76
$GAGSV,2,2,08,16,19,257,32,23,21,059,31,31,67,018,44,33,15,105,44,7*73
$GQGSV,1,1,02,02,78,100,35,03,16,154,35,1*6F
$GBGSV,4,1,14,28,12,183,39,25,41,080,46,23,67,345,47,20,14,311,40,1*76
$GBGSV,4,2,14,16,75,352,42,11,43,085,41,10,26,214,47,09,56,317,39,1*79
$GBGSV,4,3,14,07,40,208,46,06,72,336,42,04,31,134,46,03,42,205,49,1*71
$GBGSV,4,4,14,02,28,237,35,01,41,152,48,1*75
$GNGSA,A,3,04,08,09,16,18,26,27,28,31,,,,0.7,0.4,0.6,1*36
$GNGSA,A,3,65,72,74,75,76,84,85,,,,,,0.7,0.4,0.6,2*30
$GNGSA,A,3,04,05,06,09,16,23,31,33,,,,,0.7,0.4,0.6,3*3C
$GNGSA,A,3,01,03,06,07,09,10,11,12,16,20,23,25,0.7,0.4,0.6,4*3A
$GNGSA,A,3,02,03,,,,,,,,,,,0.7,0.4,0.6,5*31
$GNVTG,,T,,M,0.0,N,0.0,K,A*3D
$GNDTM,P90,,0000.000025,S,00000.000001,W,0.982,W84*49
$GNRMC,070737.00,A,3727.037328,N,12639.113947,E,0.0,,191125,9.1,W,A,V*64
$GNGNS,070737.00,3727.037328,N,12639.113947,E,AAAAAN,39,0.4,13.1,18.0,,,V*17
$GNGGA,070737.00,3727.037328,N,12639.113947,E,1,12,0.4,13.1,M,18.0,M,,*41
$PSMSG,magcal=PASS,bluesky=0*00
$GPGSV,3,1,10,04,49,276,34,08,21,210,51,09,22,312,35,16,68,317,44,1*65
$GPGSV,3,2,10,26,55,048,44,27,51,196,53,28,25,120,41,31,54,109,46,1*67
$GPGSV,3,3,10,41,00,000,44,42,00,000,43,1*61
$GLGSV,3,1,10,74,32,063,33,,00,000,47,66,00,000,32,76,17,290,42,1*74
$GLGSV,3,2,10,75,53,349,36,65,37,262,34,84,33,058,40,83,01,018,28,1*7D
$GLGSV,3,3,10,85,37,123,46,72,16,205,40,1*73
$GAGSV,2,1,08,04,24,171,45,05,35,307,38,06,45,190,49,09,59,227,49,7*7D
$GAGSV,2,2,08,16,19,257,34,23,21,059,31,31,67,018,44,33,15,105,44,7*75
$GQGSV,1,1,02,02,78,100,34,03,16,154,35,1*6E
$GBGSV,4,1,14,28,12,183,40,25,41,080,46,23,67,345,47,20,14,311,38,1*77
$GBGSV,4,2,14,16,75,352,43,11,43,085,41,10,26,214,47,09,56,317,36,1*77
$GBGSV,4,3,14,07,40,208,46,06,72,336,42,04,31,134,46,03,42,205,48,1*70
$GBGSV,4,4,14,02,28,237,36,01,41,152,48,1*76
$GNGSA,A,3,04,08,09,16,18,26,27,28,31,,,,0.7,0.4,0.6,1*36
$GNGSA,A,3,65,72,74,75,76,84,85,,,,,,0.7,0.4,0.6,2*30
$GNGSA,A,3,04,05,06,09,16,23,31,33,,,,,0.7,0.4,0.6,3*3C
$GNGSA,A,3,01,03,06,07,09,10,11,12,16,20,23,25,0.7,0.4,0.6,4*3A
$GNGSA,A,3,02,03,,,,,,,,,,,0.7,0.4,0.6,5*31
$GNVTG,,T,,M,0.0,N,0.0,K,A*3D
$GNDTM,P90,,0000.000025,S,00000.000001,W,0.982,W84*49
$GNRMC,070738.00,A,3727.037327,N,12639.113945,E,0.0,,191125,9.1,W,A,V*66
$GNGNS,070738.00,3727.037327,N,12639.113945,E,AAAAAN,39,0.4,13.1,18.0,,,V*15
$GNGGA,070738.00,3727.037327,N,12639.113945,E,1,12,0.4,13.1,M,18.0,M,,*43
$PSMSG,magcal=PASS,bluesky=0*00
$GPGSV,3,1,10,04,49,276,34,08,21,210,51,09,22,312,39,16,68,317,43,1*6E
$GPGSV,3,2,10,26,55,048,42,27,51,196,53,28,25,120,41,31,54,109,46,1*61
$GPGSV,3,3,10,41,00,000,45,42,00,000,45,1*66
$GLGSV,3,1,10,74,32,063,33,,00,000,48,66,00,000,32,76,17,290,40,1*79
$GLGSV,3,2,10,75,53,349,35,65,37,262,36,84,33,058,39,83,01,018,25,1*7F
$GLGSV,3,3,10,85,37,123,44,72,16,205,37,1*71
$GAGSV,2,1,08,04,24,171,46,05,35,307,35,06,45,190,48,09,59,227,50,7*7A
$GAGSV,2,2,08,16,19,257,31,23,21,059,30,31,67,018,43,33,15,105,43,7*71
$GQGSV,1,1,02,02,78,100,30,03,16,154,34,1*6B
$GBGSV,4,1,15,28,12,183,36,25,41,080,45,23,67,345,45,20,14,311,41,1*78
$GBGSV,4,2,15,16,75,352,44,11,43,085,40,10,26,214,46,09,56,317,35,1*72
$GBGSV,4,3,15,07,40,208,46,06,72,336,43,05,09,257,29,04,31,134,46,1*79
$GBGSV,4,4,15,03,42,205,47,02,28,237,39,01,41,152,48,1*49
$GNGSA,A,3,04,08,09,16,18,26,27,28,31,,,,0.7,0.4,0.6,1*36
$GNGSA,A,3,65,72,74,75,76,84,85,,,,,,0.7,0.4,0.6,2*30
$GNGSA,A,3,04,05,06,09,16,23,31,33,,,,,0.7,0.4,0.6,3*3C
$GNGSA,A,3,01,03,06,07,09,10,11,12,16,20,23,25,0.7,0.4,0.6,4*3A
$GNGSA,A,3,02,03,,,,,,,,,,,0.7,0.4,0.6,5*31
$GNVTG,,T,,M,0.0,N,0.0,K,A*3D
$GNDTM,P90,,0000.000025,S,00000.000001,W,0.982,W84*49
$GNRMC,070739.00,A,3727.037325,N,12639.113944,E,0.0,,191125,9.1,W,A,V*64
$GNGNS,070739.00,3727.037325,N,12639.113944,E,AAAAAN,39,0.4,13.1,18.0,,,V*17
$GNGGA,070739.00,3727.037325,N,12639.113944,E,1,12,0.4,13.1,M,18.0,M,,*41
$PSMSG,magcal=PASS,bluesky=0*00
$GPGSV,3,1,10,04,49,276,33,08,21,210,50,09,22,312,38,16,68,317,42,1*68
$GPGSV,3,2,10,26,55,048,41,27,51,196,53,28,25,120,36,31,54,109,45,1*61
$GPGSV,3,3,10,41,00,000,46,42,00,000,47,1*67
$GLGSV,3,1,10,74,32,063,35,,00,000,50,66,00,000,32,76,17,290,40,1*76
$GLGSV,3,2,10,75,53,349,34,65,37,262,38,84,33,058,39,83,01,018,26,1*73
$GLGSV,3,3,10,85,37,123,45,72,16,205,42,1*72
$GAGSV,2,1,08,04,24,171,47,05,35,307,33,06,45,190,48,09,59,227,49,7*75
$GAGSV,2,2,08,16,19,257,30,23,21,059,31,31,67,018,43,33,15,105,43,7*71
$GQGSV,1,1,02,02,78,100,33,03,16,154,37,1*6B
$GBGSV,4,1,15,28,12,183,40,25,41,080,45,23,67,345,44,20,14,311,40,1*79
$GBGSV,4,2,15,16,75,352,44,12,12,038,23,11,43,085,42,10,26,214,46,1*73
$GBGSV,4,3,15,09,56,317,35,07,40,208,47,06,72,336,42,04,31,134,44,1*75
$GBGSV,4,4,15,03,42,205,49,02,28,237,39,01,41,152,45,1*4A
$GNGSA,A,3,04,08,09,16,18,26,27,28,31,,,,0.7,0.4,0.6,1*36
$GNGSA,A,3,65,72,74,75,76,84,85,,,,,,0.7,0.4,0.6,2*30
$GNGSA,A,3,04,05,06,09,16,23,31,33,,,,,0.7,0.4,0.6,3*3C
$GNGSA,A,3,01,03,06,07,09,10,11,12,16,20,23,25,0.7,0.4,0.6,4*3A
$GNGSA,A,3,02,03,,,,,,,,,,,0.7,0.4,0.6,5*31
$GNVTG,,T,,M,0.0,N,0.0,K,A*3D
$GNDTM,P90,,0000.000025,S,00000.000001,W,0.982,W84*49
$GNRMC,070740.00,A,3727.037324,N,12639.113943,E,0.0,,191125,9.1,W,A,V*6C
$GNGNS,070740.00,3727.037324,N,12639.113943,E,AAAAAN,39,0.4,13.1,18.0,,,V*1F
$GNGGA,070740.00,3727.037324,N,12639.113943,E,1,12,0.4,13.1,M,18.0,M,,*49
$PSMSG,magcal=PASS,bluesky=0*00
$GPGSV,3,1,10,04,49,276,32,08,21,210,51,09,22,312,39,16,68,317,42,1*69
$GPGSV,3,2,10,26,55,048,40,27,51,196,53,28,25,120,39,31,54,109,46,1*6C
$GPGSV,3,3,10,41,00,000,46,42,00,000,46,1*66
$GLGSV,3,1,10,74,32,063,36,,00,000,50,66,00,000,32,76,17,290,41,1*74
$GLGSV,3,2,10,75,53,349,34,65,37,262,37,84,33,058,37,83,01,018,25,1*71
$GLGSV,3,3,10,85,37,123,45,72,16,205,41,1*71
$GAGSV,2,1,08,04,24,171,48,05,35,307,31,06,45,190,48,09,59,227,50,7*70
$GAGSV,2,2,08,16,19,257,31,23,21,059,33,31,67,018,43,33,15,105,44,7*75
$GQGSV,1,1,02,02,78,100,32,03,16,154,37,1*6A
$GBGSV,4,1,15,28,12,183,40,25,41,080,44,23,67,345,45,20,14,311,40,1*79
$GBGSV,4,2,15,16,75,352,44,11,43,085,42,10,26,214,46,09,56,317,36,1*73
$GBGSV,4,3,15,07,40,208,46,06,72,336,42,05,09,257,29,04,31,134,44,1*7A
$GBGSV,4,4,15,03,42,205,49,02,28,237,38,01,41,152,46,1*48
$GNGSA,A,3,04,08,09,16,26,27,28,31,,,,,0.8,0.5,0.6,1*31
$GNGSA,A,3,65,72,74,75,76,84,85,,,,,,0.8,0.5,0.6,2*3E
$GNGSA,A,3,04,05,06,09,16,23,31,33,,,,,0.8,0.5,0.6,3*32
$GNGSA,A,3,01,03,06,07,09,10,11,16,20,23,25,28,0.8,0.5,0.6,4*3D
$GNGSA,A,3,02,03,,,,,,,,,,,0.8,0.5,0.6,5*3F
$GNVTG,,T,,M,0.0,N,0.0,K,A*3D
$GNDTM,P90,,0000.000025,S,00000.000001,W,0.982,W84*49
$GNRMC,070741.00,A,3727.037321,N,12639.113944,E,0.0,,191125,9.1,W,A,V*6F
$GNGNS,070741.00,3727.037321,N,12639.113944,E,AAAAAN,37,0.5,13.1,18.0,,,V*13
$GNGGA,070741.00,3727.037321,N,12639.113944,E,1,12,0.5,13.1,M,18.0,M,,*4B
$PSMSG,magcal=PASS,bluesky=0*00
$GPGSV,3,1,10,04,49,276,32,08,21,210,50,09,22,312,38,16,68,317,44,1*6F
$GPGSV,3,2,10,26,55,048,42,27,51,196,54,28,25,120,39,31,54,109,46,1*69
$GPGSV,3,3,10,41,00,000,44,42,00,000,45,1*67
$GLGSV,3,1,10,74,32,063,36,,00,000,47,66,00,000,32,76,17,290,44,1*77
$GLGSV,3,2,10,75,53,349,33,65,37,262,34,84,33,058,40,83,01,018,27,1*77
$GLGSV,3,3,10,85,37,123,45,72,16,205,41,1*71
$GAGSV,2,1,08,04,24,171,45,05,35,307,40,06,45,190,49,09,59,227,50,7*7A
$GAGSV,2,2,08,16,19,257,33,23,21,059,30,31,67,018,45,33,15,105,42,7*74
$GQGSV,1,1,02,02,78,100,35,03,16,154,35,1*6F
$GBGSV,4,1,14,28,12,183,38,25,41,080,46,23,67,345,47,20,14,311,39,1*79
$GBGSV,4,2,14,16,75,352,43,11,43,085,43,10,26,214,47,09,56,317,37,1*74
$GBGSV,4,3,14,07,40,208,47,06,72,336,41,04,31,134,45,03,42,205,48,1*71
$GBGSV,4,4,14,02,28,237,33,01,41,152,47,1*7C
$GNGSA,A,3,04,08,09,16,26,27,28,31,,,,,0.8,0.5,0.6,1*31
$GNGSA,A,3,65,72,74,75,76,84,85,,,,,,0.8,0.5,0.6,2*3E
$GNGSA,A,3,04,05,06,09,16,23,31,33,,,,,0.8,0.5,0.6,3*32
$GNGSA,A,3,01,03,06,07,09,10,11,16,20,23,25,28,0.8,0.5,0.6,4*3D
$GNGSA,A,3,02,03,,,,,,,,,,,0.8,0.5,0.6,5*3F
$GNVTG,,T,,M,0.0,N,0.0,K,A*3D
$GNDTM,P90,,0000.000025,S,00000.000001,W,0.982,W84*49
$GNRMC,070742.00,A,3727.037320,N,12639.113945,E,0.0,,191125,9.1,W,A,V*6C
$GNGNS,070742.00,3727.037320,N,12639.113945,E,AAAAAN,37,0.5,13.1,18.0,,,V*10
$GNGGA,070742.00,3727.037320,N,12639.113945,E,1,12,0.5,13.1,M,18.0,M,,*48
$PSMSG,magcal=PASS,bluesky=0*00
$GPGSV,3,1,10,04,49,276,29,08,21,210,50,09,22,312,40,16,68,317,45,1*6B
$GPGSV,3,2,10,26,55,048,42,27,51,196,54,28,25,120,39,31,54,109,46,1*69
$GPGSV,3,3,10,41,00,000,45,42,00,000,45,1*66
$GLGSV,3,1,10,74,32,063,37,,00,000,47,66,00,000,32,76,17,290,43,1*71
$GLGSV,3,2,10,75,53,349,31,65,37,262,38,84,33,058,42,83,01,018,27,1*7B
$GLGSV,3,3,10,85,37,123,44,72,16,205,40,1*71
$GAGSV,2,1,08,04,24,171,46,05,35,307,41,06,45,190,48,09,59,227,49,7*71
$GAGSV,2,2,08,16,19,257,35,23,21,059,29,31,67,018,45,33,15,105,42,7*7A
$GQGSV,1,1,02,02,78,100,37,03,16,154,37,1*6F
$GBGSV,4,1,15,28,12,183,40,25,41,080,46,23,67,345,48,20,14,311,39,1*78
$GBGSV,4,2,15,16,75,352,44,11,43,085,43,10,26,214,47,09,56,317,37,1*72
$GBGSV,4,3,15,07,40,208,47,06,72,336,42,05,09,257,31,04,31,134,45,1*73
$GBGSV,4,4,15,03,42,205,48,02,28,237,36,01,41,152,47,1*46
$GNGSA,A,3,04,08,09,16,26,27,28,31,,,,,0.8,0.5,0.6,1*31
$GNGSA,A,3,65,72,74,75,76,84,85,,,,,,0.8,0.5,0.6,2*3E
$GNGSA,A,3,04,05,06,09,16,23,31,33,,,,,0.8,0.5,0.6,3*32
$GNGSA,A,3,01,03,06,07,09,10,11,16,20,23,25,28,0.8,0.5,0.6,4*3D
$GNGSA,A,3,02,03,,,,,,,,,,,0.8,0.5,0.6,5*3F
$GNVTG,,T,,M,0.0,N,0.0,K,A*3D
$GNDTM,P90,,0000.000025,S,00000.000001,W,0.982,W84*49
$GNRMC,070743.00,A,3727.037319,N,12639.113946,E,0.0,,191125,9.1,W,A,V*64
$GNGNS,070743.00,3727.037319,N,12639.113946,E,AAAAAN,37,0.5,13.1,18.0,,,V*18
$GNGGA,070743.00,3727.037319,N,12639.113946,E,1,12,0.5,13.1,M,18.0,M,,*40
$PSMSG,magcal=PASS,bluesky=0*00
$GPGSV,3,1,11,04,49,276,30,08,21,210,51,09,22,312,41,16,68,317,44,1*63
$GPGSV,3,2,11,18,19,079,29,26,55,048,40,27,51,196,53,28,25,120,39,1*60
$GPGSV,3,3,11,31,54,109,45,41,00,000,44,42,00,000,45,1*5C
$GLGSV,3,1,10,74,32,063,36,,00,000,49,66,00,000,32,76,17,290,40,1*7D
$GLGSV,3,2,10,75,53,349,33,65,37,262,38,84,33,058,41,83,01,018,24,1*79
$GLGSV,3,3,10,85,37,123,42,72,16,205,41,1*76
$GAGSV,2,1,08,04,24,171,47,05,35,307,36,06,45,190,48,09,59,227,50,7*78
$GAGSV,2,2,08,16,19,257,34,23,21,059,31,31,67,018,43,33,15,105,43,7*75
$GQGSV,1,1,02,02,78,100,33,03,16,154,38,1*64
$GBGSV,4,1,15,28,12,183,42,25,41,080,44,23,67,345,46,20,14,311,39,1*76
$GBGSV,4,2,15,16,75,352,44,11,43,085,43,10,26,214,47,09,56,317,32,1*77
$GBGSV,4,3,15,07,40,208,46,06,72,336,42,05,09,257,31,04,31,134,45,1*72
$GBGSV,4,4,15,03,42,205,48,02,28,237,38,01,41,152,47,1*48
$GNGSA,A,3,04,08,09,16,18,26,27,28,31,,,,0.7,0.4,0.6,1*36
$GNGSA,A,3,65,72,74,75,76,84,85,,,,,,0.7,0.4,0.6,2*30
$GNGSA,A,3,04,05,06,09,16,23,31,33,,,,,0.7,0.4,0.6,3*3C
$GNGSA,A,3,01,03,06,07,09,10,11,16,20,23,25,28,0.7,0.4,0.6,4*33
$GNGSA,A,3,02,03,,,,,,,,,,,0.7,0.4,0.6,5*31
$GNVTG,,T,,M,0.0,N,0.0,K,A*3D
$GNDTM,P90,,0000.000025,S,00000.000001,W,0.982,W84*49
$GNRMC,070744.00,A,3727.037318,N,12639.113946,E,0.0,,191125,9.1,W,A,V*62
$GNGNS,070744.00,3727.037318,N,12639.113946,E,AAAAAN,38,0.4,13.1,18.0,,,V*10
$GNGGA,070744.00,3727.037318,N,12639.113946,E,1,12,0.4,13.1,M,18.0,M,,*47
$PSMSG,magcal=PASS,bluesky=0*00
$GPGSV,3,1,11,04,49,276,32,08,21,210,51,09,22,312,41,16,68,317,41,1*64
$GPGSV,3,2,11,18,19,079,33,26,55,048,38,27,51,196,53,28,25,120,43,1*69
$GPGSV,3,3,11,31,54,109,43,41,00,000,43,42,00,000,44,1*5C
$GLGSV,3,1,10,74,32,063,37,,00,000,49,66,00,000,32,76,17,290,40,1*7C
$GLGSV,3,2,10,75,53,349,36,65,37,262,41,84,33,058,42,83,01,018,26,1*73
$GLGSV,3,3,10,85,37,123,43,72,16,205,40,1*76
$GAGSV,3,1,09,04,24,171,45,05,35,307,33,06,45,190,49,09,59,227,49,7*76
$GAGSV,3,2,09,16,19,257,37,23,21,059,28,26,11,057,26,31,67,018,41,7*79
$GAGSV,3,3,09,33,15,105,42,7*4C
$GQGSV,1,1,02,02,78,100,36,03,16,154,38,1*61
$GBGSV,4,1,14,28,12,183,43,25,41,080,46,23,67,345,43,20,14,311,39,1*71
$GBGSV,4,2,14,16,75,352,43,11,43,085,44,10,26,214,48,09,56,317,32,1*79
$GBGSV,4,3,14,07,40,208,47,06,72,336,39,04,31,134,45,03,42,205,50,1*77
$GBGSV,4,4,14,02,28,237,37,01,41,152,49,1*76
$GNGSA,A,3,04,08,09,16,18,26,27,28,31,,,,0.7,0.4,0.6,1*36
$GNGSA,A,3,65,72,74,75,76,84,85,,,,,,0.7,0.4,0.6,2*30
$GNGSA,A,3,04,05,06,09,16,23,26,31,33,,,,0.7,0.4,0.6,3*38
$GNGSA,A,3,01,03,06,07,09,10,11,16,20,23,25,28,0.7,0.4,0.6,4*33
$GNGSA,A,3,02,03,,,,,,,,,,,0.7,0.4,0.6,5*31
$GNVTG,,T,,M,0.0,N,0.0,K,A*3D
$GNDTM,P90,,0000.000025,S,00000.000001,W,0.982,W84*49
$GNRMC,070745.00,A,3727.037322,N,12639.113957,E,0.0,,191125,9.1,W,A,V*6A
$GNGNS,070745.00,3727.037322,N,12639.113957,E,AAAAAN,39,0.4,13.1,18.0,,,V*19
$GNGGA,070745.00,3727.037322,N,12639.113957,E,1,12,0.4,13.1,M,18.0,M,,*4F
$PSMSG,magcal=PASS,bluesky=0*00
$GPGSV,3,1,11,04,49,276,32,08,21,210,50,09,22,312,41,16,68,317,41,1*65
$GPGSV,3,2,11,18,19,079,35,26,55,048,39,27,51,196,53,28,25,120,41,1*6C
$GPGSV,3,3,11,31,54,109,42,41,00,000,44,42,00,000,45,1*5B
$GLGSV,3,1,10,74,32,063,37,,00,000,49,66,00,000,32,76,17,290,41,1*7D
$GLGSV,3,2,10,75,53,349,39,65,37,262,41,84,33,058,42,83,01,018,26,1*7C
$GLGSV,3,3,10,85,37,123,43,72,16,205,42,1*74
$GAGSV,3,1,09,04,24,171,46,05,35,307,30,06,45,190,48,09,59,227,49,7*77
$GAGSV,3,2,09,16,19,257,38,23,21,059,29,26,11,057,25,31,67,018,43,7*76
$GAGSV,3,3,09,33,15,105,42,7*4C
$GQGSV,1,1,02,02,78,100,37,03,16,154,39,1*61
$GBGSV,4,1,14,28,12,183,43,25,41,081,46,23,67,345,44,20,14,311,40,1*79
$GBGSV,4,2,14,16,75,352,43,11,43,085,44,10,26,214,48,09,56,317,33,1*78
$GBGSV,4,3,14,07,40,208,47,06,72,336,40,04,31,134,45,03,42,205,49,1*71
$GBGSV,4,4,14,02,28,237,37,01,41,152,49,1*76
$GNGSA,A,3,04,08,09,16,18,26,27,28,31,,,,0.7,0.4,0.6,1*36
$GNGSA,A,3,65,72,74,75,76,84,85,,,,,,0.7,0.4,0.6,2*30
$GNGSA,A,3,04,05,06,09,16,23,26,31,33,,,,0.7,0.4,0.6,3*38
$GNGSA,A,3,01,03,06,07,09,10,11,16,20,23,25,28,0.7,0.4,0.6,4*33
$GNGSA,A,3,02,03,,,,,,,,,,,0.7,0.4,0.6,5*31
$GNVTG,,T,,M,0.0,N,0.0,K,A*3D
$GNDTM,P90,,0000.000025,S,00000.000001,W,0.982,W84*49
$GNRMC,070746.00,A,3727.037320,N,12639.113962,E,0.0,,191125,9.1,W,A,V*6D
$GNGNS,070746.00,3727.037320,N,12639.113962,E,AAAAAN,39,0.4,13.1,18.0,,,V*1E
$GNGGA,070746.00,3727.037320,N,12639.113962,E,1,12,0.4,13.1,M,18.0,M,,*48
$PSMSG,magcal=PASS,bluesky=0*00
$GPGSV,3,1,11,04,49,276,32,08,21,210,50,09,22,312,41,16,68,317,42,1*66
$GPGSV,3,2,11,18,19,079,35,26,55,048,39,27,51,196,53,28,25,120,38,1*62
$GPGSV,3,3,11,31,54,109,43,41,00,000,45,42,00,000,46,1*58
$GLGSV,3,1,10,74,32,063,37,,00,000,50,66,00,000,32,76,17,290,41,1*75
$GLGSV,3,2,10,75,53,349,38,65,37,262,41,84,33,058,42,83,01,018,26,1*7D
$GLGSV,3,3,10,85,37,123,42,72,16,205,43,1*74
$GAGSV,2,1,08,04,24,171,47,05,35,307,32,06,45,190,48,09,59,227,49,7*74
$GAGSV,2,2,08,16,19,257,38,23,21,059,29,31,67,018,43,33,15,105,43,7*70
$GQGSV,1,1,02,02,78,100,34,03,16,154,39,1*62
$GBGSV,4,1,15,28,12,183,44,25,41,081,45,23,67,345,44,20,14,311,39,1*72
$GBGSV,4,2,15,16,75,352,44,11,43,085,44,10,26,214,47,09,56,317,34,1*76
$GBGSV,4,3,15,07,40,208,47,06,72,336,40,05,09,257,33,04,31,134,45,1*73
$GBGSV,4,4,15,03,42,205,49,02,28,237,38,01,41,152,47,1*49
$GNGSA,A,3,04,08,09,16,18,26,27,28,31,,,,0.7,0.4,0.6,1*36
$GNGSA,A,3,65,72,74,75,76,84,85,,,,,,0.7,0.4,0.6,2*30
$GNGSA,A,3,04,05,06,09,16,23,26,31,33,,,,0.7,0.4,0.6,3*38
$GNGSA,A,3,01,03,06,07,09,10,11,16,20,23,25,28,0.7,0.4,0.6,4*33
$GNGSA,A,3,02,03,,,,,,,,,,,0.7,0.4,0.6,5*31
$GNVTG,,T,,M,0.0,N,0.0,K,A*3D
$GNDTM,P90,,0000.000025,S,00000.000001,W,0.982,W84*49
$GNRMC,070747.00,A,3727.037318,N,12639.113965,E,0.0,,191125,9.1,W,A,V*60
$GNGNS,070747.00,3727.037318,N,12639.113965,E,AAAAAN,39,0.4,13.1,18.0,,,V*13
$GNGGA,070747.00,3727.037318,N,12639.113965,E,1,12,0.4,13.1,M,18.0,M,,*45
$PSMSG,magcal=PASS,bluesky=0*00
$GPGSV,3,1,11,04,49,276,36,08,21,210,51,09,22,312,39,16,68,317,43,1*6D
$GPGSV,3,2,11,18,19,079,35,26,55,048,38,27,51,196,53,28,25,120,37,1*6C
$GPGSV,3,3,11,31,54,109,43,41,00,000,46,42,00,000,46,1*5B
$GLGSV,3,1,10,74,32,063,37,,00,000,51,66,00,000,32,76,17,290,42,1*77
$GLGSV,3,2,10,75,53,349,40,65,37,262,36,84,33,058,41,83,01,018,24,1*73
$GLGSV,3,3,10,85,37,123,41,72,16,205,44,1*70
$GAGSV,2,1,08,04,24,171,48,05,35,307,37,06,45,190,48,09,59,227,50,7*76
$GAGSV,2,2,08,16,19,257,35,23,21,059,31,31,67,018,43,33,15,105,43,7*74
$GQGSV,1,1,02,02,78,100,31,03,16,154,39,1*67
$GBGSV,4,1,16,28,12,183,42,25,41,081,46,23,67,345,45,20,14,311,37,1*7B
$GBGSV,4,2,16,16,75,352,43,12,12,038,25,11,43,085,43,10,26,214,46,1*70
$GBGSV,4,3,16,09,56,317,34,07,40,208,46,06,72,336,41,05,09,257,33,1*79
$GBGSV,4,4,16,04,31,134,44,03,42,205,49,02,28,237,40,01,41,152,46,1*74
$GNGSA,A,3,04,08,09,16,18,26,27,28,31,,,,0.7,0.4,0.6,1*36
$GNGSA,A,3,65,72,74,75,76,84,85,,,,,,0.7,0.4,0.6,2*30
$GNGSA,A,3,04,05,06,09,16,23,26,31,33,,,,0.7,0.4,0.6,3*38
$GNGSA,A,3,01,03,06,07,09,10,11,12,16,20,23,25,0.7,0.4,0.6,4*3A
$GNGSA,A,3,02,03,,,,,,,,,,,0.7,0.4,0.6,5*31
$GNVTG,,T,,M,0.0,N,0.0,K,A*3D
$GNDTM,P90,,0000.000025,S,00000.000001,W,0.982,W84*49
$GNRMC,070748.00,A,3727.037315,N,12639.113968,E,0.0,,191125,9.1,W,A,V*6F
$GNGNS,070748.00,3727.037315,N,12639.113968,E,AAAAAN,40,0.4,13.1,18.0,,,V*12
$GNGGA,070748.00,3727.037315,N,12639.113968,E,1,12,0.4,13.1,M,18.0,M,,*4A
$PSMSG,magcal=PASS,bluesky=0*00
$GPGSV,3,1,11,04,49,276,42,08,21,210,48,09,22,312,34,16,68,317,43,1*6B
$GPGSV,3,2,11,18,19,079,34,26,55,048,39,27,51,196,51,28,25,120,41,1*6F
$GPGSV,3,3,11,31,54,109,43,41,00,000,44,42,00,000,44,1*5B
$GLGSV,3,1,10,74,32,063,37,,00,000,48,66,00,000,32,76,17,290,43,1*7E
$GLGSV,3,2,10,75,53,349,40,65,37,262,33,84,33,058,41,83,01,018,24,1*76
$GLGSV,3,3,10,85,37,123,43,72,16,205,42,1*74
$GAGSV,2,1,08,04,24,171,46,05,35,307,40,06,45,190,45,09,59,227,46,7*72
$GAGSV,2,2,08,16,19,257,35,23,21,059,31,31,67,018,41,33,15,105,42,7*77
$GQGSV,1,1,02,02,78,100,36,03,16,154,40,1*6E
$GBGSV,4,1,15,28,12,183,42,25,41,081,46,23,67,345,43,20,14,311,38,1*71
$GBGSV,4,2,15,16,75,352,41,11,43,085,42,10,26,214,45,09,56,317,33,1*70
$GBGSV,4,3,15,07,40,208,45,06,72,336,40,05,09,257,33,04,31,134,45,1*71
$GBGSV,4,4,15,03,42,205,49,02,28,237,38,01,41,152,47,1*49
$GNGSA,A,3,04,08,09,16,18,26,27,28,31,,,,0.7,0.4,0.6,1*36
$GNGSA,A,3,65,72,74,75,76,84,85,,,,,,0.7,0.4,0.6,2*30
$GNGSA,A,3,04,05,06,09,16,23,26,31,33,,,,0.7,0.4,0.6,3*38
$GNGSA,A,3,01,03,06,07,09,10,11,12,16,20,23,25,0.7,0.4,0.6,4*3A
$GNGSA,A,3,02,03,,,,,,,,,,,0.7,0.4,0.6,5*31
$GNVTG,,T,,M,0.0,N,0.0,K,A*3D
$GNDTM,P90,,0000.000025,S,00000.000001,W,0.982,W84*49
$GNRMC,070749.00,A,3727.037313,N,12639.113970,E,0.0,,191125,9.1,W,A,V*61
$GNGNS,070749.00,3727.037313,N,12639.113970,E,AAAAAN,40,0.4,13.1,18.0,,,V*1C
$GNGGA,070749.00,3727.037313,N,12639.113970,E,1,12,0.4,13.1,M,18.0,M,,*44
$PSMSG,magcal=PASS,bluesky=0*00
