$GPGSV,3,1,12,04,48,280,47,08,19,210,36,09,21,313,33,16,68,310,43,1*65
$GPGSV,3,2,12,18,19,082,28,26,57,045,45,27,48,196,49,28,27,119,30,1*6E
$GPGSV,3,3,12,31,56,105,45,41,00,000,43,42,00,000,42,50,00,000,46,1*66
$GLGSV,3,1,09,74,33,060,40,66,00,000,50,76,16,288,42,75,53,345,47,1*70
$GLGSV,3,2,09,65,38,265,39,84,33,061,42,83,03,019,22,85,35,126,39,1*7A
$GLGSV,3,3,09,72,19,206,42,1*4E
$GAGSV,3,1,09,04,26,171,46,05,34,308,42,06,47,190,45,09,60,230,44,7*70
$GAGSV,3,2,09,16,18,256,36,23,23,058,43,26,11,059,22,31,68,014,43,7*7D
$GAGSV,3,3,09,33,14,107,28,7*43
$GQGSV,1,1,02,02,78,103,40,03,16,154,35,1*6E
$GBGSV,4,1,13,28,10,183,39,25,43,078,36,23,66,341,46,20,14,312,51,1*76
$GBGSV,4,2,13,16,74,351,40,11,43,088,30,10,25,213,41,09,55,316,40,1*7B
$GBGSV,4,3,13,07,39,207,35,06,71,336,36,03,42,205,43,02,28,237,40,1*71
$GBGSV,4,4,13,01,41,152,45,1*47
$GNGSA,A,3,04,08,09,16,18,26,27,28,31,,,,0.7,0.4,0.6,1*36
$GNGSA,A,3,65,72,74,75,76,84,85,,,,,,0.7,0.4,0.6,2*30
$GNGSA,A,3,04,05,06,09,16,23,31,33,,,,,0.7,0.4,0.6,3*3C
$GNGSA,A,3,01,03,06,07,09,10,11,12,16,23,25,28,0.7,0.4,0.6,4*32
$GNGSA,A,3,02,03,,,,,,,,,,,0.7,0.4,0.6,5*31
$GNVTG,,T,,M,0.0,N,0.0,K,A*3D
$GNDTM,P90,,0000.000025,S,00000.000001,W,0.982,W84*49
$GNRMC,070209.00,A,3727.018594,N,12639.115690,E,0.0,,191125,9.1,W,A,V*63
$GNGNS,070209.00,3727.018594,N,12639.115690,E,AAAAAN,38,0.4,10.8,18.0,,,V*1B
$GNGGA,070209.00,3727.018594,N,12639.115690,E,1,12,0.4,10.8,M,18.0,M,,*4C
$PSMSG,magcal=PASS,bluesky=0*00
$GPGSV,3,1,11,04,48,280,47,09,21,313,39,16,68,310,46,18,19,082,29,1*6F
$GPGSV,3,2,11,26,57,045,45,27,48,196,48,28,27,119,36,31,56,105,42,1*68
$GPGSV,3,3,11,41,00,000,43,42,00,000,44,50,00,000,45,1*54
$GLGSV,3,1,09,74,33,060,39,66,00,000,51,76,16,288,44,75,53,345,49,1*77
$GLGSV,3,2,09,65,38,265,38,84,33,061,39,83,03,019,19,85,35,126,41,1*70
$GLGSV,3,3,09,72,19,206,40,1*4C
$GAGSV,3,1,09,04,26,171,46,05,34,308,41,06,47,190,44,09,60,230,45,7*73
$GAGSV,3,2,09,16,18,256,35,23,23,058,43,26,11,059,22,31,68,014,44,7*79
$GAGSV,3,3,09,33,14,107,29,7*42
$GQGSV,1,1,02,02,78,103,40,03,16,154,36,1*6D
$GBGSV,4,1,13,28,10,183,40,25,43,078,36,23,66,341,44,20,14,312,52,1*79
$GBGSV,4,2,13,16,74,351,43,11,43,088,31,10,25,213,38,09,55,316,41,1*76
$GBGSV,4,3,13,07,39,207,34,06,71,336,38,03,42,205,42,02,28,237,41,1*7E
$GBGSV,4,4,13,01,41,152,45,1*47
$GNGSA,A,3,04,08,09,16,18,26,27,28,31,,,,0.7,0.4,0.6,1*36
$GNGSA,A,3,65,72,74,75,76,84,85,,,,,,0.7,0.4,0.6,2*30
$GNGSA,A,3,04,05,06,09,16,23,31,33,,,,,0.7,0.4,0.6,3*3C
$GNGSA,A,3,01,03,06,07,09,10,11,12,16,23,25,28,0.7,0.4,0.6,4*32
$GNGSA,A,3,02,03,,,,,,,,,,,0.7,0.4,0.6,5*31
$GNVTG,,T,,M,0.0,N,0.0,K,A*3D
$GNDTM,P90,,0000.000025,S,00000.000001,W,0.982,W84*49
$GNRMC,070210.00,A,3727.018752,N,12639.115392,E,0.0,,191125,9.1,W,A,V*64
$GNGNS,070210.00,3727.018752,N,12639.115392,E,AAAAAN,38,0.4,10.6,18.0,,,V*12
$GNGGA,070210.00,3727.018752,N,12639.115392,E,1,12,0.4,10.6,M,18.0,M,,*45
$PSMSG,magcal=PASS,bluesky=0*00
$GPGSV,3,1,11,04,48,280,47,09,21,313,37,16,68,310,44,18,19,082,24,1*6E
$GPGSV,3,2,11,26,57,045,45,27,48,196,47,28,27,119,36,31,56,105,42,1*67
$GPGSV,3,3,11,41,00,000,43,42,00,000,42,50,00,000,45,1*52
$GLGSV,3,1,09,74,33,060,41,66,00,000,50,76,16,288,44,75,53,345,48,1*78
$GLGSV,3,2,09,65,38,265,36,84,33,061,41,83,03,019,19,85,35,126,41,1*71
$GLGSV,3,3,09,72,19,206,40,1*4C
$GAGSV,2,1,08,04,26,171,46,05,34,308,40,06,47,190,43,09,60,230,45,7*75
$GAGSV,2,2,08,16,18,256,34,23,23,058,43,31,68,014,44,33,14,107,31,7*71
$GQGSV,1,1,02,02,78,103,41,03,16,154,35,1*6F
$GBGSV,4,1,13,28,10,183,41,25,43,078,35,23,66,341,45,20,14,312,52,1*7A
$GBGSV,4,2,13,16,74,351,42,11,43,088,31,10,25,213,38,09,55,316,39,1*78
$GBGSV,4,3,13,07,39,207,34,06,71,336,37,03,42,205,42,02,28,237,41,1*71
$GBGSV,4,4,13,01,41,152,46,1*44
$GNGSA,A,3,04,08,09,16,18,26,27,28,31,,,,0.8,0.5,0.6,1*38
$GNGSA,A,3,65,72,74,75,76,84,85,,,,,,0.8,0.5,0.6,2*3E
$GNGSA,A,3,04,05,06,09,16,23,31,33,,,,,0.8,0.5,0.6,3*32
$GNGSA,A,3,01,03,06,07,09,10,11,16,23,25,28,,0.8,0.5,0.6,4*3F
$GNGSA,A,3,02,03,,,,,,,,,,,0.8,0.5,0.6,5*3F
$GNVTG,,T,,M,0.0,N,0.0,K,A*3D
$GNDTM,P90,,0000.000025,S,00000.000001,W,0.982,W84*49
$GNRMC,070211.00,A,3727.018896,N,12639.115145,E,0.0,,191125,9.1,W,A,V*6A
$GNGNS,070211.00,3727.018896,N,12639.115145,E,AAAAAN,37,0.5,10.4,18.0,,,V*10
$GNGGA,070211.00,3727.018896,N,12639.115145,E,1,12,0.5,10.4,M,18.0,M,,*48
$PSMSG,magcal=PASS,bluesky=0*00
$GPGSV,3,1,12,04,48,280,47,08,19,210,34,09,21,313,39,16,68,310,46,1*68
$GPGSV,3,2,12,18,19,082,28,26,57,045,43,27,48,196,47,28,27,119,37,1*61
$GPGSV,3,3,12,31,56,105,41,41,00,000,43,42,00,000,43,50,00,000,46,1*63
$GLGSV,3,1,09,74,33,060,37,66,00,000,48,76,16,288,44,75,53,345,51,1*78
$GLGSV,3,2,09,65,38,265,40,84,33,061,33,83,03,019,19,85,35,126,45,1*71
$GLGSV,3,3,09,72,19,206,42,1*4E
$GAGSV,2,1,08,04,26,171,45,05,34,308,43,06,47,190,43,09,60,230,46,7*76
$GAGSV,2,2,08,16,18,256,38,23,23,058,40,31,68,014,45,33,14,107,32,7*7C
$GQGSV,1,1,02,02,78,103,39,03,16,154,34,1*61
$GBGSV,4,1,13,28,10,183,39,25,43,078,35,23,66,341,45,20,14,312,51,1*76
$GBGSV,4,2,13,16,74,351,45,11,43,088,35,10,25,213,38,09,55,316,42,1*77
$GBGSV,4,3,13,07,39,207,35,06,71,336,40,03,42,205,41,02,28,237,41,1*73
$GBGSV,4,4,13,01,41,152,46,1*44
$GNGSA,A,3,04,08,09,16,18,26,27,28,31,,,,0.8,0.5,0.6,1*38
$GNGSA,A,3,65,72,74,75,76,84,85,,,,,,0.8,0.5,0.6,2*3E
$GNGSA,A,3,04,05,06,09,16,23,31,33,,,,,0.8,0.5,0.6,3*32
$GNGSA,A,3,01,03,06,07,09,10,11,16,23,25,28,,0.8,0.5,0.6,4*3F
$GNGSA,A,3,02,03,,,,,,,,,,,0.8,0.5,0.6,5*3F
$GNVTG,,T,,M,0.0,N,0.0,K,A*3D
$GNDTM,P90,,0000.000025,S,00000.000001,W,0.982,W84*49
$GNRMC,070212.00,A,3727.018968,N,12639.114793,E,0.0,,191125,9.1,W,A,V*65
$GNGNS,070212.00,3727.018968,N,12639.114793,E,AAAAAN,37,0.5,10.1,18.0,,,V*1A
$GNGGA,070212.00,3727.018968,N,12639.114793,E,1,12,0.5,10.1,M,18.0,M,,*42
$PSMSG,magcal=PASS,bluesky=0*00
$GPGSV,3,1,12,04,48,280,48,08,19,210,33,09,21,313,39,16,68,310,46,1*60
$GPGSV,3,2,12,18,19,082,28,26,57,045,42,27,48,196,46,28,27,119,38,1*6E
$GPGSV,3,3,12,31,56,105,42,41,00,000,43,42,00,000,43,50,00,000,45,1*63
$GLGSV,3,1,09,74,33,060,37,66,00,000,49,76,16,288,44,75,53,345,51,1*79
$GLGSV,3,2,09,65,38,265,41,84,33,061,32,83,03,019,22,85,35,126,45,1*79
$GLGSV,3,3,09,72,19,206,42,1*4E
$GAGSV,2,1,08,04,26,171,46,05,34,308,43,06,47,190,43,09,60,230,46,7*75
$GAGSV,2,2,08,16,18,256,38,23,23,058,41,31,68,014,45,33,14,107,34,7*7B
$GQGSV,1,1,02,02,78,103,40,03,16,154,32,1*69
$GBGSV,4,1,13,28,10,183,37,25,43,078,37,23,66,341,45,20,14,312,51,1*7A
$GBGSV,4,2,13,16,74,351,45,11,43,088,33,10,25,213,38,09,55,316,42,1*71
$GBGSV,4,3,13,07,39,207,35,06,71,336,40,03,42,205,41,02,28,237,41,1*73
$GBGSV,4,4,13,01,41,152,46,1*44
$GNGSA,A,3,04,08,09,16,18,26,27,28,31,,,,0.8,0.5,0.6,1*38
$GNGSA,A,3,65,72,74,75,76,84,85,,,,,,0.8,0.5,0.6,2*3E
$GNGSA,A,3,04,05,06,09,16,23,31,33,,,,,0.8,0.5,0.6,3*32
$GNGSA,A,3,01,03,06,07,09,10,11,16,23,25,28,,0.8,0.5,0.6,4*3F
$GNGSA,A,3,02,03,,,,,,,,,,,0.8,0.5,0.6,5*3F
$GNVTG,,T,,M,0.0,N,0.0,K,A*3D
$GNDTM,P90,,0000.000025,S,00000.000001,W,0.982,W84*49
$GNRMC,070213.00,A,3727.019006,N,12639.114531,E,0.0,,191125,9.1,W,A,V*6E
$GNGNS,070213.00,3727.019006,N,12639.114531,E,AAAAAN,37,0.5,10.0,18.0,,,V*10
$GNGGA,070213.00,3727.019006,N,12639.114531,E,1,12,0.5,10.0,M,18.0,M,,*48
$PSMSG,magcal=PASS,bluesky=0*00
$GPGSV,3,1,12,04,48,280,47,08,19,210,32,09,21,313,39,16,68,310,45,1*6D
$GPGSV,3,2,12,18,19,082,29,26,57,045,42,27,48,196,47,28,27,119,36,1*60
$GPGSV,3,3,12,31,56,105,40,41,00,000,43,42,00,000,43,50,00,000,46,1*62
$GLGSV,3,1,09,74,33,060,37,66,00,000,50,76,16,288,45,75,53,345,51,1*70
$GLGSV,3,2,09,65,38,265,43,84,33,061,35,83,03,019,22,85,35,126,40,1*79
$GLGSV,3,3,09,72,19,206,39,1*42
$GAGSV,2,1,08,04,26,171,46,05,34,308,43,06,47,190,44,09,60,230,45,7*71
$GAGSV,2,2,08,16,18,256,40,23,23,058,42,31,68,014,45,33,14,107,36,7*75
$GQGSV,1,1,01,02,78,103,41,1*5E
$GBGSV,4,1,13,28,10,183,38,25,43,078,36,23,66,341,45,20,14,312,51,1*74
$GBGSV,4,2,13,16,74,351,44,11,43,088,28,10,25,213,39,09,55,316,42,1*7B
$GBGSV,4,3,13,07,39,207,33,06,71,336,40,03,42,205,40,02,28,237,41,1*74
$GBGSV,4,4,13,01,41,152,45,1*47
$GNGSA,A,3,04,08,09,16,18,26,27,28,31,,,,0.8,0.5,0.6,1*38
$GNGSA,A,3,65,72,74,75,76,84,85,,,,,,0.8,0.5,0.6,2*3E
$GNGSA,A,3,04,05,06,09,16,23,31,33,,,,,0.8,0.5,0.6,3*32
$GNGSA,A,3,01,03,06,07,09,10,11,16,23,25,28,,0.8,0.5,0.6,4*3F
$GNGSA,A,3,02,03,,,,,,,,,,,0.8,0.5,0.6,5*3F
$GNVTG,,T,,M,0.0,N,0.0,K,A*3D
$GNDTM,P90,,0000.000025,S,00000.000001,W,0.982,W84*49
$GNRMC,070214.00,A,3727.019117,N,12639.114443,E,0.0,,191125,9.1,W,A,V*6C
$GNGNS,070214.00,3727.019117,N,12639.114443,E,AAAAAN,37,0.5,10.2,18.0,,,V*10
$GNGGA,070214.00,3727.019117,N,12639.114443,E,1,12,0.5,10.2,M,18.0,M,,*48
$PSMSG,magcal=PASS,bluesky=0*00
$GPGSV,3,1,12,04,48,280,47,08,19,210,35,09,21,313,35,16,68,310,45,1*66
$GPGSV,3,2,12,18,19,082,27,26,57,045,43,27,48,196,48,28,27,119,34,1*62
$GPGSV,3,3,12,31,56,105,36,41,00,000,43,42,00,000,44,50,00,000,46,1*64
$GLGSV,3,1,09,74,33,060,37,66,00,000,50,76,16,288,44,75,53,345,50,1*70
$GLGSV,3,2,09,65,38,265,40,84,33,061,36,83,03,019,22,85,35,126,38,1*76
$GLGSV,3,3,09,72,19,206,38,1*43
$GAGSV,3,1,09,04,26,171,45,05,34,308,45,06,47,190,46,09,60,230,45,7*76
$GAGSV,3,2,09,16,18,256,37,23,23,058,42,26,11,059,25,31,68,014,45,7*7C
$GAGSV,3,3,09,33,14,107,32,7*48
$GQGSV,1,1,01,02,78,103,41,1*5E
$GBGSV,4,1,13,28,10,183,40,25,43,078,37,23,66,341,45,20,14,312,50,1*7B
$GBGSV,4,2,13,16,74,351,45,11,43,088,33,10,25,213,37,09,55,316,40,1*7C
$GBGSV,4,3,13,07,39,207,30,06,71,336,40,03,42,205,41,02,28,237,41,1*76
$GBGSV,4,4,13,01,41,152,43,1*41
$GNGSA,A,3,04,08,09,16,18,26,27,28,31,,,,0.7,0.4,0.6,1*36
$GNGSA,A,3,65,72,74,75,76,84,85,,,,,,0.7,0.4,0.6,2*30
$GNGSA,A,3,04,05,06,09,16,23,31,33,,,,,0.7,0.4,0.6,3*3C
$GNGSA,A,3,01,03,06,07,09,10,11,16,20,23,25,28,0.7,0.4,0.6,4*33
$GNGSA,A,3,02,03,,,,,,,,,,,0.7,0.4,0.6,5*31
$GNVTG,,T,,M,0.0,N,0.0,K,A*3D
$GNDTM,P90,,0000.000025,S,00000.000001,W,0.982,W84*49
$GNRMC,070215.00,A,3727.019249,N,12639.114415,E,0.0,,191125,9.1,W,A,V*66
$GNGNS,070215.00,3727.019249,N,12639.114415,E,AAAAAN,38,0.4,10.0,18.0,,,V*16
$GNGGA,070215.00,3727.019249,N,12639.114415,E,1,12,0.4,10.0,M,18.0,M,,*41
$PSMSG,magcal=PASS,bluesky=0*00
$GPGSV,3,1,12,04,48,280,47,08,19,210,34,09,21,313,38,16,68,310,45,1*6A
$GPGSV,3,2,12,18,19,082,27,26,57,045,43,27,48,196,49,28,27,119,33,1*64
$GPGSV,3,3,12,31,56,105,37,41,00,000,43,42,00,000,43,50,00,000,46,1*62
$GLGSV,3,1,09,74,33,060,37,66,00,000,49,76,16,288,41,75,53,345,50,1*7D
$GLGSV,3,2,09,65,38,265,42,84,33,061,38,83,03,019,22,85,35,126,38,1*7A
$GLGSV,3,3,09,72,19,206,38,1*43
$GAGSV,2,1,08,04,26,171,46,05,34,308,45,06,47,190,47,09,60,230,45,7*74
$GAGSV,2,2,08,16,18,256,37,23,23,058,43,26,11,059,25,31,68,014,46,7*7E
$GQGSV,1,1,01,02,78,103,42,1*5D
$GBGSV,4,1,13,28,10,183,39,25,43,078,36,23,66,341,46,20,14,312,51,1*76
$GBGSV,4,2,13,16,74,351,44,11,43,088,33,10,25,213,39,09,55,316,40,1*73
$GBGSV,4,3,13,07,39,207,32,06,71,336,40,03,42,205,41,02,28,237,41,1*74
$GBGSV,4,4,13,01,41,152,44,1*46
$GNGSA,A,3,04,08,09,16,18,26,27,28,31,,,,0.7,0.4,0.6,1*36
$GNGSA,A,3,65,72,74,75,76,84,85,,,,,,0.7,0.4,0.6,2*30
$GNGSA,A,3,04,05,06,09,16,23,31,33,,,,,0.7,0.4,0.6,3*3C
$GNGSA,A,3,01,03,06,07,09,10,11,16,20,23,25,28,0.7,0.4,0.6,4*33
$GNGSA,A,3,02,03,,,,,,,,,,,0.7,0.4,0.6,5*31
$GNVTG,,T,,M,0.0,N,0.0,K,A*3D
$GNDTM,P90,,0000.000025,S,00000.000001,W,0.982,W84*49
$GNRMC,070216.00,A,3727.019265,N,12639.114356,E,0.0,,191125,9.1,W,A,V*6B
$GNGNS,070216.00,3727.019265,N,12639.114356,E,AAAAAN,38,0.4,10.1,18.0,,,V*1A
$GNGGA,070216.00,3727.019265,N,12639.114356,E,1,12,0.4,10.1,M,18.0,M,,*4D
$PSMSG,magcal=PASS,bluesky=0*00
$GPGSV,3,1,12,04,48,280,47,08,19,210,32,09,21,313,36,16,68,310,45,1*62
$GPGSV,3,2,12,18,19,082,27,26,57,045,42,27,48,196,47,28,27,119,36,1*6E
$GPGSV,3,3,12,31,56,105,42,41,00,000,43,42,00,000,42,50,00,000,46,1*61
$GLGSV,3,1,09,74,33,060,37,66,00,000,48,76,16,288,43,75,53,345,51,1*7F
$GLGSV,3,2,09,65,38,265,43,84,33,061,38,83,03,019,22,85,35,126,41,1*75
$GLGSV,3,3,09,72,19,206,37,1*4C
$GAGSV,2,1,07,04,26,171,46,05,34,308,44,06,47,190,45,09,60,230,45,7*78
$GAGSV,2,2,07,16,18,256,37,23,23,058,42,31,68,014,45,7*4C
$GQGSV,1,1,01,02,78,103,41,1*5E
$GBGSV,4,1,13,28,10,183,39,25,43,078,36,23,66,341,44,20,14,312,50,1*75
$GBGSV,4,2,13,16,74,351,44,11,43,088,33,10,25,213,40,09,55,316,41,1*7C
$GBGSV,4,3,13,07,39,207,35,06,71,336,41,03,42,205,41,02,28,237,41,1*72
$GBGSV,4,4,13,01,41,152,45,1*47
$GNGSA,A,3,04,08,09,16,18,26,27,28,31,,,,0.7,0.4,0.6,1*36
$GNGSA,A,3,65,72,74,75,76,84,85,,,,,,0.7,0.4,0.6,2*30
$GNGSA,A,3,04,05,06,09,16,23,31,33,,,,,0.7,0.4,0.6,3*3C
$GNGSA,A,3,01,03,06,07,09,10,11,16,20,23,25,28,0.7,0.4,0.6,4*33
$GNGSA,A,3,02,03,,,,,,,,,,,0.7,0.4,0.6,5*31
$GNVTG,,T,,M,0.0,N,0.0,K,A*3D
$GNDTM,P90,,0000.000025,S,00000.000001,W,0.982,W84*49
$GNRMC,070217.00,A,3727.019291,N,12639.114322,E,0.0,,191125,9.1,W,A,V*62
$GNGNS,070217.00,3727.019291,N,12639.114322,E,AAAAAN,38,0.4,10.1,18.0,,,V*13
$GNGGA,070217.00,3727.019291,N,12639.114322,E,1,12,0.4,10.1,M,18.0,M,,*44
$PSMSG,magcal=PASS,bluesky=0*00
$GPGSV,3,1,12,04,48,280,48,08,19,210,34,09,21,313,42,16,68,310,45,1*68
$GPGSV,3,2,12,18,19,082,27,26,57,045,43,27,48,196,47,28,27,119,38,1*61
$GPGSV,3,3,12,31,56,105,43,41,00,000,43,42,00,000,43,50,00,000,45,1*62
$GLGSV,3,1,09,74,33,060,36,66,00,000,45,76,16,288,43,75,53,345,51,1*73
$GLGSV,3,2,09,65,38,265,43,84,33,061,38,83,03,019,20,85,35,126,47,1*71
$GLGSV,3,3,09,72,19,206,39,1*42
$GAGSV,2,1,08,04,26,171,46,05,34,308,44,06,47,190,44,09,60,230,46,7*75
$GAGSV,2,2,08,16,18,256,36,23,23,058,41,31,68,014,46,33,14,107,31,7*73
$GQGSV,1,1,01,02,78,103,40,1*5F
$GBGSV,4,1,13,28,10,183,39,25,43,078,40,23,66,341,45,20,14,312,52,1*77
$GBGSV,4,2,13,16,74,351,45,11,43,088,38,10,25,213,40,09,55,316,42,1*75
$GBGSV,4,3,13,07,39,207,37,06,71,336,41,03,42,205,42,02,28,237,41,1*73
$GBGSV,4,4,13,01,41,152,46,1*44
$GNGSA,A,3,04,08,09,16,18,26,27,28,31,,,,0.7,0.4,0.6,1*36
$GNGSA,A,3,65,72,74,75,76,84,85,,,,,,0.7,0.4,0.6,2*30
$GNGSA,A,3,04,05,06,09,16,23,31,33,,,,,0.7,0.4,0.6,3*3C
$GNGSA,A,3,01,03,06,07,09,10,11,16,20,23,25,28,0.7,0.4,0.6,4*33
$GNGSA,A,3,02,03,,,,,,,,,,,0.7,0.4,0.6,5*31
$GNVTG,,T,,M,0.0,N,0.0,K,A*3D
$GNDTM,P90,,0000.000025,S,00000.000001,W,0.982,W84*49
$GNRMC,070218.00,A,3727.019266,N,12639.114224,E,0.0,,191125,9.1,W,A,V*62
$GNGNS,070218.00,3727.019266,N,12639.114224,E,AAAAAN,38,0.4,10.4,18.0,,,V*16
$GNGGA,070218.00,3727.019266,N,12639.114224,E,1,12,0.4,10.4,M,18.0,M,,*41
$PSMSG,magcal=PASS,bluesky=0*00
$GPGSV,3,1,11,04,48,280,48,08,19,210,30,09,21,313,40,16,68,310,44,1*6C
$GPGSV,3,2,11,26,57,045,43,27,48,196,47,28,27,119,39,31,56,105,44,1*68
$GPGSV,3,3,11,41,00,000,43,42,00,000,45,50,00,000,45,1*55
$GLGSV,3,1,09,74,33,060,36,66,00,000,45,76,16,288,43,75,53,345,52,1*70
$GLGSV,3,2,09,65,38,265,42,84,33,061,36,83,03,019,24,85,35,126,46,1*7B
$GLGSV,3,3,09,72,19,206,39,1*42
$GAGSV,2,1,07,04,25,171,46,05,34,308,44,06,46,190,44,09,60,230,45,7*7B
$GAGSV,2,2,07,16,18,256,36,23,23,058,41,31,68,014,46,7*4D
$GQGSV,1,1,01,02,78,103,40,1*5F
$GBGSV,4,1,13,28,10,183,39,25,43,078,39,23,66,341,46,20,14,312,52,1*7A
$GBGSV,4,2,13,16,74,351,44,11,43,088,39,10,25,213,39,09,55,316,40,1*79
$GBGSV,4,3,13,07,39,207,35,06,71,336,41,03,42,205,42,02,28,237,41,1*71
$GBGSV,4,4,13,01,41,152,45,1*47
$GNGSA,A,3,04,08,09,16,18,26,27,28,31,,,,0.7,0.5,0.6,1*37
$GNGSA,A,3,65,72,74,75,76,84,85,,,,,,0.7,0.5,0.6,2*31
$GNGSA,A,3,04,05,06,09,16,23,31,33,,,,,0.7,0.5,0.6,3*3D
$GNGSA,A,3,01,03,06,07,09,10,11,16,20,23,25,28,0.7,0.5,0.6,4*32
$GNGSA,A,3,02,,,,,,,,,,,,0.7,0.5,0.6,5*33
$GNVTG,,T,,M,0.0,N,0.0,K,A*3D
$GNDTM,P90,,0000.000025,S,00000.000001,W,0.982,W84*49
$GNRMC,070219.00,A,3727.019285,N,12639.114203,E,0.0,,191125,9.1,W,A,V*6B
$GNGNS,070219.00,3727.019285,N,12639.114203,E,AAAAAN,37,0.5,10.5,18.0,,,V*10
$GNGGA,070219.00,3727.019285,N,12639.114203,E,1,12,0.5,10.5,M,18.0,M,,*48
$PSMSG,magcal=PASS,bluesky=0*00
$GPGSV,3,1,11,04,48,280,48,08,19,210,31,09,21,313,41,16,68,310,44,1*6C
$GPGSV,3,2,11,26,57,045,44,27,48,196,46,28,27,119,39,31,56,105,45,1*6F
$GPGSV,3,3,11,41,00,000,43,42,00,000,45,50,00,000,45,1*55
$GLGSV,3,1,09,74,33,060,37,66,00,000,45,76,16,288,44,75,53,345,52,1*76
$GLGSV,3,2,09,65,38,265,42,84,33,061,37,83,03,019,24,85,35,126,47,1*7B
$GLGSV,3,3,09,72,19,206,39,1*42
$GAGSV,2,1,07,04,25,171,46,05,34,308,45,06,46,190,43,09,60,230,45,7*7D
$GAGSV,2,2,07,16,18,256,35,23,23,058,41,31,68,014,46,7*4E
$GQGSV,1,1,01,02,78,103,39,1*51
$GBGSV,4,1,13,28,10,183,38,25,43,078,38,23,66,341,46,20,14,312,53,1*7B
$GBGSV,4,2,13,16,74,351,45,11,43,088,38,10,25,213,39,09,55,316,40,1*79
$GBGSV,4,3,13,07,39,207,34,06,71,336,42,03,42,205,42,02,28,237,40,1*72
$GBGSV,4,4,13,01,41,152,47,1*45
$GNGSA,A,3,04,08,09,16,18,26,27,28,31,,,,0.7,0.5,0.6,1*37
$GNGSA,A,3,65,72,74,75,76,84,85,,,,,,0.7,0.5,0.6,2*31
$GNGSA,A,3,04,05,06,09,16,23,31,33,,,,,0.7,0.5,0.6,3*3D
$GNGSA,A,3,01,03,06,07,09,10,11,16,20,23,25,28,0.7,0.5,0.6,4*32
$GNGSA,A,3,02,,,,,,,,,,,,0.7,0.5,0.6,5*33
$GNVTG,,T,,M,0.0,N,0.0,K,A*3D
$GNDTM,P90,,0000.000025,S,00000.000001,W,0.982,W84*49
$GNRMC,070220.00,A,3727.019295,N,12639.114220,E,0.0,,191125,9.1,W,A,V*61
$GNGNS,070220.00,3727.019295,N,12639.114220,E,AAAAAN,37,0.5,10.6,18.0,,,V*19
$GNGGA,070220.00,3727.019295,N,12639.114220,E,1,12,0.5,10.6,M,18.0,M,,*41
$PSMSG,magcal=PASS,bluesky=0*00
$GPGSV,3,1,12,04,48,280,48,08,19,210,32,09,21,313,41,16,68,310,44,1*6C
$GPGSV,3,2,12,18,19,082,31,26,57,045,43,27,48,196,46,28,27,119,38,1*67
$GPGSV,3,3,12,31,56,105,44,41,00,000,43,42,00,000,44,50,00,000,45,1*62
$GLGSV,3,1,09,74,33,060,38,66,00,000,46,76,16,288,44,75,53,345,51,1*79
$GLGSV,3,2,09,65,38,265,43,84,33,061,38,83,03,019,24,85,35,126,46,1*74
$GLGSV,3,3,09,72,19,206,38,1*43
$GAGSV,2,1,08,04,25,171,46,05,34,308,44,06,46,190,44,09,60,230,45,7*74
$GAGSV,2,2,08,16,18,256,36,23,23,058,41,31,68,014,45,33,14,107,35,7*74
$GQGSV,1,1,01,02,78,103,39,1*51
$GBGSV,4,1,13,28,10,183,39,25,43,078,37,23,66,341,46,20,14,312,52,1*74
$GBGSV,4,2,13,16,74,351,45,11,43,088,36,10,25,213,39,09,55,316,40,1*77
$GBGSV,4,3,13,07,39,207,35,06,71,336,42,03,42,205,42,02,28,237,41,1*72
$GBGSV,4,4,13,01,41,152,47,1*45
$GNGSA,A,3,04,08,09,16,18,26,27,28,31,,,,0.7,0.5,0.6,1*37
$GNGSA,A,3,65,72,74,75,76,84,85,,,,,,0.7,0.5,0.6,2*31
$GNGSA,A,3,04,05,06,09,16,23,31,33,,,,,0.7,0.5,0.6,3*3D
$GNGSA,A,3,01,03,06,07,09,10,11,16,20,23,25,28,0.7,0.5,0.6,4*32
$GNGSA,A,3,02,,,,,,,,,,,,0.7,0.5,0.6,5*33
$GNVTG,,T,,M,0.0,N,0.0,K,A*3D
$GNDTM,P90,,0000.000025,S,00000.000001,W,0.982,W84*49
$GNRMC,070221.00,A,3727.019312,N,12639.114211,E,0.0,,191125,9.1,W,A,V*6C
$GNGNS,070221.00,3727.019312,N,12639.114211,E,AAAAAN,37,0.5,10.7,18.0,,,V*15
$GNGGA,070221.00,3727.019312,N,12639.114211,E,1,12,0.5,10.7,M,18.0,M,,*4D
$PSMSG,magcal=PASS,bluesky=0*00
$GPGSV,3,1,12,04,48,280,48,08,19,210,30,09,21,313,39,16,68,310,44,1*61
$GPGSV,3,2,12,18,19,082,31,26,57,045,42,27,48,196,45,28,27,119,38,1*65
$GPGSV,3,3,12,31,56,105,43,41,00,000,43,42,00,000,45,50,00,000,44,1*65
$GLGSV,3,1,09,74,33,060,38,66,00,000,46,76,16,288,44,75,53,345,51,1*79
$GLGSV,3,2,09,65,38,265,42,84,33,061,37,83,03,019,24,85,35,126,44,1*78
$GLGSV,3,3,09,72,19,206,37,1*4C
$GAGSV,3,1,09,04,25,171,47,05,34,308,43,06,46,190,43,09,60,230,45,7*75
$GAGSV,3,2,09,16,18,256,36,23,23,058,40,26,11,059,22,31,68,014,45,7*78
$GAGSV,3,3,09,33,14,107,36,7*4C
$GQGSV,1,1,01,02,78,103,40,1*5F
$GBGSV,4,1,13,28,10,183,38,25,43,078,36,23,66,341,46,20,14,312,52,1*74
$GBGSV,4,2,13,16,74,351,45,11,43,088,33,10,25,213,38,09,55,316,41,1*72
$GBGSV,4,3,13,07,39,207,32,06,71,336,42,03,42,205,41,02,28,237,41,1*76
$GBGSV,4,4,13,01,41,152,47,1*45
$GNGSA,A,3,04,08,09,16,18,26,27,28,31,,,,0.7,0.5,0.6,1*37
$GNGSA,A,3,65,72,74,75,76,84,85,,,,,,0.7,0.5,0.6,2*31
$GNGSA,A,3,04,05,06,09,16,23,31,33,,,,,0.7,0.5,0.6,3*3D
$GNGSA,A,3,01,03,06,07,09,10,11,16,20,23,25,28,0.7,0.5,0.6,4*32
$GNGSA,A,3,02,,,,,,,,,,,,0.7,0.5,0.6,5*33
$GNVTG,,T,,M,0.0,N,0.0,K,A*3D
$GNDTM,P90,,0000.000025,S,00000.000001,W,0.982,W84*49
$GNRMC,070222.00,A,3727.019328,N,12639.114180,E,0.0,,191125,9.1,W,A,V*6D
$GNGNS,070222.00,3727.019328,N,12639.114180,E,AAAAAN,37,0.5,10.7,18.0,,,V*14
$GNGGA,070222.00,3727.019328,N,12639.114180,E,1,12,0.5,10.7,M,18.0,M,,*4C
$PSMSG,magcal=PASS,bluesky=0*00
$GPGSV,3,1,12,04,48,280,47,08,19,210,35,09,21,313,39,16,68,310,45,1*6A
$GPGSV,3,2,12,18,19,082,32,26,57,045,44,27,48,196,46,28,27,119,37,1*6C
$GPGSV,3,3,12,31,56,105,44,41,00,000,43,42,00,000,44,50,00,000,45,1*62
$GLGSV,3,1,09,74,33,060,34,66,00,000,47,76,16,288,46,75,53,345,51,1*76
$GLGSV,3,2,09,65,38,265,44,84,33,061,34,83,03,019,24,85,35,126,45,1*7C
$GLGSV,3,3,09,72,19,206,40,1*4C
$GAGSV,2,1,08,04,25,171,45,05,34,308,44,06,46,190,44,09,60,230,45,7*77
$GAGSV,2,2,08,16,18,256,36,23,23,058,40,31,68,014,44,33,14,107,37,7*76
$GQGSV,1,1,01,02,78,103,39,1*51
$GBGSV,4,1,13,28,10,183,39,25,43,078,40,23,66,341,47,20,14,312,51,1*76
$GBGSV,4,2,13,16,74,351,44,11,43,088,37,10,25,213,39,09,55,316,41,1*76
$GBGSV,4,3,13,07,39,207,33,06,71,336,42,03,42,205,41,02,28,237,41,1*77
$GBGSV,4,4,13,01,41,152,47,1*45
$GNGSA,A,3,04,08,09,16,18,26,27,28,31,,,,0.7,0.5,0.6,1*37
$GNGSA,A,3,65,72,74,75,76,84,85,,,,,,0.7,0.5,0.6,2*31
$GNGSA,A,3,04,05,06,09,16,23,31,33,,,,,0.7,0.5,0.6,3*3D
$GNGSA,A,3,01,03,06,07,09,10,11,16,20,23,25,28,0.7,0.5,0.6,4*32
$GNGSA,A,3,02,,,,,,,,,,,,0.7,0.5,0.6,5*33
$GNVTG,,T,,M,0.0,N,0.0,K,A*3D
$GNDTM,P90,,0000.000025,S,00000.000001,W,0.982,W84*49
$GNRMC,070223.00,A,3727.019326,N,12639.114154,E,0.0,,191125,9.1,W,A,V*6B
$GNGNS,070223.00,3727.019326,N,12639.114154,E,AAAAAN,37,0.5,10.8,18.0,,,V*1D
$GNGGA,070223.00,3727.019326,N,12639.114154,E,1,12,0.5,10.8,M,18.0,M,,*45
$PSMSG,magcal=PASS,bluesky=0*00
$GPGSV,3,1,12,04,48,280,49,08,19,210,34,09,21,313,43,16,68,310,44,1*69
$GPGSV,3,2,12,18,19,082,32,26,57,045,44,27,48,196,46,28,27,119,35,1*6E
$GPGSV,3,3,12,31,56,105,43,41,00,000,43,42,00,000,45,50,00,000,46,1*67
$GLGSV,3,1,09,74,33,060,37,66,00,000,47,76,16,288,47,75,53,345,52,1*77
$GLGSV,3,2,09,65,38,265,44,84,33,061,36,83,03,019,24,85,35,126,42,1*79
$GLGSV,3,3,09,72,19,206,40,1*4C
$GAGSV,2,1,08,04,25,171,47,05,34,308,43,06,46,190,44,09,60,230,46,7*71
$GAGSV,2,2,08,16,18,256,36,23,23,058,41,31,68,014,44,33,14,107,37,7*77
$GQGSV,1,1,01,02,78,103,41,1*5E
$GBGSV,4,1,13,28,10,183,41,25,43,078,38,23,66,341,45,20,14,312,51,1*74
$GBGSV,4,2,13,16,74,351,44,11,43,088,35,10,25,213,40,09,55,316,42,1*79
$GBGSV,4,3,13,07,39,207,34,06,71,336,41,03,42,205,41,02,28,237,41,1*73
$GBGSV,4,4,13,01,41,152,46,1*44
$GNGSA,A,3,04,08,09,16,18,26,27,28,31,,,,0.7,0.5,0.6,1*37
$GNGSA,A,3,65,72,74,75,76,84,85,,,,,,0.7,0.5,0.6,2*31
$GNGSA,A,3,04,05,06,09,16,23,31,33,,,,,0.7,0.5,0.6,3*3D
$GNGSA,A,3,01,03,06,07,09,10,11,16,20,23,25,28,0.7,0.5,0.6,4*32
$GNGSA,A,3,02,,,,,,,,,,,,0.7,0.5,0.6,5*33
$GNVTG,,T,,M,0.0,N,0.0,K,A*3D
$GNDTM,P90,,0000.000025,S,00000.000001,W,0.982,W84*49
$GNRMC,070224.00,A,3727.019337,N,12639.114131,E,0.0,,191125,9.1,W,A,V*6F
$GNGNS,070224.00,3727.019337,N,12639.114131,E,AAAAAN,37,0.5,10.8,18.0,,,V*19
$GNGGA,070224.00,3727.019337,N,12639.114131,E,1,12,0.5,10.8,M,18.0,M,,*41
$PSMSG,magcal=PASS,bluesky=0*00
$GPGSV,3,1,12,04,48,280,48,08,19,210,34,09,21,313,44,16,68,310,43,1*68
$GPGSV,3,2,12,18,19,082,34,26,57,045,43,27,48,196,47,28,27,119,35,1*6E
$GPGSV,3,3,12,31,56,105,43,41,00,000,43,42,00,000,45,50,00,000,46,1*67
$GLGSV,3,1,09,74,33,060,36,66,00,000,45,76,16,288,45,75,53,345,52,1*76
$GLGSV,3,2,09,65,38,265,43,84,33,061,35,83,03,019,20,85,35,126,42,1*79
$GLGSV,3,3,09,72,19,206,40,1*4C
$GAGSV,3,1,09,04,25,171,47,05,34,308,43,06,46,190,45,09,60,230,44,7*72
$GAGSV,3,2,09,16,18,256,37,23,23,058,42,26,11,059,28,31,68,014,43,7*77
$GAGSV,3,3,09,33,14,107,36,7*4C
$GQGSV,1,1,01,02,78,103,40,1*5F
$GBGSV,4,1,13,28,10,183,41,25,43,078,38,23,66,341,45,20,14,312,52,1*77
$GBGSV,4,2,13,16,74,351,44,11,43,088,34,10,25,213,41,09,55,316,41,1*7A
$GBGSV,4,3,13,07,39,207,33,06,71,336,41,03,42,205,40,02,28,237,40,1*74
$GBGSV,4,4,13,01,41,152,45,1*47
$GNGSA,A,3,04,08,09,16,18,26,27,28,31,,,,0.7,0.4,0.6,1*36
$GNGSA,A,3,65,72,74,75,76,84,85,,,,,,0.7,0.4,0.6,2*30
$GNGSA,A,3,04,05,06,09,16,23,26,31,33,,,,0.7,0.4,0.6,3*38
$GNGSA,A,3,01,03,06,07,09,10,11,16,20,23,25,28,0.7,0.4,0.6,4*33
$GNGSA,A,3,02,,,,,,,,,,,,0.7,0.4,0.6,5*32
$GNVTG,,T,,M,0.0,N,0.0,K,A*3D
$GNDTM,P90,,0000.000025,S,00000.000001,W,0.982,W84*49
$GNRMC,070225.00,A,3727.019342,N,12639.114123,E,0.0,,191125,9.1,W,A,V*6F
$GNGNS,070225.00,3727.019342,N,12639.114123,E,AAAAAN,38,0.4,10.8,18.0,,,V*17
$GNGGA,070225.00,3727.019342,N,12639.114123,E,1,12,0.4,10.8,M,18.0,M,,*40
$PSMSG,magcal=PASS,bluesky=0*00
$GPGSV,3,1,12,04,48,280,48,08,19,210,36,09,21,313,45,16,68,310,44,1*6C
$GPGSV,3,2,12,18,19,082,34,26,57,045,43,27,48,196,46,28,27,119,37,1*6D
$GPGSV,3,3,12,31,56,105,43,41,00,000,43,42,00,000,46,50,00,000,46,1*64
$GLGSV,3,1,09,74,33,060,36,66,00,000,46,76,16,288,45,75,53,345,52,1*75
$GLGSV,3,2,09,65,38,265,44,84,33,061,34,83,03,019,20,85,35,126,41,1*7C
$GLGSV,3,3,09,72,19,206,40,1*4C
$GAGSV,3,1,09,04,25,171,47,05,34,308,44,06,46,190,44,09,60,230,44,7*74
$GAGSV,3,2,09,16,18,256,34,23,23,058,42,26,11,059,28,31,68,014,42,7*75
$GAGSV,3,3,09,33,14,107,35,7*4F
$GQGSV,1,1,01,02,78,102,41,1*5F
$GBGSV,4,1,13,28,10,183,41,25,43,078,35,23,66,341,44,20,14,312,54,1*7D
$GBGSV,4,2,13,16,74,351,44,11,43,088,32,10,25,213,40,09,55,316,41,1*7D
$GBGSV,4,3,13,07,39,207,34,06,71,336,41,03,42,205,40,02,28,237,40,1*73
$GBGSV,4,4,13,01,41,152,46,1*44
$GNGSA,A,3,04,08,09,16,18,26,27,28,31,,,,0.7,0.4,0.6,1*36
$GNGSA,A,3,65,72,74,75,76,84,85,,,,,,0.7,0.4,0.6,2*30
$GNGSA,A,3,04,05,06,09,16,23,26,31,33,,,,0.7,0.4,0.6,3*38
$GNGSA,A,3,01,03,06,07,09,10,11,16,20,23,25,28,0.7,0.4,0.6,4*33
$GNGSA,A,3,02,,,,,,,,,,,,0.7,0.4,0.6,5*32
$GNVTG,,T,,M,0.0,N,0.0,K,A*3D
$GNDTM,P90,,0000.000025,S,00000.000001,W,0.982,W84*49
$GNRMC,070226.00,A,3727.019345,N,12639.114119,E,0.0,,191125,9.1,W,A,V*62
$GNGNS,070226.00,3727.019345,N,12639.114119,E,AAAAAN,38,0.4,10.8,18.0,,,V*1A
$GNGGA,070226.00,3727.019345,N,12639.114119,E,1,12,0.4,10.8,M,18.0,M,,*4D
$PSMSG,magcal=PASS,bluesky=0*00
$GPGSV,3,1,12,04,48,280,48,08,19,210,36,09,21,313,46,16,68,310,44,1*6F
$GPGSV,3,2,12,18,19,082,35,26,57,045,43,27,48,196,46,28,27,119,35,1*6E
$GPGSV,3,3,12,31,56,105,41,41,00,000,43,42,00,000,45,50,00,000,46,1*65
$GLGSV,3,1,09,74,33,060,36,66,00,000,47,76,16,288,45,75,53,345,52,1*74
$GLGSV,3,2,09,65,38,265,43,84,33,061,34,83,03,019,20,85,35,126,40,1*7A
$GLGSV,3,3,09,72,19,206,39,1*42
$GAGSV,3,1,09,04,25,171,47,05,34,308,43,06,46,190,44,09,60,230,44,7*73
$GAGSV,3,2,09,16,18,256,33,23,23,058,41,26,11,059,27,31,68,014,41,7*7D
$GAGSV,3,3,09,33,14,107,35,7*4F
$GQGSV,1,1,02,02,78,102,40,03,16,154,34,1*6E
$GBGSV,4,1,13,28,10,183,41,25,43,078,31,23,66,341,45,20,14,312,54,1*78
$GBGSV,4,2,13,16,74,351,43,11,43,088,31,10,25,213,40,09,55,316,42,1*7A
$GBGSV,4,3,13,07,39,207,33,06,71,336,41,03,42,205,40,02,28,237,40,1*74
$GBGSV,4,4,13,01,41,152,45,1*47
$GNGSA,A,3,04,08,09,16,18,26,27,28,31,,,,0.7,0.4,0.6,1*36
$GNGSA,A,3,65,72,74,75,76,84,85,,,,,,0.7,0.4,0.6,2*30
$GNGSA,A,3,04,05,06,09,16,23,26,31,33,,,,0.7,0.4,0.6,3*38
$GNGSA,A,3,01,03,06,07,09,10,11,16,20,23,25,28,0.7,0.4,0.6,4*33
$GNGSA,A,3,02,03,,,,,,,,,,,0.7,0.4,0.6,5*31
$GNVTG,,T,,M,0.0,N,0.0,K,A*3D
$GNDTM,P90,,0000.000025,S,00000.000001,W,0.982,W84*49
$GNRMC,070227.00,A,3727.019349,N,12639.114115,E,0.0,,191125,9.1,W,A,V*63
$GNGNS,070227.00,3727.019349,N,12639.114115,E,AAAAAN,39,0.4,10.8,18.0,,,V*1A
$GNGGA,070227.00,3727.019349,N,12639.114115,E,1,12,0.4,10.8,M,18.0,M,,*4C
$PSMSG,magcal=PASS,bluesky=0*00
$GPGSV,3,1,12,04,48,280,48,08,19,210,36,09,21,313,46,16,68,310,44,1*6F
$GPGSV,3,2,12,18,19,082,33,26,57,045,43,27,48,196,47,28,27,119,35,1*69
$GPGSV,3,3,12,31,56,105,41,41,00,000,43,42,00,000,45,50,00,000,46,1*65
$GLGSV,3,1,09,74,33,060,37,66,00,000,48,76,16,288,44,75,53,345,52,1*7B
$GLGSV,3,2,09,65,38,265,43,84,33,061,35,83,03,019,24,85,35,126,40,1*7F
$GLGSV,3,3,09,72,19,206,38,1*43
$GAGSV,3,1,09,04,25,171,47,05,34,308,44,06,46,190,44,09,60,230,44,7*74
$GAGSV,3,2,09,16,18,256,35,23,23,058,41,26,11,059,28,31,68,014,41,7*74
$GAGSV,3,3,09,33,14,107,35,7*4F
$GQGSV,1,1,02,02,78,102,41,03,16,154,35,1*6E
$GBGSV,3,1,11,28,10,183,41,23,66,341,44,20,14,312,54,16,74,351,43,1*75
$GBGSV,3,2,11,10,25,213,40,09,55,316,42,07,39,207,33,06,71,336,41,1*75
$GBGSV,3,3,11,03,42,205,39,02,28,237,40,01,41,152,45,1*47
$GNGSA,A,3,04,08,09,16,18,26,27,28,31,,,,0.7,0.4,0.6,1*36
$GNGSA,A,3,65,72,74,75,76,84,85,,,,,,0.7,0.4,0.6,2*30
$GNGSA,A,3,04,05,06,09,16,23,26,31,33,,,,0.7,0.4,0.6,3*38
$GNGSA,A,3,01,03,06,07,09,10,11,16,20,23,25,28,0.7,0.4,0.6,4*33
$GNGSA,A,3,02,03,,,,,,,,,,,0.7,0.4,0.6,5*31
$GNVTG,,T,,M,0.0,N,0.0,K,A*3D
$GNDTM,P90,,0000.000025,S,00000.000001,W,0.982,W84*49
$GNRMC,070228.00,A,3727.019355,N,12639.114114,E,0.0,,191125,9.1,W,A,V*60
$GNGNS,070228.00,3727.019355,N,12639.114114,E,AAAAAN,39,0.4,10.8,18.0,,,V*19
$GNGGA,070228.00,3727.019355,N,12639.114114,E,1,12,0.4,10.8,M,18.0,M,,*4F
$PSMSG,magcal=PASS,bluesky=0*00
$GPGSV,3,1,12,04,48,280,47,08,19,210,37,09,21,313,44,16,68,310,44,1*63
$GPGSV,3,2,12,18,19,082,32,26,57,045,43,27,48,196,45,28,27,119,36,1*69
$GPGSV,3,3,12,31,56,105,42,41,00,000,43,42,00,000,45,50,00,000,45,1*65
$GLGSV,3,1,09,74,33,060,38,66,00,000,46,76,16,288,44,75,53,345,51,1*79
$GLGSV,3,2,09,65,38,265,43,84,33,061,36,83,03,019,24,85,35,126,42,1*7E
$GLGSV,3,3,09,72,19,206,41,1*4D
$GAGSV,3,1,09,04,25,171,47,05,34,308,44,06,46,190,43,09,60,230,44,7*73
$GAGSV,3,2,09,16,18,256,36,23,23,058,42,26,11,059,27,31,68,014,41,7*7B
$GAGSV,3,3,09,33,14,107,34,7*4E
$GQGSV,1,1,02,02,78,102,40,03,16,154,35,1*6F
$GBGSV,3,1,11,28,10,183,39,23,66,341,45,20,14,312,54,16,74,351,44,1*7C
$GBGSV,3,2,11,10,25,213,38,09,55,316,40,07,39,207,34,06,71,336,42,1*7C
$GBGSV,3,3,11,03,42,205,41,02,28,237,41,01,41,152,46,1*4A
$GNGSA,A,3,04,08,09,16,18,26,27,28,31,,,,0.7,0.4,0.6,1*36
$GNGSA,A,3,65,72,74,75,76,84,85,,,,,,0.7,0.4,0.6,2*30
$GNGSA,A,3,04,05,06,09,16,23,26,31,33,,,,0.7,0.4,0.6,3*38
$GNGSA,A,3,01,03,06,07,09,10,11,16,20,23,25,28,0.7,0.4,0.6,4*33
$GNGSA,A,3,02,03,,,,,,,,,,,0.7,0.4,0.6,5*31
$GNVTG,,T,,M,0.0,N,0.0,K,A*3D
$GNDTM,P90,,0000.000025,S,00000.000001,W,0.982,W84*49
$GNRMC,070229.00,A,3727.019364,N,12639.114112,E,0.0,,191125,9.1,W,A,V*65
$GNGNS,070229.00,3727.019364,N,12639.114112,E,AAAAAN,39,0.4,10.8,18.0,,,V*1C
$GNGGA,070229.00,3727.019364,N,12639.114112,E,1,12,0.4,10.8,M,18.0,M,,*4A
$PSMSG,magcal=PASS,bluesky=0*00
$GPGSV,3,1,12,04,48,280,47,08,19,210,37,09,21,313,45,16,68,310,46,1*60
$GPGSV,3,2,12,18,19,082,32,26,57,045,44,27,48,196,47,28,27,119,34,1*6E
$GPGSV,3,3,12,31,56,105,44,41,00,000,43,42,00,000,45,50,00,000,44,1*62
$GLGSV,3,1,09,74,33,060,33,66,00,000,47,76,16,288,45,75,53,345,51,1*72
$GLGSV,3,2,09,65,38,265,46,84,33,061,35,83,03,019,24,85,35,126,44,1*7E
$GLGSV,3,3,09,72,19,206,41,1*4D
$GAGSV,3,1,09,04,25,171,46,05,34,308,46,06,46,190,44,09,60,230,44,7*77
$GAGSV,3,2,09,16,18,256,37,23,23,058,41,26,11,059,27,31,68,014,43,7*7B
$GAGSV,3,3,09,33,14,107,32,7*48
$GQGSV,1,1,02,02,78,102,39,03,16,154,35,1*61
$GBGSV,4,1,13,28,10,183,38,25,43,078,37,23,66,341,46,20,14,312,54,1*73
$GBGSV,4,2,13,16,74,351,44,11,43,088,37,10,25,213,39,09,55,316,38,1*78
$GBGSV,4,3,13,07,39,207,32,06,71,336,42,03,42,205,41,02,28,237,41,1*76
$GBGSV,4,4,13,01,41,152,46,1*44
$GNGSA,A,3,04,08,09,16,18,26,27,28,31,,,,0.7,0.4,0.6,1*36
$GNGSA,A,3,65,72,74,75,76,84,85,,,,,,0.7,0.4,0.6,2*30
$GNGSA,A,3,04,05,06,09,16,23,26,31,33,,,,0.7,0.4,0.6,3*38
$GNGSA,A,3,01,03,06,07,09,10,11,16,20,23,25,28,0.7,0.4,0.6,4*33
$GNGSA,A,3,02,03,,,,,,,,,,,0.7,0.4,0.6,5*31
$GNVTG,,T,,M,0.0,N,0.0,K,A*3D
$GNDTM,P90,,0000.000025,S,00000.000001,W,0.982,W84*49
$GNRMC,070230.00,A,3727.019370,N,12639.114111,E,0.0,,191125,9.1,W,A,V*6B
$GNGNS,070230.00,3727.019370,N,12639.114111,E,AAAAAN,39,0.4,10.8,18.0,,,V*12
$GNGGA,070230.00,3727.019370,N,12639.114111,E,1,12,0.4,10.8,M,18.0,M,,*44
$PSMSG,magcal=PASS,bluesky=0*00
$GPGSV,3,1,12,04,48,280,47,08,19,210,39,09,21,313,44,16,68,310,45,1*6C
$GPGSV,3,2,12,18,19,082,30,26,57,045,44,27,48,196,47,28,27,119,32,1*6A
$GPGSV,3,3,12,31,56,105,44,41,00,000,43,42,00,000,44,50,00,000,45,1*62
$GLGSV,3,1,09,74,33,060,33,66,00,000,46,76,16,288,44,75,53,345,51,1*72
$GLGSV,3,2,09,65,38,265,45,84,33,061,36,83,03,019,23,85,35,126,44,1*79
$GLGSV,3,3,09,72,19,206,40,1*4C
$GAGSV,3,1,09,04,25,171,46,05,34,308,45,06,46,190,44,09,60,230,44,7*74
$GAGSV,3,2,09,16,18,256,36,23,23,058,42,26,11,059,27,31,68,014,43,7*79
$GAGSV,3,3,09,33,14,107,31,7*4B
$GQGSV,1,1,02,02,78,102,39,03,16,154,36,1*62
$GBGSV,4,1,13,28,10,183,39,25,43,078,35,23,66,341,45,20,14,312,53,1*74
$GBGSV,4,2,13,16,74,351,44,11,43,088,36,10,25,213,38,09,55,316,39,1*79
$GBGSV,4,3,13,07,39,207,33,06,71,336,42,03,42,205,41,02,28,237,41,1*77
$GBGSV,4,4,13,01,41,152,46,1*44
$GNGSA,A,3,04,08,09,16,18,26,27,28,31,,,,0.7,0.4,0.6,1*36
$GNGSA,A,3,65,72,74,75,76,84,85,,,,,,0.7,0.4,0.6,2*30
$GNGSA,A,3,04,05,06,09,16,23,26,31,33,,,,0.7,0.4,0.6,3*38
$GNGSA,A,3,01,03,06,07,09,10,11,16,20,23,25,28,0.7,0.4,0.6,4*33
$GNGSA,A,3,02,03,,,,,,,,,,,0.7,0.4,0.6,5*31
$GNVTG,,T,,M,0.0,N,0.0,K,A*3D
$GNDTM,P90,,0000.000025,S,00000.000001,W,0.982,W84*49
$GNRMC,070231.00,A,3727.019376,N,12639.114109,E,0.0,,191125,9.1,W,A,V*65
$GNGNS,070231.00,3727.019376,N,12639.114109,E,AAAAAN,39,0.4,10.9,18.0,,,V*1D
$GNGGA,070231.00,3727.019376,N,12639.114109,E,1,12,0.4,10.9,M,18.0,M,,*4B
$PSMSG,magcal=PASS,bluesky=0*00
$GPGSV,3,1,12,04,48,280,48,08,19,210,40,09,21,313,46,16,68,310,44,1*6E
$GPGSV,3,2,12,18,19,082,28,26,57,045,43,27,48,196,46,28,27,119,38,1*6F
$GPGSV,3,3,12,31,56,105,39,41,00,000,43,42,00,000,43,50,00,000,46,1*6C
$GLGSV,3,1,09,74,33,060,37,66,00,000,48,76,16,288,43,75,53,345,52,1*7C
$GLGSV,3,2,09,65,38,265,45,84,33,061,38,83,03,019,23,85,35,126,41,1*72
$GLGSV,3,3,09,72,19,206,39,1*42
$GAGSV,3,1,09,04,25,171,47,05,34,308,44,06,46,190,44,09,60,230,44,7*74
$GAGSV,3,2,09,16,18,256,36,23,23,058,42,26,11,059,24,31,68,014,41,7*78
$GAGSV,3,3,09,33,14,107,32,7*48
$GQGSV,1,1,02,02,78,102,41,03,16,154,37,1*6C
$GBGSV,3,1,12,28,10,183,39,25,43,078,32,23,66,341,45,20,14,312,54,1*72
$GBGSV,3,2,12,16,74,351,43,10,25,213,39,09,55,316,41,07,39,207,31,1*7E
$GBGSV,3,3,12,06,71,336,41,03,42,205,38,02,28,237,40,01,41,152,44,1*77
$GNGSA,A,3,04,08,09,16,18,26,27,28,31,,,,0.7,0.4,0.6,1*36
$GNGSA,A,3,65,72,74,75,76,84,85,,,,,,0.7,0.4,0.6,2*30
$GNGSA,A,3,04,05,06,09,16,23,26,31,33,,,,0.7,0.4,0.6,3*38
$GNGSA,A,3,01,03,06,07,09,10,11,16,20,23,25,28,0.7,0.4,0.6,4*33
$GNGSA,A,3,02,03,,,,,,,,,,,0.7,0.4,0.6,5*31
$GNVTG,,T,,M,0.0,N,0.0,K,A*3D
$GNDTM,P90,,0000.000025,S,00000.000001,W,0.982,W84*49
$GNRMC,070232.00,A,3727.019380,N,12639.114104,E,0.0,,191125,9.1,W,A,V*62
$GNGNS,070232.00,3727.019380,N,12639.114104,E,AAAAAN,39,0.4,10.9,18.0,,,V*1A
$GNGGA,070232.00,3727.019380,N,12639.114104,E,1,12,0.4,10.9,M,18.0,M,,*4C
$PSMSG,magcal=PASS,bluesky=0*00
$GPGSV,3,1,11,04,48,280,48,08,19,210,40,09,21,313,48,16,68,310,44,1*63
$GPGSV,3,2,11,26,57,045,43,27,48,196,46,28,27,119,38,31,56,105,37,1*6C
$GPGSV,3,3,11,41,00,000,43,42,00,000,44,50,00,000,46,1*57
$GLGSV,3,1,09,74,33,060,38,66,00,000,49,76,16,288,43,75,53,345,52,1*72
$GLGSV,3,2,09,65,38,265,46,84,33,061,39,83,03,019,23,85,35,126,40,1*71
$GLGSV,3,3,09,72,19,206,38,1*43
$GAGSV,3,1,09,04,25,171,46,05,34,308,44,06,46,190,45,09,60,230,44,7*74
$GAGSV,3,2,09,16,18,256,39,23,23,058,42,26,11,059,23,31,68,014,40,7*71
$GAGSV,3,3,09,33,14,107,34,7*4E
$GQGSV,1,1,02,02,78,102,42,03,16,154,38,1*60
$GBGSV,3,1,12,28,10,183,40,25,43,078,30,23,66,341,44,20,14,312,55,1*7E
$GBGSV,3,2,12,16,74,351,43,10,25,213,39,09,55,316,41,07,39,207,30,1*7F
$GBGSV,3,3,12,06,71,336,41,03,42,205,39,02,28,237,39,01,41,152,44,1*78
$GNGSA,A,3,04,08,09,16,18,26,27,28,31,,,,0.7,0.4,0.6,1*36
$GNGSA,A,3,65,72,74,75,76,84,85,,,,,,0.7,0.4,0.6,2*30
$GNGSA,A,3,04,05,06,09,16,23,26,31,33,,,,0.7,0.4,0.6,3*38
$GNGSA,A,3,01,03,06,07,09,10,11,16,20,23,25,28,0.7,0.4,0.6,4*33
$GNGSA,A,3,02,03,,,,,,,,,,,0.7,0.4,0.6,5*31
$GNVTG,,T,,M,0.0,N,0.0,K,A*3D
$GNDTM,P90,,0000.000025,S,00000.000001,W,0.982,W84*49
$GNRMC,070233.00,A,3727.019385,N,12639.114098,E,0.0,,191125,9.1,W,A,V*62
$GNGNS,070233.00,3727.019385,N,12639.114098,E,AAAAAN,39,0.4,10.9,18.0,,,V*1A
$GNGGA,070233.00,3727.019385,N,12639.114098,E,1,12,0.4,10.9,M,18.0,M,,*4C
$PSMSG,magcal=PASS,bluesky=0*00
$GPGSV,3,1,11,04,48,280,49,08,19,210,39,09,21,313,48,16,68,310,44,1*6C
$GPGSV,3,2,11,26,57,045,43,27,48,196,47,28,27,119,38,31,56,105,38,1*62
$GPGSV,3,3,11,41,00,000,43,42,00,000,45,50,00,000,46,1*56
$GLGSV,3,1,09,74,33,060,39,66,00,000,49,76,16,288,42,75,53,345,53,1*73
$GLGSV,3,2,09,65,38,265,46,84,33,061,39,83,03,019,23,85,35,126,40,1*71
$GLGSV,3,3,09,72,19,206,36,1*4D
$GAGSV,3,1,09,04,25,171,46,05,34,308,44,06,46,190,45,09,60,230,44,7*74
$GAGSV,3,2,09,16,18,256,40,23,23,058,42,26,11,059,23,31,68,014,40,7*7F
$GAGSV,3,3,09,33,14,107,33,7*49
$GQGSV,1,1,02,02,78,102,42,03,16,154,37,1*6F
$GBGSV,3,1,11,28,10,183,39,23,66,341,44,20,14,312,55,16,74,351,43,1*7B
$GBGSV,3,2,11,10,25,213,40,09,55,316,41,07,39,207,30,06,71,336,41,1*75
$GBGSV,3,3,11,03,42,205,39,02,28,237,40,01,41,152,43,1*41
$GNGSA,A,3,04,08,09,16,18,26,27,28,31,,,,0.7,0.4,0.6,1*36
$GNGSA,A,3,65,72,74,75,76,84,85,,,,,,0.7,0.4,0.6,2*30
$GNGSA,A,3,04,05,06,09,16,23,26,31,33,,,,0.7,0.4,0.6,3*38
$GNGSA,A,3,01,03,06,07,09,10,11,16,20,23,25,28,0.7,0.4,0.6,4*33
$GNGSA,A,3,02,03,,,,,,,,,,,0.7,0.4,0.6,5*31
$GNVTG,,T,,M,0.0,N,0.0,K,A*3D
$GNDTM,P90,,0000.000025,S,00000.000001,W,0.982,W84*49
$GNRMC,070234.00,A,3727.019391,N,12639.114094,E,0.0,,191125,9.1,W,A,V*6C
$GNGNS,070234.00,3727.019391,N,12639.114094,E,AAAAAN,39,0.4,10.9,18.0,,,V*14
$GNGGA,070234.00,3727.019391,N,12639.114094,E,1,12,0.4,10.9,M,18.0,M,,*42
$PSMSG,magcal=PASS,bluesky=0*00
$GPGSV,3,1,11,04,48,280,48,08,19,210,40,09,21,313,47,16,68,310,44,1*6C
$GPGSV,3,2,11,26,57,045,44,27,48,196,46,28,27,119,39,31,56,105,37,1*6A
$GPGSV,3,3,11,41,00,000,43,42,00,000,44,50,00,000,46,1*57
$GLGSV,3,1,09,74,33,060,39,66,00,000,50,76,16,288,42,75,53,345,52,1*7A
$GLGSV,3,2,09,65,38,265,47,84,33,061,38,83,03,019,23,85,35,126,41,1*70
$GLGSV,3,3,09,72,19,206,37,1*4C
$GAGSV,3,1,09,04,25,171,46,05,34,308,44,06,46,190,45,09,60,230,44,7*74
$GAGSV,3,2,09,16,18,256,40,23,23,058,42,26,11,059,23,31,68,014,39,7*71
$GAGSV,3,3,09,33,14,107,32,7*48
$GQGSV,1,1,02,02,78,102,42,03,16,154,37,1*6F
$GBGSV,3,1,11,28,10,183,40,23,66,341,43,20,14,312,55,16,74,351,43,1*72
$GBGSV,3,2,11,10,25,213,39,09,55,316,40,07,39,207,31,06,71,336,41,1*7B
$GBGSV,3,3,11,03,42,205,39,02,28,237,40,01,41,152,43,1*41
$GNGSA,A,3,04,08,09,16,18,26,27,28,31,,,,0.7,0.4,0.6,1*36
$GNGSA,A,3,65,72,74,75,76,84,85,,,,,,0.7,0.4,0.6,2*30
$GNGSA,A,3,04,05,06,09,16,23,26,31,33,,,,0.7,0.4,0.6,3*38
$GNGSA,A,3,01,03,06,07,09,10,11,16,20,23,25,28,0.7,0.4,0.6,4*33
$GNGSA,A,3,02,03,,,,,,,,,,,0.7,0.4,0.6,5*31
$GNVTG,,T,,M,0.0,N,0.0,K,A*3D
$GNDTM,P90,,0000.000025,S,00000.000001,W,0.982,W84*49
$GNRMC,070235.00,A,3727.019397,N,12639.114091,E,0.0,,191125,9.1,W,A,V*6E
$GNGNS,070235.00,3727.019397,N,12639.114091,E,AAAAAN,39,0.4,11.0,18.0,,,V*1E
$GNGGA,070235.00,3727.019397,N,12639.114091,E,1,12,0.4,11.0,M,18.0,M,,*48
$PSMSG,magcal=PASS,bluesky=0*00
$GPGSV,3,1,11,04,48,280,48,08,19,210,40,09,21,313,47,16,68,310,43,1*6B
$GPGSV,3,2,11,26,57,045,44,27,48,196,46,28,27,119,40,31,56,105,37,1*64
$GPGSV,3,3,11,41,00,000,43,42,00,000,44,50,00,000,46,1*57
$GLGSV,3,1,09,74,33,060,40,66,00,000,50,76,16,288,40,75,53,345,52,1*76
$GLGSV,3,2,09,65,38,265,46,84,33,061,38,83,03,019,23,85,35,126,41,1*71
$GLGSV,3,3,09,72,19,206,37,1*4C
$GAGSV,2,1,08,04,25,171,46,05,34,308,43,06,46,190,45,09,60,230,44,7*73
$GAGSV,2,2,08,16,18,256,40,23,23,058,43,31,68,014,40,33,14,107,33,7*74
$GQGSV,1,1,02,02,78,102,42,03,16,154,38,1*60
$GBGSV,3,1,12,28,10,183,39,25,43,078,30,23,66,341,43,20,14,312,55,1*77
$GBGSV,3,2,12,16,74,351,42,10,25,213,39,09,55,316,40,07,39,207,32,1*7D
$GBGSV,3,3,12,06,71,336,40,03,42,205,39,02,28,237,41,01,41,152,43,1*71
$GNGSA,A,3,04,08,09,16,18,26,27,28,31,,,,0.7,0.4,0.6,1*36
$GNGSA,A,3,65,72,74,75,76,84,85,,,,,,0.7,0.4,0.6,2*30
$GNGSA,A,3,04,05,06,09,16,23,26,31,33,,,,0.7,0.4,0.6,3*38
$GNGSA,A,3,01,03,06,07,09,10,11,16,20,23,25,28,0.7,0.4,0.6,4*33
$GNGSA,A,3,02,03,,,,,,,,,,,0.7,0.4,0.6,5*31
$GNVTG,,T,,M,0.0,N,0.0,K,A*3D
$GNDTM,P90,,0000.000025,S,00000.000001,W,0.982,W84*49
$GNRMC,070236.00,A,3727.019402,N,12639.114088,E,0.0,,191125,9.1,W,A,V*6E
$GNGNS,070236.00,3727.019402,N,12639.114088,E,AAAAAN,39,0.4,11.0,18.0,,,V*1E
$GNGGA,070236.00,3727.019402,N,12639.114088,E,1,12,0.4,11.0,M,18.0,M,,*48
$PSMSG,magcal=PASS,bluesky=0*00
$GPGSV,3,1,12,04,48,280,49,08,19,210,40,09,21,313,46,16,68,310,44,1*6F
$GPGSV,3,2,12,18,19,082,27,26,57,045,43,27,48,196,46,28,27,119,41,1*6E
$GPGSV,3,3,12,31,56,105,37,41,00,000,43,42,00,000,44,50,00,000,46,1*65
$GLGSV,3,1,09,74,33,060,39,66,00,000,49,76,16,288,42,75,53,345,52,1*72
$GLGSV,3,2,09,65,38,265,47,84,33,061,37,83,03,019,17,85,35,126,41,1*78
$GLGSV,3,3,09,72,19,206,38,1*43
$GAGSV,2,1,08,04,25,171,47,05,34,308,42,06,46,190,44,09,60,230,44,7*72
$GAGSV,2,2,08,16,18,256,39,23,23,058,42,31,68,014,42,33,14,107,33,7*79
$GQGSV,1,1,02,02,78,102,42,03,16,154,38,1*60
$GBGSV,3,1,11,28,10,183,39,23,66,341,44,20,14,312,54,16,74,351,43,1*7A
$GBGSV,3,2,11,10,25,213,40,09,55,316,41,07,39,207,32,06,71,336,41,1*77
$GBGSV,3,3,11,03,42,205,39,02,28,237,40,01,41,152,44,1*46
$GNGSA,A,3,04,08,09,16,18,26,27,28,31,,,,0.7,0.5,0.6,1*37
$GNGSA,A,3,65,72,74,75,76,84,85,,,,,,0.7,0.5,0.6,2*31
$GNGSA,A,3,04,05,06,09,16,23,31,33,,,,,0.7,0.5,0.6,3*3D
$GNGSA,A,3,01,03,06,07,09,10,16,20,23,25,28,,0.7,0.5,0.6,4*32
$GNGSA,A,3,02,03,,,,,,,,,,,0.7,0.5,0.6,5*30
$GNVTG,,T,,M,0.0,N,0.0,K,A*3D
$GNDTM,P90,,0000.000025,S,00000.000001,W,0.982,W84*49
$GNRMC,070237.00,A,3727.019412,N,12639.114088,E,0.0,,191125,9.1,W,A,V*6E
$GNGNS,070237.00,3727.019412,N,12639.114088,E,AAAAAN,37,0.5,11.0,18.0,,,V*11
$GNGGA,070237.00,3727.019412,N,12639.114088,E,1,12,0.5,11.0,M,18.0,M,,*49
$PSMSG,magcal=PASS,bluesky=0*00
$GPGSV,3,1,12,04,48,280,47,08,19,210,35,09,21,313,47,16,68,310,42,1*64
$GPGSV,3,2,12,18,19,082,28,26,57,045,44,27,48,196,46,28,27,119,39,1*69
$GPGSV,3,3,12,31,56,105,36,41,00,000,43,42,00,000,43,50,00,000,46,1*63
$GLGSV,3,1,09,74,33,060,43,66,00,000,49,76,16,288,41,75,53,345,50,1*7E
$GLGSV,3,2,09,65,38,265,46,84,33,061,44,83,03,019,17,85,35,126,41,1*7D
$GLGSV,3,3,09,72,19,206,37,1*4C
$GAGSV,2,1,08,04,25,171,46,05,34,308,44,06,46,190,45,09,60,230,44,7*74
$GAGSV,2,2,08,16,18,256,39,23,23,058,46,31,68,014,41,33,14,107,32,7*7F
$GQGSV,1,1,02,02,78,102,42,03,16,154,35,1*6D
$GBGSV,4,1,13,28,10,183,41,25,43,078,42,23,66,341,44,20,14,312,55,1*7C
$GBGSV,4,2,13,16,74,351,40,11,43,088,37,10,25,213,37,09,55,316,37,1*7D
$GBGSV,4,3,13,07,39,207,34,06,71,336,38,03,42,205,40,02,28,237,42,1*7F
$GBGSV,4,4,13,01,41,152,43,1*41
$GNGSA,A,3,04,08,09,16,18,26,27,28,31,,,,0.7,0.4,0.6,1*36
$GNGSA,A,3,65,72,74,75,76,84,85,,,,,,0.7,0.4,0.6,2*30
$GNGSA,A,3,04,05,06,09,16,23,31,33,,,,,0.7,0.4,0.6,3*3C
$GNGSA,A,3,01,03,06,07,09,10,11,16,20,23,25,28,0.7,0.4,0.6,4*33
$GNGSA,A,3,02,03,,,,,,,,,,,0.7,0.4,0.6,5*31
$GNVTG,,T,,M,0.0,N,0.0,K,A*3D
$GNDTM,P90,,0000.000025,S,00000.000001,W,0.982,W84*49
$GNRMC,070238.00,A,3727.019414,N,12639.114087,E,0.0,,191125,9.1,W,A,V*68
$GNGNS,070238.00,3727.019414,N,12639.114087,E,AAAAAN,38,0.4,11.0,18.0,,,V*19
$GNGGA,070238.00,3727.019414,N,12639.114087,E,1,12,0.4,11.0,M,18.0,M,,*4E
$PSMSG,magcal=PASS,bluesky=0*00
$GPGSV,3,1,12,04,48,280,47,08,19,210,34,09,21,313,46,16,68,310,42,1*64
$GPGSV,3,2,12,18,19,082,27,26,57,045,43,27,48,196,46,28,27,119,40,1*6F
$GPGSV,3,3,12,31,56,105,37,41,00,000,43,42,00,000,43,50,00,000,45,1*61
$GLGSV,3,1,09,74,33,060,43,66,00,000,48,76,16,288,41,75,53,345,49,1*77
$GLGSV,3,2,09,65,38,265,46,84,33,061,44,83,03,019,17,85,35,126,39,1*72
$GLGSV,3,3,09,72,19,206,38,1*43
$GAGSV,3,1,09,04,25,171,45,05,34,308,43,06,46,190,44,09,60,230,44,7*71
$GAGSV,3,2,09,16,18,256,39,23,23,058,46,26,11,059,24,31,68,014,41,7*73
$GAGSV,3,3,09,33,14,107,35,7*4F
$GQGSV,1,1,02,02,78,102,41,03,16,154,34,1*6F
$GBGSV,4,1,13,28,10,183,41,25,43,078,41,23,66,341,44,20,14,312,55,1*7F
$GBGSV,4,2,13,16,74,351,41,11,43,088,36,10,25,213,37,09,55,316,35,1*7F
$GBGSV,4,3,13,07,39,207,34,06,71,336,38,03,42,205,41,02,28,237,41,1*7D
$GBGSV,4,4,13,01,41,152,42,1*40
$GNGSA,A,3,04,08,09,16,18,26,27,28,31,,,,0.7,0.4,0.6,1*36
$GNGSA,A,3,65,72,74,75,76,84,85,,,,,,0.7,0.4,0.6,2*30
$GNGSA,A,3,04,05,06,09,16,23,31,33,,,,,0.7,0.4,0.6,3*3C
$GNGSA,A,3,01,03,06,07,09,10,11,16,20,23,25,28,0.7,0.4,0.6,4*33
$GNGSA,A,3,02,03,,,,,,,,,,,0.7,0.4,0.6,5*31
$GNVTG,,T,,M,0.0,N,0.0,K,A*3D
$GNDTM,P90,,0000.000025,S,00000.000001,W,0.982,W84*49
$GNRMC,070239.00,A,3727.019414,N,12639.114086,E,0.0,,191125,9.1,W,A,V*68
$GNGNS,070239.00,3727.019414,N,12639.114086,E,AAAAAN,38,0.4,11.0,18.0,,,V*19
$GNGGA,070239.00,3727.019414,N,12639.114086,E,1,12,0.4,11.0,M,18.0,M,,*4E
$PSMSG,magcal=PASS,bluesky=0*00
$GPGSV,3,1,12,04,48,280,45,08,19,210,36,09,21,313,44,16,68,310,40,1*64
$GPGSV,3,2,12,18,19,082,27,26,57,045,40,27,48,196,44,28,27,119,40,1*6E
$GPGSV,3,3,12,31,56,105,34,41,00,000,43,42,00,000,45,50,00,000,44,1*65
$GLGSV,3,1,09,74,33,060,42,66,00,000,42,76,16,288,36,75,53,345,46,1*73
$GLGSV,3,2,09,65,38,265,41,84,33,061,44,83,03,019,21,85,35,126,29,1*71
$GLGSV,3,3,09,72,19,206,34,1*4F
$GAGSV,3,1,09,04,25,171,44,05,34,308,42,06,46,190,44,09,60,230,43,7*76
$GAGSV,3,2,09,16,18,256,37,23,23,058,39,26,11,059,24,31,68,014,38,7*7B
$GAGSV,3,3,09,33,14,107,30,7*4A
$GQGSV,1,1,01,02,78,102,37,1*5E
$GBGSV,3,1,12,28,10,183,39,23,66,341,43,20,14,312,52,16,74,351,37,1*7B
$GBGSV,3,2,12,11,43,088,34,10,25,213,36,09,55,316,34,07,39,207,32,1*74
$GBGSV,3,3,12,06,71,336,32,03,42,205,40,02,28,237,40,01,41,152,41,1*79
$GNGSA,A,3,04,08,09,16,18,26,27,28,31,,,,0.7,0.4,0.6,1*36
$GNGSA,A,3,65,72,74,75,76,84,85,,,,,,0.7,0.4,0.6,2*30
$GNGSA,A,3,04,05,06,09,16,23,31,33,,,,,0.7,0.4,0.6,3*3C
$GNGSA,A,3,01,03,06,07,09,10,11,16,20,23,25,28,0.7,0.4,0.6,4*33
$GNGSA,A,3,02,03,,,,,,,,,,,0.7,0.4,0.6,5*31
$GNVTG,,T,,M,0.0,N,0.0,K,A*3D
$GNDTM,P90,,0000.000025,S,00000.000001,W,0.982,W84*49
$GNRMC,070240.00,A,3727.019414,N,12639.114085,E,0.0,,191125,9.1,W,A,V*65
$GNGNS,070240.00,3727.019414,N,12639.114085,E,AAAAAN,38,0.4,11.0,18.0,,,V*14
$GNGGA,070240.00,3727.019414,N,12639.114085,E,1,12,0.4,11.0,M,18.0,M,,*43
$PSMSG,magcal=PASS,bluesky=0*00
