$GPGSV,3,1,12,04,48,283,34,08,17,209,42,09,20,315,40,16,67,303,43,1*69
$GPGSV,3,2,12,18,18,084,26,26,59,042,42,27,46,195,46,28,29,117,38,1*63
$GPGSV,3,3,12,31,58,102,41,41,00,000,42,42,00,000,40,50,00,000,41,1*6F
$GLGSV,3,1,10,74,00,000,34,,00,000,49,66,00,000,44,76,14,286,50,1*7F
$GLGSV,3,2,10,75,52,340,42,65,39,269,44,84,34,064,35,83,05,021,26,1*7E
$GLGSV,3,3,10,85,33,128,37,72,21,207,47,1*7B
$GAGSV,2,1,08,04,27,171,41,05,32,309,39,06,49,191,43,09,62,233,44,7*75
$GAGSV,2,2,08,16,17,254,33,23,24,056,23,31,69,011,34,33,12,109,36,7*78
$GQGSV,1,1,01,02,78,105,39,1*57
$GBGSV,4,1,13,28,09,184,41,25,44,076,39,23,65,336,42,16,73,350,37,1*75
$GBGSV,4,2,13,12,14,040,29,11,42,091,39,10,25,212,47,09,55,316,39,1*7C
$GBGSV,4,3,13,07,38,206,37,06,71,336,37,03,42,205,42,02,28,237,41,1*72
$GBGSV,4,4,13,01,41,152,38,1*4D
$GNGSA,A,3,04,08,09,16,18,26,27,28,31,,,,0.8,0.5,0.6,1*38
$GNGSA,A,3,65,72,75,76,85,,,,,,,,0.8,0.5,0.6,2*31
$GNGSA,A,3,04,05,06,09,16,31,33,,,,,,0.8,0.5,0.6,3*33
$GNGSA,A,3,01,03,06,07,09,10,11,12,16,23,25,28,0.8,0.5,0.6,4*3C
$GNGSA,A,3,02,03,,,,,,,,,,,0.8,0.5,0.6,5*3F
$GNVTG,,T,,M,0.0,N,0.0,K,A*3D
$GNDTM,P90,,0000.000025,S,00000.000001,W,0.982,W84*49
$GNRMC,065729.00,A,3727.034288,N,12639.122158,E,0.0,,191125,9.1,W,A,V*63
$GNGNS,065729.00,3727.034288,N,12639.122158,E,AAAAAN,35,0.5,15.9,18.0,,,V*13
$GNGGA,065729.00,3727.034288,N,12639.122158,E,1,12,0.5,15.9,M,18.0,M,,*49
$PSMSG,magcal=PASS,bluesky=0*00
$GPGSV,3,1,12,04,48,283,39,08,17,209,41,09,20,315,41,16,67,303,45,1*60
$GPGSV,3,2,12,18,18,084,24,26,59,042,41,27,46,195,48,28,29,117,37,1*63
$GPGSV,3,3,12,31,58,102,44,41,00,000,42,42,00,000,42,50,00,000,43,1*6A
$GLGSV,3,1,10,74,00,000,36,,00,000,48,66,00,000,43,76,14,286,52,1*79
$GLGSV,3,2,10,75,52,340,37,65,39,269,45,84,34,064,38,83,05,021,24,1*72
$GLGSV,3,3,10,85,33,128,37,72,21,207,47,1*7B
$GAGSV,2,1,08,04,27,171,41,05,32,309,48,06,49,191,46,09,62,233,43,7*71
$GAGSV,2,2,08,16,17,254,36,23,24,056,23,31,69,011,33,33,12,109,37,7*7B
$GQGSV,1,1,01,02,78,105,38,1*56
$GBGSV,4,1,13,28,09,184,36,25,44,076,40,23,65,336,41,16,73,350,37,1*78
$GBGSV,4,2,13,12,14,040,27,11,42,091,39,10,25,212,46,09,55,316,34,1*7E
$GBGSV,4,3,13,07,38,206,42,06,71,336,36,03,42,205,43,02,28,237,41,1*70
$GBGSV,4,4,13,01,41,152,40,1*42
$GNGSA,A,3,04,08,09,16,18,26,27,28,31,,,,0.8,0.5,0.6,1*38
$GNGSA,A,3,65,72,75,76,85,,,,,,,,0.8,0.5,0.6,2*31
$GNGSA,A,3,04,05,06,09,16,31,33,,,,,,0.8,0.5,0.6,3*33
$GNGSA,A,3,01,03,06,07,09,10,11,12,16,23,25,28,0.8,0.5,0.6,4*3C
$GNGSA,A,3,02,03,,,,,,,,,,,0.8,0.5,0.6,5*3F
$GNVTG,,T,,M,0.0,N,0.0,K,A*3D
$GNDTM,P90,,0000.000025,S,00000.000001,W,0.982,W84*49
$GNRMC,065730.00,A,3727.034288,N,12639.122158,E,0.0,,191125,9.1,W,A,V*6B
$GNGNS,065730.00,3727.034288,N,12639.122158,E,AAAAAN,35,0.5,15.9,18.0,,,V*1B
$GNGGA,065730.00,3727.034288,N,12639.122158,E,1,12,0.5,15.9,M,18.0,M,,*41
$PSMSG,magcal=PASS,bluesky=0*00
$GPGSV,3,1,12,04,48,283,37,08,17,209,39,09,20,315,42,16,67,303,44,1*63
$GPGSV,3,2,12,18,18,084,24,26,59,042,42,27,46,195,48,28,29,117,38,1*6F
$GPGSV,3,3,12,31,58,102,44,41,00,000,42,42,00,000,43,50,00,000,42,1*6A
$GLGSV,3,1,10,74,00,000,35,,00,000,48,66,00,000,42,76,14,286,52,1*7B
$GLGSV,3,2,10,75,52,340,38,65,39,269,46,84,34,064,39,83,05,021,24,1*7F
$GLGSV,3,3,10,85,33,128,36,72,21,207,46,1*7B
$GAGSV,3,1,09,04,27,171,41,05,32,309,48,06,49,191,46,09,62,233,46,7*74
$GAGSV,3,2,09,16,17,254,39,23,24,056,24,26,11,061,24,31,69,011,32,7*78
$GAGSV,3,3,09,33,12,109,36,7*44
$GQGSV,1,1,02,02,78,105,40,03,15,154,36,1*68
$GBGSV,4,1,13,28,09,184,36,25,44,076,41,23,65,336,39,16,73,350,36,1*77
$GBGSV,4,2,13,12,14,040,28,11,42,091,41,10,25,212,46,09,55,316,36,1*7C
$GBGSV,4,3,13,07,38,206,42,06,71,336,37,03,42,205,45,02,28,237,42,1*74
$GBGSV,4,4,13,01,41,152,42,1*40
$GNGSA,A,3,04,08,09,16,18,26,27,28,31,,,,0.8,0.5,0.6,1*38
$GNGSA,A,3,65,72,75,76,85,,,,,,,,0.8,0.5,0.6,2*31
$GNGSA,A,3,04,05,06,09,16,31,33,,,,,,0.8,0.5,0.6,3*33
$GNGSA,A,3,01,03,06,07,09,10,11,12,16,23,25,28,0.8,0.5,0.6,4*3C
$GNGSA,A,3,02,03,,,,,,,,,,,0.8,0.5,0.6,5*3F
$GNVTG,,T,,M,0.0,N,0.0,K,A*3D
$GNDTM,P90,,0000.000025,S,00000.000001,W,0.982,W84*49
$GNRMC,065731.00,A,3727.034288,N,12639.122158,E,0.0,,191125,9.1,W,A,V*6A
$GNGNS,065731.00,3727.034288,N,12639.122158,E,AAAAAN,35,0.5,15.9,18.0,,,V*1A
$GNGGA,065731.00,3727.034288,N,12639.122158,E,1,12,0.5,15.9,M,18.0,M,,*40
$PSMSG,magcal=PASS,bluesky=0*00
$GPGSV,3,1,12,04,48,283,40,08,17,209,41,09,20,315,40,16,67,303,44,1*6E
$GPGSV,3,2,12,18,18,084,24,26,59,042,45,27,46,195,47,28,29,117,38,1*67
$GPGSV,3,3,12,31,58,102,43,41,00,000,42,42,00,000,44,50,00,000,42,1*6A
$GLGSV,3,1,10,74,00,000,40,,00,000,48,66,00,000,40,76,14,286,53,1*7A
$GLGSV,3,2,10,75,52,340,37,65,39,269,47,84,34,064,44,83,05,021,24,1*7B
$GLGSV,3,3,10,85,33,128,36,72,21,207,47,1*7A
$GAGSV,2,1,08,04,27,171,41,05,32,309,48,06,49,191,44,09,62,233,46,7*76
$GAGSV,2,2,08,16,17,254,38,23,24,056,30,31,69,011,38,33,12,109,35,7*7E
$GQGSV,1,1,02,02,78,105,41,03,15,154,37,1*68
$GBGSV,4,1,13,28,09,184,41,25,44,076,46,23,65,336,40,16,73,350,38,1*70
$GBGSV,4,2,13,12,14,040,28,11,42,091,42,10,25,212,47,09,55,316,34,1*7C
$GBGSV,4,3,13,07,38,206,42,06,71,336,37,03,42,205,44,02,28,237,42,1*75
$GBGSV,4,4,13,01,41,152,42,1*40
$GNGSA,A,3,04,08,09,16,18,26,27,28,31,,,,0.7,0.5,0.6,1*37
$GNGSA,A,3,65,72,75,76,85,,,,,,,,0.7,0.5,0.6,2*3E
$GNGSA,A,3,04,05,06,09,16,23,31,33,,,,,0.7,0.5,0.6,3*3D
$GNGSA,A,3,01,03,06,07,09,10,11,12,16,23,25,28,0.7,0.5,0.6,4*33
$GNGSA,A,3,02,03,,,,,,,,,,,0.7,0.5,0.6,5*30
$GNVTG,,T,,M,0.0,N,0.0,K,A*3D
$GNDTM,P90,,0000.000025,S,00000.000001,W,0.982,W84*49
$GNRMC,065732.00,A,3727.034288,N,12639.122158,E,0.0,,191125,9.1,W,A,V*69
$GNGNS,065732.00,3727.034288,N,12639.122158,E,AAAAAN,36,0.5,15.9,18.0,,,V*1A
$GNGGA,065732.00,3727.034288,N,12639.122158,E,1,12,0.5,15.9,M,18.0,M,,*43
$PSMSG,magcal=PASS,bluesky=0*00
$GPGSV,3,1,12,04,48,283,44,08,17,209,42,09,20,315,36,16,67,303,42,1*6E
$GPGSV,3,2,12,18,18,084,24,26,59,042,47,27,46,195,47,28,29,117,36,1*6B
$GPGSV,3,3,12,31,58,102,42,41,00,000,42,42,00,000,42,50,00,000,42,1*6D
$GLGSV,3,1,10,74,00,000,43,,00,000,48,66,00,000,36,76,14,286,53,1*78
$GLGSV,3,2,10,75,52,340,30,65,39,269,47,84,34,064,46,83,05,021,27,1*7D
$GLGSV,3,3,10,85,33,128,37,72,21,207,47,1*7B
$GAGSV,2,1,08,04,27,171,39,05,32,309,47,06,49,191,44,09,62,233,46,7*76
$GAGSV,2,2,08,16,17,254,40,23,24,056,35,31,69,011,40,33,12,109,31,7*7F
$GQGSV,1,1,02,02,78,105,41,03,15,154,36,1*69
$GBGSV,4,1,13,28,09,184,41,25,44,076,49,23,65,336,41,16,73,350,39,1*7F
$GBGSV,4,2,13,12,14,040,28,11,42,091,43,10,25,212,46,09,55,316,30,1*78
$GBGSV,4,3,13,07,38,206,43,06,71,336,35,03,42,205,44,02,28,237,41,1*75
$GBGSV,4,4,13,01,41,152,41,1*43
$GNGSA,A,3,04,08,09,16,18,26,27,28,31,,,,0.7,0.5,0.6,1*37
$GNGSA,A,3,65,72,75,76,85,,,,,,,,0.7,0.5,0.6,2*3E
$GNGSA,A,3,04,05,06,09,16,23,31,33,,,,,0.7,0.5,0.6,3*3D
$GNGSA,A,3,01,03,06,07,09,10,11,12,16,23,25,28,0.7,0.5,0.6,4*33
$GNGSA,A,3,02,03,,,,,,,,,,,0.7,0.5,0.6,5*30
$GNVTG,,T,,M,0.0,N,0.0,K,A*3D
$GNDTM,P90,,0000.000025,S,00000.000001,W,0.982,W84*49
$GNRMC,065733.00,A,3727.034288,N,12639.122158,E,0.0,,191125,9.1,W,A,V*68
$GNGNS,065733.00,3727.034288,N,12639.122158,E,AAAAAN,36,0.5,15.9,18.0,,,V*1B
$GNGGA,065733.00,3727.034288,N,12639.122158,E,1,12,0.5,15.9,M,18.0,M,,*42
$PSMSG,magcal=PASS,bluesky=0*00
$GPGSV,3,1,12,04,48,283,40,08,17,209,42,09,20,315,41,16,67,303,44,1*6C
$GPGSV,3,2,12,18,18,084,24,26,59,042,42,27,46,195,47,28,29,117,33,1*6B
$GPGSV,3,3,12,31,58,102,42,41,00,000,42,42,00,000,43,50,00,000,42,1*6C
$GLGSV,3,1,10,74,00,000,37,,00,000,48,66,00,000,43,76,14,286,51,1*7B
$GLGSV,3,2,10,75,52,340,40,65,39,269,48,84,34,064,39,83,05,021,28,1*72
$GLGSV,3,3,10,85,33,128,37,72,21,207,47,1*7B
$GAGSV,2,1,08,04,27,171,41,05,32,309,46,06,49,191,44,09,62,233,44,7*7A
$GAGSV,2,2,08,16,17,254,37,23,24,056,35,31,69,011,35,33,12,109,37,7*7B
$GQGSV,1,1,02,02,78,105,42,03,15,154,35,1*69
$GBGSV,4,1,13,28,09,184,41,25,44,076,43,23,65,336,41,16,73,350,38,1*74
$GBGSV,4,2,13,12,14,040,28,11,42,091,41,10,25,212,46,09,55,316,38,1*72
$GBGSV,4,3,13,07,38,206,43,06,71,336,39,03,42,205,43,02,28,237,41,1*7E
$GBGSV,4,4,13,01,41,152,42,1*40
$GNGSA,A,3,04,08,09,16,26,27,28,31,,,,,0.8,0.5,0.6,1*31
$GNGSA,A,3,65,72,75,76,85,,,,,,,,0.8,0.5,0.6,2*31
$GNGSA,A,3,04,05,06,09,16,23,31,33,,,,,0.8,0.5,0.6,3*32
$GNGSA,A,3,01,03,06,07,09,10,11,12,16,23,25,28,0.8,0.5,0.6,4*3C
$GNGSA,A,3,02,03,,,,,,,,,,,0.8,0.5,0.6,5*3F
$GNVTG,,T,,M,0.0,N,0.0,K,A*3D
$GNDTM,P90,,0000.000025,S,00000.000001,W,0.982,W84*49
$GNRMC,065734.00,A,3727.034287,N,12639.122158,E,0.0,,191125,9.1,W,A,V*60
$GNGNS,065734.00,3727.034287,N,12639.122158,E,AAAAAN,35,0.5,15.9,18.0,,,V*10
$GNGGA,065734.00,3727.034287,N,12639.122158,E,1,12,0.5,15.9,M,18.0,M,,*4A
$PSMSG,magcal=PASS,bluesky=0*00
$GPGSV,3,1,12,04,48,283,36,08,17,209,38,09,20,315,43,16,67,303,43,1*65
$GPGSV,3,2,12,18,18,084,23,26,59,042,42,27,46,195,46,28,29,117,33,1*6D
$GPGSV,3,3,12,31,58,102,42,41,00,000,42,42,00,000,39,50,00,000,42,1*61
$GLGSV,3,1,10,74,00,000,34,,00,000,49,66,00,000,44,76,14,286,50,1*7F
$GLGSV,3,2,10,75,52,340,40,65,39,269,46,84,34,064,39,83,05,021,25,1*71
$GLGSV,3,3,10,85,33,128,38,72,21,207,45,1*76
$GAGSV,3,1,09,04,27,171,41,05,32,309,45,06,49,191,43,09,62,233,45,7*7F
$GAGSV,3,2,09,16,17,254,39,23,24,056,35,26,11,061,28,31,69,011,32,7*74
$GAGSV,3,3,09,33,12,109,38,7*4A
$GQGSV,1,1,02,02,78,105,40,03,15,154,32,1*6C
$GBGSV,4,1,13,28,09,184,42,25,44,076,40,23,65,336,38,16,73,350,33,1*71
$GBGSV,4,2,13,12,14,040,28,11,42,091,40,10,25,212,46,09,55,316,41,1*7D
$GBGSV,4,3,13,07,38,206,41,06,71,336,34,03,42,205,44,02,28,237,41,1*76
$GBGSV,4,4,13,01,41,152,41,1*43
$GNGSA,A,3,04,08,09,16,26,27,28,31,,,,,0.7,0.5,0.6,1*3E
$GNGSA,A,3,65,72,75,76,85,,,,,,,,0.7,0.5,0.6,2*3E
$GNGSA,A,3,04,05,06,09,16,23,26,31,33,,,,0.7,0.5,0.6,3*39
$GNGSA,A,3,01,03,06,07,09,10,11,12,16,23,25,28,0.7,0.5,0.6,4*33
$GNGSA,A,3,02,03,,,,,,,,,,,0.7,0.5,0.6,5*30
$GNVTG,,T,,M,0.0,N,0.0,K,A*3D
$GNDTM,P90,,0000.000025,S,00000.000001,W,0.982,W84*49
$GNRMC,065735.00,A,3727.034286,N,12639.122158,E,0.0,,191125,9.1,W,A,V*60
$GNGNS,065735.00,3727.034286,N,12639.122158,E,AAAAAN,36,0.5,15.9,18.0,,,V*13
$GNGGA,065735.00,3727.034286,N,12639.122158,E,1,12,0.5,15.9,M,18.0,M,,*4A
$PSMSG,magcal=PASS,bluesky=0*00
$GPGSV,3,1,12,04,48,283,41,08,17,209,38,09,20,315,44,16,67,303,42,1*63
$GPGSV,3,2,12,18,18,084,23,26,59,042,40,27,46,195,44,28,29,117,35,1*6B
$GPGSV,3,3,12,31,58,102,42,41,00,000,42,42,00,000,35,50,00,000,42,1*6D
$GLGSV,3,1,10,74,00,000,35,,00,000,50,66,00,000,42,76,14,286,48,1*79
$GLGSV,3,2,10,75,52,340,37,65,39,269,46,84,34,064,38,83,05,021,28,1*7D
$GLGSV,3,3,10,85,33,128,34,72,21,207,45,1*7A
$GAGSV,3,1,09,04,27,171,38,05,32,309,45,06,49,191,41,09,62,233,44,7*72
$GAGSV,3,2,09,16,17,254,38,23,24,056,26,26,11,061,27,31,69,011,35,7*7F
$GAGSV,3,3,09,33,12,109,37,7*45
$GQGSV,1,1,02,02,78,105,40,03,15,154,32,1*6C
$GBGSV,4,1,13,28,09,184,40,25,44,076,39,23,65,336,39,16,73,350,32,1*7D
$GBGSV,4,2,13,12,14,040,27,11,42,091,41,10,25,212,45,09,55,316,40,1*71
$GBGSV,4,3,13,07,38,206,40,06,71,336,35,03,42,205,42,02,28,237,40,1*71
$GBGSV,4,4,13,01,41,152,41,1*43
$GNGSA,A,3,04,08,09,16,26,27,28,31,,,,,0.7,0.5,0.6,1*3E
$GNGSA,A,3,65,72,75,76,85,,,,,,,,0.7,0.5,0.6,2*3E
$GNGSA,A,3,04,05,06,09,16,23,26,31,33,,,,0.7,0.5,0.6,3*39
$GNGSA,A,3,01,03,06,07,09,10,11,12,16,23,25,28,0.7,0.5,0.6,4*33
$GNGSA,A,3,02,03,,,,,,,,,,,0.7,0.5,0.6,5*30
$GNVTG,,T,,M,0.0,N,0.0,K,A*3D
$GNDTM,P90,,0000.000025,S,00000.000001,W,0.982,W84*49
$GNRMC,065736.00,A,3727.034287,N,12639.122171,E,0.0,,191125,9.1,W,A,V*69
$GNGNS,065736.00,3727.034287,N,12639.122171,E,AAAAAN,36,0.5,15.9,18.0,,,V*1A
$GNGGA,065736.00,3727.034287,N,12639.122171,E,1,12,0.5,15.9,M,18.0,M,,*43
$PSMSG,magcal=PASS,bluesky=0*00
$GPGSV,3,1,12,04,48,283,42,08,17,209,35,09,20,315,46,16,67,303,42,1*6F
$GPGSV,3,2,12,18,18,084,23,26,59,042,37,27,46,195,46,28,29,117,36,1*6A
$GPGSV,3,3,12,31,58,102,41,41,00,000,42,42,00,000,38,50,00,000,43,1*62
$GLGSV,3,1,10,74,00,000,32,,00,000,49,66,00,000,39,76,14,286,48,1*7A
$GLGSV,3,2,10,75,52,340,33,65,39,269,47,84,34,064,40,83,05,021,27,1*78
$GLGSV,3,3,10,85,33,128,38,72,21,207,46,1*75
$GAGSV,3,1,09,04,27,171,39,05,32,309,45,06,49,191,43,09,62,233,44,7*71
$GAGSV,3,2,09,16,17,254,35,23,24,056,26,26,11,061,27,31,69,011,35,7*72
$GAGSV,3,3,09,33,12,109,36,7*44
$GQGSV,1,1,02,02,78,105,40,03,15,154,34,1*6A
$GBGSV,4,1,13,28,09,184,38,25,44,076,38,23,65,336,36,16,73,350,31,1*7F
$GBGSV,4,2,13,12,14,040,27,11,42,091,36,10,25,212,44,09,55,316,35,1*72
$GBGSV,4,3,13,07,38,206,42,06,71,336,30,03,42,205,41,02,28,237,36,1*74
$GBGSV,4,4,13,01,41,152,40,1*42
$GNGSA,A,3,04,08,09,16,26,27,28,31,,,,,0.7,0.5,0.6,1*3E
$GNGSA,A,3,65,72,75,76,85,,,,,,,,0.7,0.5,0.6,2*3E
$GNGSA,A,3,04,05,06,09,16,23,26,31,33,,,,0.7,0.5,0.6,3*39
$GNGSA,A,3,01,03,06,07,09,10,11,12,16,23,25,28,0.7,0.5,0.6,4*33
$GNGSA,A,3,02,03,,,,,,,,,,,0.7,0.5,0.6,5*30
$GNVTG,,T,,M,0.0,N,0.0,K,A*3D
$GNDTM,P90,,0000.000025,S,00000.000001,W,0.982,W84*49
$GNRMC,065737.00,A,3727.034288,N,12639.122183,E,0.0,,191125,9.1,W,A,V*6A
$GNGNS,065737.00,3727.034288,N,12639.122183,E,AAAAAN,36,0.5,15.9,18.0,,,V*19
$GNGGA,065737.00,3727.034288,N,12639.122183,E,1,12,0.5,15.9,M,18.0,M,,*40
$PSMSG,magcal=PASS,bluesky=0*00
$GPGSV,3,1,12,04,48,283,39,08,17,209,36,09,20,315,44,16,67,303,42,1*62
$GPGSV,3,2,12,18,18,084,23,26,59,042,36,27,46,195,45,28,29,117,36,1*68
$GPGSV,3,3,12,31,58,102,41,41,00,000,42,42,00,000,39,50,00,000,41,1*61
$GLGSV,3,1,10,74,00,000,31,,00,000,49,66,00,000,38,76,14,286,50,1*71
$GLGSV,3,2,10,75,52,340,30,65,39,269,46,84,34,064,39,83,05,021,25,1*76
$GLGSV,3,3,10,85,33,128,38,72,21,207,46,1*75
$GAGSV,3,1,09,04,27,171,38,05,32,309,46,06,49,191,44,09,62,233,43,7*73
$GAGSV,3,2,09,16,17,254,36,23,24,056,24,26,11,061,26,31,69,011,31,7*76
$GAGSV,3,3,09,33,12,109,36,7*44
$GQGSV,1,1,02,02,78,105,39,03,15,154,34,1*64
$GBGSV,4,1,13,28,09,184,34,25,44,076,40,23,65,336,36,16,73,350,34,1*79
$GBGSV,4,2,13,12,14,040,26,11,42,091,38,10,25,212,45,09,55,316,34,1*7D
$GBGSV,4,3,13,07,38,206,43,06,71,336,32,03,42,205,40,02,28,237,37,1*77
$GBGSV,4,4,13,01,41,152,40,1*42
$GNGSA,A,3,04,08,09,16,26,27,28,31,,,,,0.7,0.4,0.6,1*3F
$GNGSA,A,3,65,72,75,76,84,85,,,,,,,0.7,0.4,0.6,2*33
$GNGSA,A,3,04,05,06,09,16,23,26,31,33,,,,0.7,0.4,0.6,3*38
$GNGSA,A,3,01,03,06,07,09,10,11,12,16,23,25,28,0.7,0.4,0.6,4*32
$GNGSA,A,3,02,03,,,,,,,,,,,0.7,0.4,0.6,5*31
$GNVTG,,T,,M,0.0,N,0.0,K,A*3D
$GNDTM,P90,,0000.000025,S,00000.000001,W,0.982,W84*49
$GNRMC,065738.00,A,3727.034293,N,12639.122195,E,0.0,,191125,9.1,W,A,V*68
$GNGNS,065738.00,3727.034293,N,12639.122195,E,AAAAAN,37,0.4,15.8,18.0,,,V*1A
$GNGGA,065738.00,3727.034293,N,12639.122195,E,1,12,0.4,15.8,M,18.0,M,,*42
$PSMSG,magcal=PASS,bluesky=0*00
$GPGSV,3,1,12,04,48,283,44,08,17,209,41,09,20,315,37,16,67,303,44,1*6A
$GPGSV,3,2,12,18,18,084,21,26,59,042,42,27,46,195,48,28,29,117,34,1*66
$GPGSV,3,3,12,31,58,102,42,41,00,000,42,42,00,000,43,50,00,000,42,1*6C
$GLGSV,3,1,10,74,00,000,36,,00,000,47,66,00,000,35,76,14,286,53,1*76
$GLGSV,3,2,10,75,52,340,39,65,39,269,49,84,34,064,42,83,05,021,27,1*7E
$GLGSV,3,3,10,85,33,128,32,72,21,207,47,1*7E
$GAGSV,3,1,09,04,27,171,38,05,32,309,46,06,49,191,44,09,62,233,45,7*75
$GAGSV,3,2,09,16,17,254,40,23,24,056,24,26,11,061,26,31,69,011,36,7*70
$GAGSV,3,3,09,33,12,109,33,7*41
$GQGSV,1,1,02,02,78,105,43,03,15,154,37,1*6A
$GBGSV,4,1,13,28,09,184,37,25,44,076,43,23,65,336,39,16,73,350,40,1*75
$GBGSV,4,2,13,12,14,040,24,11,42,091,42,10,25,212,46,09,55,316,37,1*72
$GBGSV,4,3,13,07,38,206,44,06,71,336,39,03,42,205,44,02,28,237,38,1*70
$GBGSV,4,4,13,01,41,152,42,1*40
$GNGSA,A,3,04,08,09,16,26,27,28,31,,,,,0.7,0.4,0.6,1*3F
$GNGSA,A,3,65,72,75,76,84,85,,,,,,,0.7,0.4,0.6,2*33
$GNGSA,A,3,04,05,06,09,16,23,26,31,33,,,,0.7,0.4,0.6,3*38
$GNGSA,A,3,01,03,06,07,09,10,11,12,16,23,25,28,0.7,0.4,0.6,4*32
$GNGSA,A,3,02,03,,,,,,,,,,,0.7,0.4,0.6,5*31
$GNVTG,,T,,M,0.0,N,0.0,K,A*3D
$GNDTM,P90,,0000.000025,S,00000.000001,W,0.982,W84*49
$GNRMC,065739.00,A,3727.034304,N,12639.122212,E,0.0,,191125,9.1,W,A,V*6A
$GNGNS,065739.00,3727.034304,N,12639.122212,E,AAAAAN,37,0.4,15.8,18.0,,,V*18
$GNGGA,065739.00,3727.034304,N,12639.122212,E,1,12,0.4,15.8,M,18.0,M,,*40
$PSMSG,magcal=PASS,bluesky=0*00
$GPGSV,3,1,12,04,48,283,45,08,17,209,42,09,20,315,39,16,67,303,44,1*66
$GPGSV,3,2,12,18,18,084,24,26,59,042,44,27,46,195,48,28,29,117,32,1*63
$GPGSV,3,3,12,31,58,102,41,41,00,000,42,42,00,000,42,50,00,000,42,1*6E
$GLGSV,3,1,10,74,00,000,37,,00,000,47,66,00,000,31,76,14,286,52,1*72
$GLGSV,3,2,10,75,52,340,38,65,39,269,48,84,34,064,42,83,05,021,23,1*7A
$GLGSV,3,3,10,85,33,128,35,72,21,207,48,1*76
$GAGSV,3,1,09,04,27,171,40,05,32,309,48,06,49,191,44,09,62,233,46,7*77
$GAGSV,3,2,09,16,17,254,41,23,24,056,27,26,11,061,26,31,69,011,38,7*7C
$GAGSV,3,3,09,33,13,108,34,7*46
$GQGSV,1,1,02,02,78,105,43,03,15,154,36,1*6B
$GBGSV,3,1,12,28,09,184,36,25,44,076,45,23,65,336,40,16,73,350,40,1*7A
$GBGSV,3,2,12,11,42,091,43,10,25,212,47,09,55,316,32,07,38,206,43,1*7A
$GBGSV,3,3,12,06,71,336,39,03,42,205,44,02,28,237,39,01,41,152,39,1*77
$GNGSA,A,3,04,08,09,16,26,27,28,31,,,,,0.7,0.4,0.6,1*3F
$GNGSA,A,3,65,72,75,76,84,85,,,,,,,0.7,0.4,0.6,2*33
$GNGSA,A,3,04,05,06,09,16,23,26,31,33,,,,0.7,0.4,0.6,3*38
$GNGSA,A,3,01,03,06,07,09,10,11,12,16,23,25,28,0.7,0.4,0.6,4*32
$GNGSA,A,3,02,03,,,,,,,,,,,0.7,0.4,0.6,5*31
$GNVTG,,T,,M,0.0,N,0.0,K,A*3D
$GNDTM,P90,,0000.000025,S,00000.000001,W,0.982,W84*49
$GNRMC,065740.00,A,3727.034318,N,12639.122233,E,0.0,,191125,9.1,W,A,V*6A
$GNGNS,065740.00,3727.034318,N,12639.122233,E,AAAAAN,37,0.4,15.8,18.0,,,V*18
$GNGGA,065740.00,3727.034318,N,12639.122233,E,1,12,0.4,15.8,M,18.0,M,,*40
$PSMSG,magcal=PASS,bluesky=0*00
$GPGSV,3,1,11,04,48,283,43,08,17,209,33,09,20,315,36,16,67,303,44,1*6A
$GPGSV,3,2,11,26,59,042,42,27,46,195,48,28,29,117,40,31,58,102,41,1*60
$GPGSV,3,3,11,41,00,000,42,42,00,000,42,50,00,000,41,1*57
$GLGSV,3,1,10,74,00,000,37,,00,000,44,66,00,000,24,76,14,286,53,1*74
$GLGSV,3,2,10,75,52,340,42,65,39,269,48,84,34,064,41,83,05,021,23,1*74
$GLGSV,3,3,10,85,33,128,37,72,21,207,45,1*79
$GAGSV,3,1,09,04,27,171,40,05,32,309,45,06,49,191,45,09,62,233,43,7*7E
$GAGSV,3,2,09,16,17,254,41,23,24,056,27,26,11,061,26,31,69,011,37,7*73
$GAGSV,3,3,09,33,13,108,38,7*4A
$GQGSV,1,1,02,02,78,105,42,03,15,154,36,1*6A
$GBGSV,3,1,12,28,09,184,38,25,44,076,43,23,65,336,36,16,73,350,40,1*73
$GBGSV,3,2,12,11,42,091,43,10,25,212,45,09,55,316,34,07,38,206,45,1*78
$GBGSV,3,3,12,06,71,336,38,03,42,205,44,02,28,237,37,01,41,152,42,1*74
$GNGSA,A,3,04,08,09,16,26,27,28,31,,,,,0.7,0.4,0.6,1*3F
$GNGSA,A,3,65,72,75,76,84,85,,,,,,,0.7,0.4,0.6,2*33
$GNGSA,A,3,04,05,06,09,16,23,26,31,33,,,,0.7,0.4,0.6,3*38
$GNGSA,A,3,01,03,06,07,09,10,11,12,16,23,25,28,0.7,0.4,0.6,4*32
$GNGSA,A,3,02,03,,,,,,,,,,,0.7,0.4,0.6,5*31
$GNVTG,,T,,M,0.0,N,0.0,K,A*3D
$GNDTM,P90,,0000.000025,S,00000.000001,W,0.982,W84*49
$GNRMC,065741.00,A,3727.034325,N,12639.122248,E,0.0,,191125,9.1,W,A,V*69
$GNGNS,065741.00,3727.034325,N,12639.122248,E,AAAAAN,37,0.4,15.7,18.0,,,V*14
$GNGGA,065741.00,3727.034325,N,12639.122248,E,1,12,0.4,15.7,M,18.0,M,,*4C
$PSMSG,magcal=PASS,bluesky=0*00
$GPGSV,3,1,11,04,48,283,45,08,17,209,40,09,20,315,41,16,67,303,44,1*68
$GPGSV,3,2,11,26,59,042,44,27,46,195,48,28,29,117,41,31,58,102,40,1*66
$GPGSV,3,3,11,41,00,000,42,42,00,000,41,50,00,000,42,1*57
$GLGSV,3,1,10,74,00,000,38,,00,000,47,66,00,000,36,76,14,286,52,1*7A
$GLGSV,3,2,10,75,52,340,37,65,39,269,47,84,34,064,43,83,05,021,22,1*7A
$GLGSV,3,3,10,85,33,128,38,72,21,207,48,1*7B
$GAGSV,3,1,09,04,27,171,40,05,32,309,48,06,49,191,45,09,62,233,45,7*75
$GAGSV,3,2,09,16,17,254,41,23,24,056,27,26,11,061,24,31,69,011,40,7*71
$GAGSV,3,3,09,33,13,108,37,7*45
$GQGSV,1,1,02,02,78,105,42,03,15,154,36,1*6A
$GBGSV,3,1,12,28,09,184,34,25,44,076,46,23,65,336,40,16,73,350,41,1*7A
$GBGSV,3,2,12,11,42,091,43,10,25,212,46,09,55,316,30,07,38,206,43,1*79
$GBGSV,3,3,12,06,71,336,37,03,42,205,43,02,28,237,40,01,41,152,38,1*71
$GNGSA,A,3,04,08,09,16,26,27,28,31,,,,,0.7,0.4,0.6,1*3F
$GNGSA,A,3,65,72,75,76,84,85,,,,,,,0.7,0.4,0.6,2*33
$GNGSA,A,3,04,05,06,09,16,23,26,31,33,,,,0.7,0.4,0.6,3*38
$GNGSA,A,3,01,03,06,07,09,10,11,12,16,23,25,28,0.7,0.4,0.6,4*32
$GNGSA,A,3,02,03,,,,,,,,,,,0.7,0.4,0.6,5*31
$GNVTG,,T,,M,0.0,N,0.0,K,A*3D
$GNDTM,P90,,0000.000025,S,00000.000001,W,0.982,W84*49
$GNRMC,065742.00,A,3727.034338,N,12639.122272,E,0.0,,191125,9.1,W,A,V*6F
$GNGNS,065742.00,3727.034338,N,12639.122272,E,AAAAAN,37,0.4,15.7,18.0,,,V*12
$GNGGA,065742.00,3727.034338,N,12639.122272,E,1,12,0.4,15.7,M,18.0,M,,*4A
$PSMSG,magcal=PASS,bluesky=0*00
$GPGSV,3,1,11,04,48,283,44,08,17,209,40,09,20,315,36,16,67,303,44,1*69
$GPGSV,3,2,11,26,59,042,47,27,46,195,48,28,29,117,42,31,58,102,41,1*67
$GPGSV,3,3,11,41,00,000,42,42,00,000,41,50,00,000,42,1*57
$GLGSV,3,1,10,74,00,000,43,,00,000,48,66,00,000,38,76,14,286,53,1*76
$GLGSV,3,2,10,75,52,340,31,65,39,269,48,84,34,064,46,83,05,021,22,1*76
$GLGSV,3,3,10,85,33,128,34,72,21,207,48,1*77
$GAGSV,2,1,08,04,27,171,39,05,32,309,47,06,49,191,45,09,62,233,45,7*74
$GAGSV,2,2,08,16,17,254,42,23,24,056,36,31,69,011,40,33,13,108,38,7*77
$GQGSV,1,1,02,02,78,105,39,03,15,154,36,1*66
$GBGSV,3,1,12,28,09,184,34,25,44,076,47,23,65,336,39,16,73,350,40,1*74
$GBGSV,3,2,12,11,42,091,44,10,25,212,47,09,55,316,30,07,38,206,43,1*7F
$GBGSV,3,3,12,06,71,336,37,03,42,205,44,02,28,237,40,01,41,152,39,1*77
$GNGSA,A,3,04,08,09,16,26,27,28,31,,,,,0.7,0.4,0.6,1*3F
$GNGSA,A,3,65,72,75,76,84,85,,,,,,,0.7,0.4,0.6,2*33
$GNGSA,A,3,04,05,06,09,16,23,26,31,33,,,,0.7,0.4,0.6,3*38
$GNGSA,A,3,01,03,06,07,09,10,11,12,16,23,25,28,0.7,0.4,0.6,4*32
$GNGSA,A,3,02,03,,,,,,,,,,,0.7,0.4,0.6,5*31
$GNVTG,,T,,M,0.0,N,0.0,K,A*3D
$GNDTM,P90,,0000.000025,S,00000.000001,W,0.982,W84*49
$GNRMC,065743.00,A,3727.034358,N,12639.122311,E,0.0,,191125,9.1,W,A,V*6C
$GNGNS,065743.00,3727.034358,N,12639.122311,E,AAAAAN,37,0.4,15.6,18.0,,,V*10
$GNGGA,065743.00,3727.034358,N,12639.122311,E,1,12,0.4,15.6,M,18.0,M,,*48
$PSMSG,magcal=PASS,bluesky=0*00
$GPGSV,3,1,11,04,48,283,43,08,17,209,42,09,20,315,39,16,67,303,43,1*64
$GPGSV,3,2,11,26,59,042,46,27,46,195,48,28,29,117,41,31,58,102,42,1*66
$GPGSV,3,3,11,41,00,000,42,42,00,000,42,50,00,000,42,1*54
$GLGSV,3,1,10,74,00,000,42,,00,000,47,66,00,000,35,76,14,286,52,1*74
$GLGSV,3,2,10,75,52,340,33,65,39,269,48,84,34,064,46,83,05,021,24,1*72
$GLGSV,3,3,10,85,33,128,36,72,21,207,48,1*75
$GAGSV,2,1,08,04,27,171,39,05,32,309,47,06,49,191,45,09,62,233,45,7*74
$GAGSV,2,2,08,16,17,254,41,23,24,056,34,31,69,011,39,33,13,108,38,7*78
$GQGSV,1,1,02,02,78,105,39,03,15,154,35,1*65
$GBGSV,4,1,13,28,09,184,35,25,44,076,48,23,65,336,41,16,73,350,39,1*7D
$GBGSV,4,2,13,12,14,040,23,11,42,091,43,10,25,212,46,09,55,316,26,1*74
$GBGSV,4,3,13,07,38,206,43,06,71,336,36,03,42,205,44,02,28,237,41,1*76
$GBGSV,4,4,13,01,41,152,38,1*4D
$GNGSA,A,3,04,08,09,16,26,27,28,31,,,,,0.8,0.5,0.6,1*31
$GNGSA,A,3,65,72,75,76,84,85,,,,,,,0.8,0.5,0.6,2*3D
$GNGSA,A,3,04,05,06,09,16,23,26,31,33,,,,0.8,0.5,0.6,3*36
$GNGSA,A,3,01,03,06,07,09,10,11,16,23,25,28,,0.8,0.5,0.6,4*3F
$GNGSA,A,3,02,03,,,,,,,,,,,0.8,0.5,0.6,5*3F
$GNVTG,,T,,M,0.0,N,0.0,K,A*3D
$GNDTM,P90,,0000.000025,S,00000.000001,W,0.982,W84*49
$GNRMC,065744.00,A,3727.034373,N,12639.122344,E,0.0,,191125,9.1,W,A,V*62
$GNGNS,065744.00,3727.034373,N,12639.122344,E,AAAAAN,36,0.5,15.6,18.0,,,V*1E
$GNGGA,065744.00,3727.034373,N,12639.122344,E,1,12,0.5,15.6,M,18.0,M,,*47
$PSMSG,magcal=PASS,bluesky=0*00
$GPGSV,3,1,11,04,48,283,44,08,17,209,41,09,20,315,36,16,67,303,44,1*68
$GPGSV,3,2,11,26,59,042,44,27,46,195,48,28,29,117,42,31,58,102,41,1*64
$GPGSV,3,3,11,41,00,000,42,42,00,000,42,50,00,000,41,1*57
$GLGSV,3,1,10,74,00,000,40,,00,000,49,66,00,000,32,76,14,286,53,1*7E
$GLGSV,3,2,10,75,52,340,35,65,39,269,48,84,34,064,44,83,05,021,27,1*75
$GLGSV,3,3,10,85,33,128,35,72,21,207,47,1*79
$GAGSV,2,1,08,04,27,171,39,05,32,309,47,06,49,191,45,09,62,233,45,7*74
$GAGSV,2,2,08,16,17,254,41,23,24,056,28,31,69,011,39,33,13,108,37,7*7A
$GQGSV,1,1,02,02,78,105,40,03,15,154,37,1*69
$GBGSV,3,1,12,28,09,184,34,25,44,076,48,23,65,336,38,16,73,350,40,1*7A
$GBGSV,3,2,12,11,42,091,44,10,25,212,45,09,55,316,31,07,38,206,44,1*7B
$GBGSV,3,3,12,06,71,336,38,03,42,205,44,02,28,237,40,01,41,152,38,1*79
$GNGSA,A,3,04,08,09,16,26,27,28,31,,,,,0.8,0.5,0.6,1*31
$GNGSA,A,3,65,72,75,76,84,85,,,,,,,0.8,0.5,0.6,2*3D
$GNGSA,A,3,04,05,06,09,16,23,31,33,,,,,0.8,0.5,0.6,3*32
$GNGSA,A,3,01,03,06,07,09,10,11,16,23,25,28,,0.8,0.5,0.6,4*3F
$GNGSA,A,3,02,03,,,,,,,,,,,0.8,0.5,0.6,5*3F
$GNVTG,,T,,M,0.0,N,0.0,K,A*3D
$GNDTM,P90,,0000.000025,S,00000.000001,W,0.982,W84*49
$GNRMC,065745.00,A,3727.034390,N,12639.122384,E,0.0,,191125,9.1,W,A,V*62
$GNGNS,065745.00,3727.034390,N,12639.122384,E,AAAAAN,35,0.5,15.5,18.0,,,V*1E
$GNGGA,065745.00,3727.034390,N,12639.122384,E,1,12,0.5,15.5,M,18.0,M,,*44
$PSMSG,magcal=PASS,bluesky=0*00
$GPGSV,3,1,11,04,48,283,41,08,17,209,39,09,20,315,39,16,67,303,45,1*6C
$GPGSV,3,2,11,26,59,042,43,27,46,195,48,28,29,117,41,31,58,102,41,1*60
$GPGSV,3,3,11,41,00,000,42,42,00,000,44,50,00,000,41,1*51
$GLGSV,3,1,10,74,00,000,39,,00,000,47,66,00,000,33,76,14,286,54,1*78
$GLGSV,3,2,10,75,52,340,35,65,39,269,47,84,34,064,45,83,05,021,29,1*75
$GLGSV,3,3,10,85,33,128,37,72,21,207,46,1*7A
$GAGSV,2,1,08,04,27,171,41,05,32,309,47,06,49,191,44,09,62,233,44,7*7B
$GAGSV,2,2,08,16,17,254,41,23,24,056,26,31,69,011,40,33,13,108,36,7*7B
$GQGSV,1,1,02,02,78,105,40,03,15,154,38,1*66
$GBGSV,3,1,12,28,09,184,36,25,44,076,47,23,65,336,37,16,73,350,37,1*78
$GBGSV,3,2,12,11,42,091,44,10,25,212,45,09,55,316,32,07,38,206,44,1*78
$GBGSV,3,3,12,06,71,336,37,03,42,205,43,02,28,237,41,01,41,152,39,1*71
$GNGSA,A,3,04,08,09,16,26,27,28,31,,,,,0.8,0.5,0.6,1*31
$GNGSA,A,3,65,72,75,76,84,85,,,,,,,0.8,0.5,0.6,2*3D
$GNGSA,A,3,04,05,06,09,16,23,31,33,,,,,0.8,0.5,0.6,3*32
$GNGSA,A,3,01,03,06,07,09,10,11,16,23,25,28,,0.8,0.5,0.6,4*3F
$GNGSA,A,3,02,03,,,,,,,,,,,0.8,0.5,0.6,5*3F
$GNVTG,,T,,M,0.0,N,0.0,K,A*3D
$GNDTM,P90,,0000.000025,S,00000.000001,W,0.982,W84*49
$GNRMC,065746.00,A,3727.034396,N,12639.122402,E,0.0,,191125,9.1,W,A,V*6E
$GNGNS,065746.00,3727.034396,N,12639.122402,E,AAAAAN,35,0.5,15.5,18.0,,,V*12
$GNGGA,065746.00,3727.034396,N,12639.122402,E,1,12,0.5,15.5,M,18.0,M,,*48
$PSMSG,magcal=PASS,bluesky=0*00
$GPGSV,3,1,12,04,48,283,43,08,17,209,39,09,20,315,37,16,67,303,46,1*60
$GPGSV,3,2,12,26,59,042,46,27,46,195,48,28,29,117,41,29,03,037,30,1*60
$GPGSV,3,3,12,31,58,102,42,41,00,000,42,42,00,000,42,50,00,000,40,1*6F
$GLGSV,3,1,10,74,00,000,40,,00,000,48,66,00,000,37,76,14,286,53,1*7A
$GLGSV,3,2,10,75,52,340,34,65,39,269,47,84,34,064,46,83,05,021,28,1*76
$GLGSV,3,3,10,85,33,128,34,72,21,207,47,1*78
$GAGSV,3,1,09,04,27,171,39,05,32,309,48,06,49,191,45,09,62,233,44,7*7A
$GAGSV,3,2,09,16,17,254,41,23,24,056,29,26,11,061,25,31,69,011,40,7*7E
$GAGSV,3,3,09,33,13,108,37,7*45
$GQGSV,1,1,02,02,78,105,39,03,15,154,36,1*66
$GBGSV,4,1,13,28,09,184,32,25,44,076,49,23,65,336,37,16,73,350,37,1*74
$GBGSV,4,2,13,12,14,040,26,11,42,091,44,10,25,212,45,09,55,316,30,1*72
$GBGSV,4,3,13,07,38,206,43,06,71,336,35,03,42,205,44,02,28,237,42,1*76
$GBGSV,4,4,13,01,41,152,38,1*4D
$GNGSA,A,3,04,08,09,16,26,27,28,31,,,,,0.7,0.4,0.6,1*3F
$GNGSA,A,3,65,72,75,76,84,85,,,,,,,0.7,0.4,0.6,2*33
$GNGSA,A,3,04,05,06,09,16,23,26,31,33,,,,0.7,0.4,0.6,3*38
$GNGSA,A,3,01,03,06,07,09,10,11,12,16,23,25,28,0.7,0.4,0.6,4*32
$GNGSA,A,3,02,03,,,,,,,,,,,0.7,0.4,0.6,5*31
$GNVTG,,T,,M,0.0,N,0.0,K,A*3D
$GNDTM,P90,,0000.000025,S,00000.000001,W,0.982,W84*49
$GNRMC,065747.00,A,3727.034398,N,12639.122412,E,0.0,,191125,9.1,W,A,V*60
$GNGNS,065747.00,3727.034398,N,12639.122412,E,AAAAAN,37,0.4,15.5,18.0,,,V*1F
$GNGGA,065747.00,3727.034398,N,12639.122412,E,1,12,0.4,15.5,M,18.0,M,,*47
$PSMSG,magcal=PASS,bluesky=0*00
$GPGSV,3,1,12,04,48,283,44,08,17,209,39,09,20,315,36,16,67,303,45,1*65
$GPGSV,3,2,12,26,59,042,45,27,46,195,48,28,29,117,42,29,03,037,31,1*61
$GPGSV,3,3,12,31,58,102,42,41,00,000,42,42,00,000,40,50,00,000,40,1*6D
$GLGSV,3,1,10,74,00,000,39,,00,000,48,66,00,000,34,76,14,286,54,1*70
$GLGSV,3,2,10,75,52,340,35,65,39,269,47,84,34,064,46,83,05,021,28,1*77
$GLGSV,3,3,10,85,33,128,35,72,21,207,46,1*78
$GAGSV,3,1,09,04,27,171,39,05,32,309,48,06,49,191,45,09,62,233,44,7*7A
$GAGSV,3,2,09,16,17,254,40,23,24,056,26,26,11,061,29,31,69,011,40,7*7C
$GAGSV,3,3,09,33,13,108,36,7*44
$GQGSV,1,1,02,02,78,105,39,03,15,154,37,1*67
$GBGSV,4,1,13,28,09,184,33,25,44,076,49,23,65,336,37,16,73,350,37,1*75
$GBGSV,4,2,13,12,14,040,27,11,42,091,44,10,25,212,45,09,55,316,29,1*7B
$GBGSV,4,3,13,07,38,206,44,06,71,336,35,03,42,205,45,02,28,237,42,1*70
$GBGSV,4,4,13,01,41,152,38,1*4D
$GNGSA,A,3,04,08,09,16,26,27,28,31,,,,,0.7,0.4,0.6,1*3F
$GNGSA,A,3,65,72,75,76,84,85,,,,,,,0.7,0.4,0.6,2*33
$GNGSA,A,3,04,05,06,09,16,23,26,31,33,,,,0.7,0.4,0.6,3*38
$GNGSA,A,3,01,03,06,07,09,10,11,12,16,23,25,28,0.7,0.4,0.6,4*32
$GNGSA,A,3,02,03,,,,,,,,,,,0.7,0.4,0.6,5*31
$GNVTG,,T,,M,0.0,N,0.0,K,A*3D
$GNDTM,P90,,0000.000025,S,00000.000001,W,0.982,W84*49
$GNRMC,065748.00,A,3727.034398,N,12639.122417,E,0.0,,191125,9.1,W,A,V*6A
$GNGNS,065748.00,3727.034398,N,12639.122417,E,AAAAAN,37,0.4,15.5,18.0,,,V*15
$GNGGA,065748.00,3727.034398,N,12639.122417,E,1,12,0.4,15.5,M,18.0,M,,*4D
$PSMSG,magcal=PASS,bluesky=0*00
$GPGSV,3,1,12,04,48,283,43,08,17,209,38,09,20,315,37,16,67,303,45,1*62
$GPGSV,3,2,12,26,59,042,45,27,46,195,48,28,29,117,42,29,03,037,32,1*62
$GPGSV,3,3,12,31,58,102,41,41,00,000,42,42,00,000,42,50,00,000,40,1*6C
$GLGSV,3,1,10,74,00,000,39,,00,000,48,66,00,000,32,76,14,286,54,1*76
$GLGSV,3,2,10,75,52,340,38,65,39,269,48,84,34,064,46,83,05,021,28,1*75
$GLGSV,3,3,10,85,33,128,36,72,21,207,46,1*7B
$GAGSV,2,1,08,04,27,171,41,05,32,309,48,06,49,191,45,09,62,233,45,7*74
$GAGSV,2,2,08,16,17,254,40,26,11,061,29,31,69,011,40,33,13,108,37,7*73
$GQGSV,1,1,02,02,78,105,40,03,15,154,36,1*68
$GBGSV,4,1,13,28,09,184,33,25,44,076,48,23,65,336,36,16,73,350,37,1*75
$GBGSV,4,2,13,12,14,040,27,11,42,091,43,10,25,212,45,09,55,316,32,1*76
$GBGSV,4,3,13,07,38,206,44,06,71,336,37,03,42,205,44,02,28,237,42,1*73
$GBGSV,4,4,13,01,41,152,39,1*4C
$GNGSA,A,3,04,08,09,16,26,27,28,31,,,,,0.7,0.4,0.6,1*3F
$GNGSA,A,3,65,72,75,76,84,85,,,,,,,0.7,0.4,0.6,2*33
$GNGSA,A,3,04,05,06,09,16,23,26,31,33,,,,0.7,0.4,0.6,3*38
$GNGSA,A,3,01,03,06,07,09,10,11,12,16,23,25,28,0.7,0.4,0.6,4*32
$GNGSA,A,3,02,03,,,,,,,,,,,0.7,0.4,0.6,5*31
$GNVTG,,T,,M,0.0,N,0.0,K,A*3D
$GNDTM,P90,,0000.000025,S,00000.000001,W,0.982,W84*49
$GNRMC,065749.00,A,3727.034397,N,12639.122419,E,0.0,,191125,9.1,W,A,V*6A
$GNGNS,065749.00,3727.034397,N,12639.122419,E,AAAAAN,37,0.4,15.5,18.0,,,V*15
$GNGGA,065749.00,3727.034397,N,12639.122419,E,1,12,0.4,15.5,M,18.0,M,,*4D
$PSMSG,magcal=PASS,bluesky=0*00
$GPGSV,3,1,12,04,48,283,43,08,17,209,38,09,20,315,37,16,67,303,45,1*62
$GPGSV,3,2,12,26,59,042,44,27,46,195,47,28,29,117,41,29,03,037,32,1*6F
$GPGSV,3,3,12,31,58,102,41,41,00,000,42,42,00,000,43,50,00,000,39,1*63
$GLGSV,3,1,10,74,00,000,39,,00,000,48,66,00,000,36,76,14,286,54,1*72
$GLGSV,3,2,10,75,52,340,40,65,39,269,48,84,34,064,45,83,05,021,21,1*70
$GLGSV,3,3,10,85,33,128,36,72,21,207,47,1*7A
$GAGSV,2,1,07,04,27,171,40,05,32,309,48,06,49,191,45,09,62,233,45,7*7A
$GAGSV,2,2,07,16,17,254,39,31,69,011,40,33,13,108,38,7*45
$GQGSV,1,1,02,02,78,105,40,03,15,154,37,1*69
$GBGSV,4,1,13,28,09,184,37,25,44,076,48,23,65,336,32,16,73,350,37,1*75
$GBGSV,4,2,13,12,14,040,27,11,42,091,43,10,25,212,45,09,55,316,33,1*77
$GBGSV,4,3,13,07,38,206,45,06,71,336,37,03,42,205,43,02,28,237,41,1*76
$GBGSV,4,4,13,01,41,152,41,1*43
$GNGSA,A,3,04,08,09,16,26,27,28,31,,,,,0.7,0.4,0.6,1*3F
$GNGSA,A,3,65,72,75,76,84,85,,,,,,,0.7,0.4,0.6,2*33
$GNGSA,A,3,04,05,06,09,16,23,26,31,33,,,,0.7,0.4,0.6,3*38
$GNGSA,A,3,01,03,06,07,09,10,11,12,16,23,25,28,0.7,0.4,0.6,4*32
$GNGSA,A,3,02,03,,,,,,,,,,,0.7,0.4,0.6,5*31
$GNVTG,,T,,M,0.0,N,0.0,K,A*3D
$GNDTM,P90,,0000.000025,S,00000.000001,W,0.982,W84*49
$GNRMC,065750.00,A,3727.034397,N,12639.122425,E,0.0,,191125,9.1,W,A,V*6D
$GNGNS,065750.00,3727.034397,N,12639.122425,E,AAAAAN,37,0.4,15.5,18.0,,,V*12
$GNGGA,065750.00,3727.034397,N,12639.122425,E,1,12,0.4,15.5,M,18.0,M,,*4A
$PSMSG,magcal=PASS,bluesky=0*00
$GPGSV,3,1,12,04,48,283,44,08,17,209,39,09,20,315,37,16,67,303,45,1*64
$GPGSV,3,2,12,26,59,042,44,27,46,195,47,28,29,117,42,29,03,037,31,1*6F
$GPGSV,3,3,12,31,58,102,43,41,00,000,42,42,00,000,44,50,00,000,39,1*66
$GLGSV,3,1,10,74,00,000,38,,00,000,48,66,00,000,35,76,14,286,54,1*70
$GLGSV,3,2,10,75,52,340,40,65,39,269,48,84,34,064,44,83,05,021,21,1*71
$GLGSV,3,3,10,85,33,128,35,72,21,207,47,1*79
$GAGSV,2,1,07,04,27,171,40,05,32,309,47,06,49,191,44,09,62,233,45,7*74
$GAGSV,2,2,07,16,17,254,38,31,69,011,39,33,13,108,37,7*45
$GQGSV,1,1,02,02,78,105,40,03,15,154,36,1*68
$GBGSV,4,1,13,28,09,184,37,25,44,076,47,23,65,336,32,16,73,350,38,1*75
$GBGSV,4,2,13,12,14,040,25,11,42,091,44,10,25,212,44,09,55,316,34,1*74
$GBGSV,4,3,13,07,38,206,44,06,71,336,38,03,42,205,43,02,28,237,41,1*78
$GBGSV,4,4,13,01,41,152,40,1*42
$GNGSA,A,3,04,08,09,16,26,27,28,31,,,,,0.7,0.4,0.6,1*3F
$GNGSA,A,3,65,72,75,76,84,85,,,,,,,0.7,0.4,0.6,2*33
$GNGSA,A,3,04,05,06,09,16,23,26,31,33,,,,0.7,0.4,0.6,3*38
$GNGSA,A,3,01,03,06,07,09,10,11,12,16,23,25,28,0.7,0.4,0.6,4*32
$GNGSA,A,3,02,03,,,,,,,,,,,0.7,0.4,0.6,5*31
$GNVTG,,T,,M,0.0,N,0.0,K,A*3D
$GNDTM,P90,,0000.000025,S,00000.000001,W,0.982,W84*49
$GNRMC,065751.00,A,3727.034399,N,12639.122431,E,0.0,,191125,9.1,W,A,V*67
$GNGNS,065751.00,3727.034399,N,12639.122431,E,AAAAAN,37,0.4,15.5,18.0,,,V*18
$GNGGA,065751.00,3727.034399,N,12639.122431,E,1,12,0.4,15.5,M,18.0,M,,*40
$PSMSG,magcal=PASS,bluesky=0*00
$GPGSV,3,1,12,04,48,283,44,08,17,209,39,09,20,315,32,16,67,303,44,1*60
$GPGSV,3,2,12,26,59,042,44,27,46,195,48,28,29,117,41,29,03,037,32,1*60
$GPGSV,3,3,12,31,58,102,44,41,00,000,42,42,00,000,43,50,00,000,40,1*68
$GLGSV,3,1,10,74,00,000,38,,00,000,50,66,00,000,35,76,14,286,53,1*7E
$GLGSV,3,2,10,75,52,340,38,65,39,269,47,84,34,064,44,83,05,021,21,1*71
$GLGSV,3,3,10,85,33,128,35,72,21,207,46,1*78
$GAGSV,2,1,08,04,27,171,39,05,32,309,46,06,49,191,45,09,62,233,44,7*74
$GAGSV,2,2,08,16,17,254,39,23,24,056,27,31,69,011,39,33,13,108,38,7*75
$GQGSV,1,1,02,02,78,105,40,03,15,154,36,1*68
$GBGSV,4,1,13,28,09,184,36,25,44,076,47,23,65,336,37,16,73,350,39,1*70
$GBGSV,4,2,13,12,14,040,27,11,42,091,44,10,25,212,45,09,55,316,32,1*71
$GBGSV,4,3,13,07,38,206,44,06,71,336,37,03,42,205,44,02,28,237,40,1*71
$GBGSV,4,4,13,01,41,152,40,1*42
$GNGSA,A,3,04,08,09,16,26,27,28,31,,,,,0.7,0.4,0.6,1*3F
$GNGSA,A,3,65,72,75,76,84,85,,,,,,,0.7,0.4,0.6,2*33
$GNGSA,A,3,04,05,06,09,16,23,26,31,33,,,,0.7,0.4,0.6,3*38
$GNGSA,A,3,01,03,06,07,09,10,11,12,16,23,25,28,0.7,0.4,0.6,4*32
$GNGSA,A,3,02,03,,,,,,,,,,,0.7,0.4,0.6,5*31
$GNVTG,,T,,M,0.0,N,0.0,K,A*3D
$GNDTM,P90,,0000.000025,S,00000.000001,W,0.982,W84*49
$GNRMC,065752.00,A,3727.034401,N,12639.122437,E,0.0,,191125,9.1,W,A,V*64
$GNGNS,065752.00,3727.034401,N,12639.122437,E,AAAAAN,37,0.4,15.5,18.0,,,V*1B
$GNGGA,065752.00,3727.034401,N,12639.122437,E,1,12,0.4,15.5,M,18.0,M,,*43
$PSMSG,magcal=PASS,bluesky=0*00
$GPGSV,3,1,11,04,48,283,46,08,17,209,39,09,20,315,36,16,67,303,45,1*64
$GPGSV,3,2,11,26,59,042,47,27,46,195,47,28,29,117,42,31,58,102,44,1*6D
$GPGSV,3,3,11,41,00,000,42,42,00,000,42,50,00,000,41,1*57
$GLGSV,3,1,10,74,00,000,41,,00,000,50,66,00,000,35,76,14,286,53,1*70
$GLGSV,3,2,10,75,52,340,30,65,39,269,47,84,34,064,47,83,05,021,24,1*7F
$GLGSV,3,3,10,85,33,128,33,72,21,207,46,1*7E
$GAGSV,2,1,08,04,27,171,36,05,32,309,47,06,49,191,44,09,62,233,46,7*79
$GAGSV,2,2,08,16,17,254,38,23,24,056,34,31,69,011,39,33,13,108,39,7*77
$GQGSV,1,1,02,02,78,105,41,03,15,154,35,1*6A
$GBGSV,4,1,13,28,09,184,35,25,44,076,49,23,65,336,36,16,73,350,38,1*7D
$GBGSV,4,2,13,12,14,040,28,11,42,091,43,10,25,212,47,09,55,316,26,1*7E
$GBGSV,4,3,13,07,38,206,43,06,71,336,35,03,42,205,43,02,28,237,41,1*72
$GBGSV,4,4,13,01,41,152,41,1*43
$GNGSA,A,3,04,08,09,16,26,27,28,31,,,,,0.7,0.4,0.6,1*3F
$GNGSA,A,3,65,72,75,76,84,85,,,,,,,0.7,0.4,0.6,2*33
$GNGSA,A,3,04,05,06,09,16,23,26,31,33,,,,0.7,0.4,0.6,3*38
$GNGSA,A,3,01,03,06,07,09,10,11,12,16,23,25,28,0.7,0.4,0.6,4*32
$GNGSA,A,3,02,03,,,,,,,,,,,0.7,0.4,0.6,5*31
$GNVTG,,T,,M,0.0,N,0.0,K,A*3D
$GNDTM,P90,,0000.000025,S,00000.000001,W,0.982,W84*49
$GNRMC,065753.00,A,3727.034403,N,12639.122440,E,0.0,,191125,9.1,W,A,V*67
$GNGNS,065753.00,3727.034403,N,12639.122440,E,AAAAAN,37,0.4,15.5,18.0,,,V*18
$GNGGA,065753.00,3727.034403,N,12639.122440,E,1,12,0.4,15.5,M,18.0,M,,*40
$PSMSG,magcal=PASS,bluesky=0*00
$GPGSV,3,1,11,04,48,283,46,08,17,209,41,09,20,315,36,16,67,303,44,1*6A
$GPGSV,3,2,11,26,59,042,47,27,46,195,48,28,29,117,42,31,58,102,44,1*62
$GPGSV,3,3,11,41,00,000,42,42,00,000,42,50,00,000,42,1*54
$GLGSV,3,1,10,74,00,000,41,,00,000,50,66,00,000,37,76,14,286,53,1*72
$GLGSV,3,2,10,75,52,340,34,65,39,269,47,84,34,064,46,83,05,021,24,1*7A
$GLGSV,3,3,10,85,33,128,30,72,21,207,46,1*7D
$GAGSV,2,1,08,04,27,171,36,05,32,309,47,06,49,191,45,09,62,233,46,7*78
$GAGSV,2,2,08,16,17,254,37,23,24,056,37,31,69,011,39,33,13,108,38,7*7A
$GQGSV,1,1,02,02,78,105,40,03,15,154,34,1*6A
$GBGSV,4,1,13,28,09,184,37,25,44,076,48,23,65,336,35,16,73,350,39,1*7C
$GBGSV,4,2,13,12,14,040,29,11,42,091,44,10,25,212,46,09,55,316,29,1*76
$GBGSV,4,3,13,07,38,206,43,06,71,336,36,03,42,205,43,02,28,237,41,1*71
$GBGSV,4,4,13,01,41,152,41,1*43
$GNGSA,A,3,04,08,09,16,26,27,28,31,,,,,0.7,0.4,0.6,1*3F
$GNGSA,A,3,65,72,75,76,84,85,,,,,,,0.7,0.4,0.6,2*33
$GNGSA,A,3,04,05,06,09,16,23,26,31,33,,,,0.7,0.4,0.6,3*38
$GNGSA,A,3,01,03,06,07,09,10,11,12,16,23,25,28,0.7,0.4,0.6,4*32
$GNGSA,A,3,02,03,,,,,,,,,,,0.7,0.4,0.6,5*31
$GNVTG,,T,,M,0.0,N,0.0,K,A*3D
$GNDTM,P90,,0000.000025,S,00000.000001,W,0.982,W84*49
$GNRMC,065754.00,A,3727.034405,N,12639.122443,E,0.0,,191125,9.1,W,A,V*65
$GNGNS,065754.00,3727.034405,N,12639.122443,E,AAAAAN,37,0.4,15.5,18.0,,,V*1A
$GNGGA,065754.00,3727.034405,N,12639.122443,E,1,12,0.4,15.5,M,18.0,M,,*42
$PSMSG,magcal=PASS,bluesky=0*00
$GPGSV,3,1,11,04,48,283,47,08,17,209,40,09,20,315,32,16,67,303,45,1*6F
$GPGSV,3,2,11,26,59,042,47,27,46,195,48,28,29,117,42,31,58,102,45,1*63
$GPGSV,3,3,11,41,00,000,42,42,00,000,43,50,00,000,40,1*57
$GLGSV,3,1,10,74,00,000,41,,00,000,50,66,00,000,35,76,14,286,52,1*71
$GLGSV,3,2,10,75,52,340,36,65,39,269,47,84,34,064,47,83,05,021,24,1*79
$GLGSV,3,3,10,85,33,128,32,72,21,207,48,1*71
$GAGSV,2,1,08,04,27,171,36,05,32,309,47,06,49,191,45,09,62,233,46,7*78
$GAGSV,2,2,08,16,17,254,36,23,24,056,35,31,69,011,40,33,13,108,38,7*77
$GQGSV,1,1,02,02,78,105,40,03,15,154,36,1*68
$GBGSV,4,1,14,28,09,184,35,25,44,076,49,23,65,336,36,20,13,314,43,1*75
$GBGSV,4,2,14,16,73,350,39,12,14,040,26,11,42,091,42,10,25,212,46,1*71
$GBGSV,4,3,14,09,55,316,31,07,38,206,42,06,71,336,35,03,42,205,43,1*70
$GBGSV,4,4,14,02,28,237,41,01,41,152,40,1*7E
$GNGSA,A,3,04,08,09,16,26,27,28,31,,,,,0.8,0.5,0.6,1*31
$GNGSA,A,3,65,72,75,76,84,85,,,,,,,0.8,0.5,0.6,2*3D
$GNGSA,A,3,04,05,06,09,16,23,31,33,,,,,0.8,0.5,0.6,3*32
$GNGSA,A,3,01,03,06,07,09,10,11,12,16,23,25,28,0.8,0.5,0.6,4*3C
$GNGSA,A,3,02,03,,,,,,,,,,,0.8,0.5,0.6,5*3F
$GNVTG,,T,,M,0.0,N,0.0,K,A*3D
$GNDTM,P90,,0000.000025,S,00000.000001,W,0.982,W84*49
$GNRMC,065755.00,A,3727.034406,N,12639.122444,E,0.0,,191125,9.1,W,A,V*60
$GNGNS,065755.00,3727.034406,N,12639.122444,E,AAAAAN,36,0.5,15.5,18.0,,,V*1F
$GNGGA,065755.00,3727.034406,N,12639.122444,E,1,12,0.5,15.5,M,18.0,M,,*46
$PSMSG,magcal=PASS,bluesky=0*00
$GPGSV,3,1,12,04,48,283,46,08,17,209,42,09,20,315,33,16,67,303,45,1*6E
$GPGSV,3,2,12,18,18,084,29,26,59,042,44,27,46,195,48,28,29,117,42,1*69
$GPGSV,3,3,12,31,58,102,45,41,00,000,42,42,00,000,41,50,00,000,41,1*6A
$GLGSV,3,1,10,74,00,000,36,,00,000,49,66,00,000,37,76,14,286,53,1*7A
$GLGSV,3,2,10,75,52,340,44,65,39,269,48,84,34,064,44,83,05,021,24,1*70
$GLGSV,3,3,10,85,33,128,33,72,21,207,48,1*70
$GAGSV,2,1,08,04,27,171,39,05,32,309,45,06,49,191,45,09,62,233,44,7*77
$GAGSV,2,2,08,16,17,254,35,23,24,056,26,31,69,011,38,33,13,108,38,7*79
$GQGSV,1,1,02,02,78,105,41,03,15,154,36,1*69
$GBGSV,4,1,14,28,09,184,37,25,44,076,47,23,65,336,36,20,13,314,40,1*7A
$GBGSV,4,2,14,16,73,350,41,12,14,040,26,11,42,091,43,10,25,212,45,1*7C
$GBGSV,4,3,14,09,55,316,35,07,38,206,44,06,71,336,39,03,42,205,43,1*7E
$GBGSV,4,4,14,02,28,237,39,01,41,152,38,1*7E
$GNGSA,A,3,04,08,09,16,18,26,27,28,31,,,,0.7,0.5,0.6,1*37
$GNGSA,A,3,65,72,75,76,84,85,,,,,,,0.7,0.5,0.6,2*32
$GNGSA,A,3,04,05,06,09,16,23,31,33,,,,,0.7,0.5,0.6,3*3D
$GNGSA,A,3,01,03,06,07,09,10,11,12,16,23,25,28,0.7,0.5,0.6,4*33
$GNGSA,A,3,02,03,,,,,,,,,,,0.7,0.5,0.6,5*30
$GNVTG,,T,,M,0.0,N,0.0,K,A*3D
$GNDTM,P90,,0000.000025,S,00000.000001,W,0.982,W84*49
$GNRMC,065756.00,A,3727.034408,N,12639.122444,E,0.0,,191125,9.1,W,A,V*6D
$GNGNS,065756.00,3727.034408,N,12639.122444,E,AAAAAN,37,0.5,15.5,18.0,,,V*13
$GNGGA,065756.00,3727.034408,N,12639.122444,E,1,12,0.5,15.5,M,18.0,M,,*4B
$PSMSG,magcal=PASS,bluesky=0*00
$GPGSV,4,1,13,04,48,283,43,08,17,209,40,09,20,315,35,16,67,303,44,1*68
$GPGSV,4,2,13,18,18,084,29,26,59,042,43,27,46,195,47,28,29,117,42,1*67
$GPGSV,4,3,13,29,03,037,30,31,58,102,44,41,00,000,42,42,00,000,43,1*60
$GPGSV,4,4,13,50,00,000,40,1*57
$GLGSV,3,1,10,74,00,000,35,,00,000,46,66,00,000,39,76,14,286,53,1*78
$GLGSV,3,2,10,75,52,340,43,65,39,269,47,84,34,064,42,83,05,021,24,1*7E
$GLGSV,3,3,10,85,33,128,33,72,21,207,46,1*7E
$GAGSV,2,1,08,04,27,171,37,05,32,309,46,06,49,191,44,09,62,233,44,7*7B
$GAGSV,2,2,08,16,17,254,33,23,24,056,26,31,69,011,39,33,13,108,40,7*71
$GQGSV,1,1,02,02,78,105,41,03,15,154,35,1*6A
$GBGSV,4,1,14,28,09,184,39,25,44,076,44,23,65,336,38,20,13,314,42,1*7B
$GBGSV,4,2,14,16,73,350,40,12,14,040,24,11,42,091,42,10,25,212,46,1*7D
$GBGSV,4,3,14,09,55,316,37,07,38,206,44,06,71,336,39,03,42,205,42,1*7D
$GBGSV,4,4,14,02,28,237,40,01,41,152,41,1*7E
$GNGSA,A,3,04,08,09,16,18,26,27,28,31,,,,0.7,0.5,0.6,1*37
$GNGSA,A,3,65,72,75,76,84,85,,,,,,,0.7,0.5,0.6,2*32
$GNGSA,A,3,04,05,06,09,16,23,31,33,,,,,0.7,0.5,0.6,3*3D
$GNGSA,A,3,01,03,06,07,09,10,11,12,16,23,25,28,0.7,0.5,0.6,4*33
$GNGSA,A,3,02,03,,,,,,,,,,,0.7,0.5,0.6,5*30
$GNVTG,,T,,M,0.0,N,0.0,K,A*3D
$GNDTM,P90,,0000.000025,S,00000.000001,W,0.982,W84*49
$GNRMC,065757.00,A,3727.034409,N,12639.122446,E,0.0,,191125,9.1,W,A,V*6F
$GNGNS,065757.00,3727.034409,N,12639.122446,E,AAAAAN,37,0.5,15.6,18.0,,,V*12
$GNGGA,065757.00,3727.034409,N,12639.122446,E,1,12,0.5,15.6,M,18.0,M,,*4A
$PSMSG,magcal=PASS,bluesky=0*00
$GPGSV,4,1,13,04,48,283,42,08,17,209,43,09,20,315,40,16,67,303,46,1*6A
$GPGSV,4,2,13,18,18,084,27,26,59,042,42,27,46,195,48,28,29,117,42,1*67
$GPGSV,4,3,13,29,03,037,28,31,58,102,45,41,00,000,42,42,00,000,44,1*6F
$GPGSV,4,4,13,50,00,000,43,1*54
$GLGSV,3,1,10,74,00,000,34,,00,000,46,66,00,000,42,76,14,286,53,1*75
$GLGSV,3,2,10,75,52,340,41,65,39,269,48,84,34,064,42,83,05,021,24,1*73
$GLGSV,3,3,10,85,33,128,28,72,21,207,47,1*75
$GAGSV,2,1,07,04,27,171,40,05,32,309,47,06,49,191,45,09,62,233,46,7*76
$GAGSV,2,2,07,16,17,254,33,31,69,011,38,33,13,108,39,7*41
$GQGSV,1,1,02,02,78,105,41,03,15,154,32,1*6D
$GBGSV,4,1,14,28,09,184,38,25,44,076,43,23,65,336,41,20,13,314,41,1*70
$GBGSV,4,2,14,16,73,350,40,12,14,040,24,11,42,091,43,10,25,212,47,1*7D
$GBGSV,4,3,14,09,55,316,39,07,38,206,43,06,71,336,39,03,42,205,43,1*75
$GBGSV,4,4,14,02,28,237,40,01,41,152,41,1*7E
$GNGSA,A,3,04,08,09,16,18,26,27,28,31,,,,0.7,0.5,0.6,1*37
$GNGSA,A,3,65,72,75,76,84,85,,,,,,,0.7,0.5,0.6,2*32
$GNGSA,A,3,04,05,06,09,16,23,31,33,,,,,0.7,0.5,0.6,3*3D
$GNGSA,A,3,01,03,06,07,09,10,11,12,16,23,25,28,0.7,0.5,0.6,4*33
$GNGSA,A,3,02,03,,,,,,,,,,,0.7,0.5,0.6,5*30
$GNVTG,,T,,M,0.0,N,0.0,K,A*3D
$GNDTM,P90,,0000.000025,S,00000.000001,W,0.982,W84*49
$GNRMC,065758.00,A,3727.034409,N,12639.122444,E,0.0,,191125,9.1,W,A,V*62
$GNGNS,065758.00,3727.034409,N,12639.122444,E,AAAAAN,37,0.5,15.6,18.0,,,V*1F
$GNGGA,065758.00,3727.034409,N,12639.122444,E,1,12,0.5,15.6,M,18.0,M,,*47
$PSMSG,magcal=PASS,bluesky=0*00
$GPGSV,4,1,13,04,48,283,42,08,17,209,42,09,20,315,43,16,67,303,46,1*68
$GPGSV,4,2,13,18,18,084,26,26,59,042,40,27,46,195,48,28,29,117,42,1*64
$GPGSV,4,3,13,29,03,037,30,31,58,102,44,41,00,000,42,42,00,000,39,1*6D
$GPGSV,4,4,13,50,00,000,43,1*54
$GLGSV,3,1,10,74,00,000,34,,00,000,48,66,00,000,45,76,14,286,49,1*77
$GLGSV,3,2,10,75,52,340,43,65,39,269,46,84,34,064,38,83,05,021,20,1*76
$GLGSV,3,3,10,85,33,128,37,72,21,207,48,1*74
$GAGSV,2,1,07,04,27,171,39,05,32,309,44,06,49,191,46,09,62,233,47,7*79
$GAGSV,2,2,07,16,17,254,36,31,69,011,38,33,13,108,40,7*4A
$GQGSV,1,1,02,02,78,105,39,03,15,154,30,1*60
$GBGSV,4,1,14,28,09,184,35,25,44,076,43,23,65,336,40,20,13,314,39,1*73
$GBGSV,4,2,14,16,73,350,35,12,14,040,22,11,42,091,42,10,25,212,47,1*78
$GBGSV,4,3,14,09,55,316,41,07,38,206,41,06,71,336,38,03,42,205,42,1*78
$GBGSV,4,4,14,02,28,237,40,01,41,152,36,1*7E
$GNGSA,A,3,04,08,09,16,18,26,27,28,31,,,,0.7,0.5,0.6,1*37
$GNGSA,A,3,65,72,75,76,84,85,,,,,,,0.7,0.5,0.6,2*32
$GNGSA,A,3,04,05,06,09,16,23,31,33,,,,,0.7,0.5,0.6,3*3D
$GNGSA,A,3,01,03,06,07,09,10,11,12,16,23,25,28,0.7,0.5,0.6,4*33
$GNGSA,A,3,02,03,,,,,,,,,,,0.7,0.5,0.6,5*30
$GNVTG,,T,,M,0.0,N,0.0,K,A*3D
$GNDTM,P90,,0000.000025,S,00000.000001,W,0.982,W84*49
$GNRMC,065759.00,A,3727.034409,N,12639.122441,E,0.0,,191125,9.1,W,A,V*66
$GNGNS,065759.00,3727.034409,N,12639.122441,E,AAAAAN,37,0.5,15.6,18.0,,,V*1B
$GNGGA,065759.00,3727.034409,N,12639.122441,E,1,12,0.5,15.6,M,18.0,M,,*43
$PSMSG,magcal=PASS,bluesky=0*00
$GPGSV,4,1,13,04,48,283,37,08,17,209,39,09,20,315,41,16,67,303,42,1*60
$GPGSV,4,2,13,18,18,084,24,26,59,042,37,27,46,195,46,28,29,117,39,1*64
$GPGSV,4,3,13,29,03,037,30,31,58,102,43,41,00,000,42,42,00,000,35,1*66
$GPGSV,4,4,13,50,00,000,41,1*56
$GLGSV,3,1,10,74,00,000,33,,00,000,46,66,00,000,42,76,14,286,47,1*77
$GLGSV,3,2,10,75,52,340,39,65,39,269,44,84,34,064,37,83,05,021,20,1*76
$GLGSV,3,3,10,85,33,128,37,72,21,207,45,1*79
$GAGSV,2,1,07,04,27,171,37,05,32,309,42,06,49,191,43,09,62,233,45,7*76
$GAGSV,2,2,07,16,17,254,34,31,69,011,35,33,13,108,39,7*4B
$GQGSV,1,1,01,02,78,105,35,1*5B
$GBGSV,4,1,14,28,09,184,33,25,44,076,40,23,65,336,38,20,13,314,36,1*76
$GBGSV,4,2,14,16,73,350,29,12,14,040,24,11,42,091,39,10,25,212,45,1*7D
$GBGSV,4,3,14,09,55,316,40,07,38,206,38,06,71,336,32,03,42,205,39,1*71
$GBGSV,4,4,14,02,28,237,38,01,41,152,36,1*71
$GNGSA,A,3,04,08,09,16,18,26,27,28,31,,,,0.7,0.5,0.6,1*37
$GNGSA,A,3,65,72,75,76,84,85,,,,,,,0.7,0.5,0.6,2*32
$GNGSA,A,3,04,05,06,09,16,23,31,33,,,,,0.7,0.5,0.6,3*3D
$GNGSA,A,3,01,03,06,07,09,10,11,12,16,23,25,28,0.7,0.5,0.6,4*33
$GNGSA,A,3,02,03,,,,,,,,,,,0.7,0.5,0.6,5*30
$GNVTG,,T,,M,0.0,N,0.0,K,A*3D
$GNDTM,P90,,0000.000025,S,00000.000001,W,0.982,W84*49
$GNRMC,065800.00,A,3727.034409,N,12639.122449,E,0.0,,191125,9.1,W,A,V*6D
$GNGNS,065800.00,3727.034409,N,12639.122449,E,AAAAAN,37,0.5,15.6,18.0,,,V*10
$GNGGA,065800.00,3727.034409,N,12639.122449,E,1,12,0.5,15.6,M,18.0,M,,*48
$PSMSG,magcal=PASS,bluesky=0*00
