$GPGSV,3,1,12,04,48,278,44,08,20,210,35,09,22,312,42,16,68,314,41,1*6A
$GPGSV,3,2,12,18,19,080,42,26,56,046,44,27,50,196,40,28,26,120,40,1*6F
$GPGSV,3,3,12,31,55,107,48,41,00,000,37,42,00,000,40,50,00,000,43,1*6E
$GLGSV,3,1,09,74,32,061,41,66,00,000,41,76,16,289,42,75,53,347,45,1*70
$GLGSV,3,2,09,65,37,264,38,84,33,060,38,83,02,018,24,85,36,125,52,1*72
$GLGSV,3,3,09,72,17,206,36,1*43
$GAGSV,3,1,09,04,25,171,33,05,34,307,45,06,46,190,43,09,60,228,45,7*76
$GAGSV,3,2,09,16,19,257,35,23,22,058,46,26,11,058,27,31,67,016,39,7*7E
$GAGSV,3,3,09,33,15,106,47,7*4A
$GQGSV,1,1,01,02,78,101,42,1*5F
$GBGSV,4,1,16,28,11,183,36,25,42,079,49,23,67,343,43,20,14,311,43,1*73
$GBGSV,4,2,16,16,74,351,42,12,12,038,27,11,43,087,48,10,26,213,38,1*76
$GBGSV,4,3,16,09,56,317,42,07,39,208,37,06,72,336,43,05,09,257,27,1*77
$GBGSV,4,4,16,04,31,134,43,03,42,205,38,02,28,237,32,01,41,152,34,1*75
$GNGSA,A,3,04,08,09,16,18,26,27,28,31,,,,0.7,0.4,0.6,1*36
$GNGSA,A,3,65,72,74,75,76,84,85,,,,,,0.7,0.4,0.6,2*30
$GNGSA,A,3,04,05,06,09,16,23,26,31,33,,,,0.7,0.4,0.6,3*38
$GNGSA,A,3,01,03,06,07,09,10,11,12,16,20,23,25,0.7,0.4,0.6,4*3A
$GNGSA,A,3,02,03,,,,,,,,,,,0.7,0.4,0.6,5*31
$GNVTG,,T,,M,0.0,N,0.0,K,A*3D
$GNDTM,P90,,0000.000025,S,00000.000001,W,0.982,W84*49
$GNRMC,070441.00,A,3727.022049,N,12639.105447,E,0.0,,191125,9.1,W,A,V*6C
$GNGNS,070441.00,3727.022049,N,12639.105447,E,AAAAAN,40,0.4,12.4,18.0,,,V*15
$GNGGA,070441.00,3727.022049,N,12639.105447,E,1,12,0.4,12.4,M,18.0,M,,*4D
$PSMSG,magcal=PASS,bluesky=0*00
$GPGSV,3,1,12,04,48,278,43,08,20,210,35,09,22,312,43,16,68,314,43,1*6E
$GPGSV,3,2,12,18,19,080,41,26,56,046,43,27,50,196,42,28,26,120,44,1*6D
$GPGSV,3,3,12,31,55,107,48,41,00,000,37,42,00,000,40,50,00,000,43,1*6E
$GLGSV,3,1,09,74,32,061,43,66,00,000,39,76,16,289,43,75,53,347,46,1*7F
$GLGSV,3,2,09,65,37,264,41,84,33,060,40,83,02,018,24,85,36,125,52,1*73
$GLGSV,3,3,09,72,17,206,37,1*42
$GAGSV,3,1,09,04,25,171,31,05,34,307,43,06,46,190,43,09,60,228,44,7*73
$GAGSV,3,2,09,16,19,257,35,23,22,058,45,26,11,058,25,31,67,016,39,7*7F
$GAGSV,3,3,09,33,15,106,46,7*4B
$GQGSV,1,1,01,02,78,101,43,1*5E
$GBGSV,4,1,15,28,11,183,38,25,42,079,49,23,67,343,44,20,14,311,43,1*79
$GBGSV,4,2,15,16,74,351,41,12,12,038,26,11,43,087,49,10,26,213,38,1*76
$GBGSV,4,3,15,09,56,317,42,07,39,208,34,06,72,336,43,04,31,134,45,1*7F
$GBGSV,4,4,15,03,42,205,36,02,28,237,33,01,41,152,37,1*4D
$GNGSA,A,3,04,08,09,16,18,26,27,28,31,,,,0.7,0.4,0.6,1*36
$GNGSA,A,3,65,72,74,75,76,84,85,,,,,,0.7,0.4,0.6,2*30
$GNGSA,A,3,04,05,06,09,16,23,26,31,33,,,,0.7,0.4,0.6,3*38
$GNGSA,A,3,01,03,06,07,09,10,11,12,16,20,23,25,0.7,0.4,0.6,4*3A
$GNGSA,A,3,02,03,,,,,,,,,,,0.7,0.4,0.6,5*31
$GNVTG,,T,,M,0.0,N,0.0,K,A*3D
$GNDTM,P90,,0000.000025,S,00000.000001,W,0.982,W84*49
$GNRMC,070442.00,A,3727.022036,N,12639.105041,E,0.0,,191125,9.1,W,A,V*65
$GNGNS,070442.00,3727.022036,N,12639.105041,E,AAAAAN,40,0.4,12.2,18.0,,,V*1A
$GNGGA,070442.00,3727.022036,N,12639.105041,E,1,12,0.4,12.2,M,18.0,M,,*42
$PSMSG,magcal=PASS,bluesky=0*00
$GPGSV,3,1,12,04,48,278,44,08,20,210,33,09,22,312,41,16,68,314,43,1*6D
$GPGSV,3,2,12,18,19,080,40,26,56,046,45,27,50,196,40,28,26,120,48,1*64
$GPGSV,3,3,12,31,55,107,48,41,00,000,37,42,00,000,40,50,00,000,39,1*63
$GLGSV,3,1,09,74,32,061,43,66,00,000,41,76,16,289,42,75,53,347,47,1*70
$GLGSV,3,2,09,65,37,264,40,84,33,060,39,83,02,018,23,85,36,125,52,1*7B
$GLGSV,3,3,09,72,17,206,39,1*4C
$GAGSV,3,1,09,04,25,171,41,05,34,307,44,06,46,190,41,09,60,228,41,7*74
$GAGSV,3,2,09,16,19,257,37,23,22,058,45,26,11,058,24,31,67,016,39,7*7C
$GAGSV,3,3,09,33,15,106,47,7*4A
$GQGSV,1,1,01,02,78,101,45,1*58
$GBGSV,4,1,13,28,11,183,32,25,42,079,51,23,67,343,45,20,14,311,43,1*7D
$GBGSV,4,2,13,16,74,351,39,11,43,087,49,10,26,213,39,09,56,317,42,1*78
$GBGSV,4,3,13,07,39,208,34,06,72,336,44,04,31,134,47,02,28,237,32,1*7A
$GBGSV,4,4,13,01,41,152,42,1*40
$GNGSA,A,3,04,08,09,16,18,26,27,28,31,,,,0.7,0.4,0.6,1*36
$GNGSA,A,3,65,72,74,75,76,84,85,,,,,,0.7,0.4,0.6,2*30
$GNGSA,A,3,04,05,06,09,16,23,26,31,33,,,,0.7,0.4,0.6,3*38
$GNGSA,A,3,01,03,06,07,09,10,11,12,16,20,23,25,0.7,0.4,0.6,4*3A
$GNGSA,A,3,02,03,,,,,,,,,,,0.7,0.4,0.6,5*31
$GNVTG,,T,,M,0.0,N,0.0,K,A*3D
$GNDTM,P90,,0000.000025,S,00000.000001,W,0.982,W84*49
$GNRMC,070443.00,A,3727.022090,N,12639.104761,E,0.0,,191125,9.1,W,A,V*6C
$GNGNS,070443.00,3727.022090,N,12639.104761,E,AAAAAN,40,0.4,12.3,18.0,,,V*12
$GNGGA,070443.00,3727.022090,N,12639.104761,E,1,12,0.4,12.3,M,18.0,M,,*4A
$PSMSG,magcal=PASS,bluesky=0*00
$GPGSV,3,1,12,04,48,278,46,08,20,210,36,09,22,312,42,16,68,314,42,1*68
$GPGSV,3,2,12,18,19,080,45,26,56,046,47,27,50,196,40,28,26,120,47,1*6C
$GPGSV,3,3,12,31,55,107,50,41,00,000,37,42,00,000,40,50,00,000,40,1*64
$GLGSV,3,1,09,74,32,061,44,66,00,000,42,76,16,289,42,75,53,347,47,1*74
$GLGSV,3,2,09,65,37,264,44,84,33,060,38,83,02,018,25,85,36,125,53,1*79
$GLGSV,3,3,09,72,17,206,42,1*40
$GAGSV,2,1,08,04,25,171,42,05,34,307,41,06,46,190,39,09,60,228,44,7*78
$GAGSV,2,2,08,16,19,257,36,23,22,058,48,31,67,016,41,33,15,106,48,7*7F
$GQGSV,1,1,01,02,78,101,45,1*58
$GBGSV,4,1,13,28,11,183,34,25,42,079,49,23,67,343,45,20,14,311,44,1*75
$GBGSV,4,2,13,16,74,351,37,11,43,087,48,10,26,213,39,09,56,317,41,1*74
$GBGSV,4,3,13,07,39,208,38,06,72,336,43,04,31,134,48,02,28,237,32,1*7E
$GBGSV,4,4,13,01,41,152,42,1*40
$GNGSA,A,3,04,08,09,16,18,26,27,28,31,,,,0.7,0.4,0.6,1*36
$GNGSA,A,3,65,72,74,75,76,84,85,,,,,,0.7,0.4,0.6,2*30
$GNGSA,A,3,04,05,06,09,16,23,26,31,33,,,,0.7,0.4,0.6,3*38
$GNGSA,A,3,01,03,06,07,09,10,11,12,16,20,23,25,0.7,0.4,0.6,4*3A
$GNGSA,A,3,02,,,,,,,,,,,,0.7,0.4,0.6,5*32
$GNVTG,,T,,M,0.0,N,0.0,K,A*3D
$GNDTM,P90,,0000.000025,S,00000.000001,W,0.982,W84*49
$GNRMC,070444.00,A,3727.022195,N,12639.104581,E,0.0,,191125,9.1,W,A,V*63
$GNGNS,070444.00,3727.022195,N,12639.104581,E,AAAAAN,39,0.4,12.2,18.0,,,V*12
$GNGGA,070444.00,3727.022195,N,12639.104581,E,1,12,0.4,12.2,M,18.0,M,,*44
$PSMSG,magcal=PASS,bluesky=0*00
$GPGSV,3,1,12,04,48,278,44,08,20,210,32,09,22,312,42,16,68,314,43,1*6F
$GPGSV,3,2,12,18,19,080,42,26,56,046,45,27,50,196,38,28,26,120,48,1*69
$GPGSV,3,3,12,31,55,107,48,41,00,000,37,42,00,000,40,50,00,000,40,1*6D
$GLGSV,3,1,09,74,32,061,41,66,00,000,41,76,16,289,42,75,53,347,47,1*72
$GLGSV,3,2,09,65,37,264,43,84,33,060,39,83,02,018,23,85,36,125,52,1*78
$GLGSV,3,3,09,72,17,206,43,1*41
$GAGSV,2,1,08,04,25,171,42,05,34,307,42,06,46,190,39,09,60,228,43,7*7C
$GAGSV,2,2,08,16,19,257,38,23,22,058,45,31,67,016,41,33,15,106,47,7*73
$GQGSV,1,1,01,02,78,101,45,1*58
$GBGSV,4,1,13,28,11,183,34,25,42,079,51,23,67,343,44,20,14,311,43,1*7A
$GBGSV,4,2,13,16,74,351,37,11,43,087,48,10,26,213,39,09,56,317,41,1*74
$GBGSV,4,3,13,07,39,208,36,06,72,336,42,04,31,134,48,02,28,237,33,1*70
$GBGSV,4,4,13,01,41,152,43,1*41
$GNGSA,A,3,04,08,09,16,18,26,27,28,31,,,,0.7,0.4,0.6,1*36
$GNGSA,A,3,65,72,74,75,76,84,85,,,,,,0.7,0.4,0.6,2*30
$GNGSA,A,3,04,05,06,09,16,23,26,31,33,,,,0.7,0.4,0.6,3*38
$GNGSA,A,3,01,03,06,07,09,10,11,12,16,20,23,25,0.7,0.4,0.6,4*3A
$GNGSA,A,3,02,,,,,,,,,,,,0.7,0.4,0.6,5*32
$GNVTG,,T,,M,0.0,N,0.0,K,A*3D
$GNDTM,P90,,0000.000025,S,00000.000001,W,0.982,W84*49
$GNRMC,070445.00,A,3727.022312,N,12639.104378,E,0.0,,191125,9.1,W,A,V*6F
$GNGNS,070445.00,3727.022312,N,12639.104378,E,AAAAAN,39,0.4,11.8,18.0,,,V*17
$GNGGA,070445.00,3727.022312,N,12639.104378,E,1,12,0.4,11.8,M,18.0,M,,*41
$PSMSG,magcal=PASS,bluesky=0*00
$GPGSV,3,1,12,04,48,278,44,08,20,210,31,09,22,312,43,16,68,314,43,1*6D
$GPGSV,3,2,12,18,19,080,44,26,56,046,46,27,50,196,39,28,26,120,48,1*6D
$GPGSV,3,3,12,31,55,107,47,41,00,000,37,42,00,000,40,50,00,000,40,1*62
$GLGSV,3,1,09,74,32,061,41,66,00,000,40,76,16,289,41,75,53,347,48,1*7F
$GLGSV,3,2,09,65,37,264,45,84,33,060,39,83,02,018,25,85,36,125,52,1*78
$GLGSV,3,3,09,72,17,206,42,1*40
$GAGSV,2,1,08,04,25,171,42,05,34,307,43,06,46,190,40,09,60,228,43,7*73
$GAGSV,2,2,08,16,19,257,36,23,22,058,46,31,67,016,41,33,15,106,48,7*71
$GQGSV,1,1,01,02,78,101,46,1*5B
$GBGSV,4,1,13,28,11,183,35,25,42,079,50,23,67,343,45,20,14,311,43,1*7B
$GBGSV,4,2,13,16,74,351,39,11,43,087,48,10,26,213,40,09,56,317,42,1*77
$GBGSV,4,3,13,07,39,208,36,06,72,336,42,04,31,134,47,02,28,237,33,1*7F
$GBGSV,4,4,13,01,41,152,43,1*41
$GNGSA,A,3,04,08,09,16,18,26,27,28,31,,,,0.7,0.4,0.6,1*36
$GNGSA,A,3,65,72,74,75,76,84,85,,,,,,0.7,0.4,0.6,2*30
$GNGSA,A,3,04,05,06,09,16,23,26,31,33,,,,0.7,0.4,0.6,3*38
$GNGSA,A,3,01,03,06,07,09,10,11,12,16,20,23,25,0.7,0.4,0.6,4*3A
$GNGSA,A,3,02,,,,,,,,,,,,0.7,0.4,0.6,5*32
$GNVTG,,T,,M,0.0,N,0.0,K,A*3D
$GNDTM,P90,,0000.000025,S,00000.000001,W,0.982,W84*49
$GNRMC,070446.00,A,3727.022424,N,12639.103925,E,0.0,,191125,9.1,W,A,V*6B
$GNGNS,070446.00,3727.022424,N,12639.103925,E,AAAAAN,39,0.4,10.9,18.0,,,V*13
$GNGGA,070446.00,3727.022424,N,12639.103925,E,1,12,0.4,10.9,M,18.0,M,,*45
$PSMSG,magcal=PASS,bluesky=0*00
$GPGSV,3,1,12,04,48,278,43,08,20,210,39,09,22,312,42,16,68,314,43,1*63
$GPGSV,3,2,12,18,19,080,45,26,56,046,48,27,50,196,40,28,26,120,48,1*6C
$GPGSV,3,3,12,31,55,107,48,41,00,000,40,42,00,000,40,50,00,000,39,1*63
$GLGSV,3,1,09,74,32,061,43,66,00,000,41,76,16,289,41,75,53,347,47,1*73
$GLGSV,3,2,09,65,37,264,47,84,33,060,39,83,02,018,25,85,36,125,53,1*7B
$GLGSV,3,3,09,72,17,206,41,1*43
$GAGSV,2,1,08,04,25,171,44,05,34,307,43,06,46,190,40,09,60,228,46,7*70
$GAGSV,2,2,08,16,19,257,41,23,22,058,47,31,67,016,41,33,15,106,47,7*7F
$GQGSV,1,1,01,02,78,101,46,1*5B
$GBGSV,4,1,13,28,11,183,36,25,42,079,49,23,67,343,44,20,14,311,41,1*73
$GBGSV,4,2,13,16,74,351,38,11,43,087,47,10,26,213,36,09,56,317,43,1*79
$GBGSV,4,3,13,07,39,208,38,06,72,336,42,04,31,134,48,02,28,237,36,1*7B
$GBGSV,4,4,13,01,41,152,44,1*46
$GNGSA,A,3,04,08,09,16,18,26,27,28,31,,,,0.7,0.4,0.6,1*36
$GNGSA,A,3,65,72,74,75,76,84,85,,,,,,0.7,0.4,0.6,2*30
$GNGSA,A,3,04,05,06,09,16,23,31,33,,,,,0.7,0.4,0.6,3*3C
$GNGSA,A,3,01,03,06,07,09,10,11,12,16,20,23,25,0.7,0.4,0.6,4*3A
$GNGSA,A,3,02,,,,,,,,,,,,0.7,0.4,0.6,5*32
$GNVTG,,T,,M,0.0,N,0.0,K,A*3D
$GNDTM,P90,,0000.000025,S,00000.000001,W,0.982,W84*49
$GNRMC,070447.00,A,3727.022487,N,12639.103841,E,0.0,,191125,9.1,W,A,V*60
$GNGNS,070447.00,3727.022487,N,12639.103841,E,AAAAAN,38,0.4,10.9,18.0,,,V*19
$GNGGA,070447.00,3727.022487,N,12639.103841,E,1,12,0.4,10.9,M,18.0,M,,*4E
$PSMSG,magcal=PASS,bluesky=0*00
$GPGSV,3,1,12,04,48,278,44,08,20,210,40,09,22,312,43,16,68,314,43,1*6B
$GPGSV,3,2,12,18,19,080,45,26,56,046,48,27,50,196,39,28,26,120,48,1*62
$GPGSV,3,3,12,31,55,107,49,41,00,000,42,42,00,000,40,50,00,000,39,1*60
$GLGSV,3,1,09,74,32,061,43,66,00,000,42,76,16,289,41,75,53,347,48,1*7F
$GLGSV,3,2,09,65,37,264,49,84,33,060,40,83,02,018,25,85,36,125,52,1*7A
$GLGSV,3,3,09,72,17,206,39,1*4C
$GAGSV,2,1,08,04,25,171,43,05,34,307,43,06,46,190,39,09,60,228,45,7*7A
$GAGSV,2,2,08,16,19,257,43,23,22,058,47,31,67,016,43,33,15,106,47,7*7F
$GQGSV,1,1,01,02,78,101,46,1*5B
$GBGSV,4,1,14,28,11,183,36,25,42,079,49,23,67,343,44,20,14,311,41,1*74
$GBGSV,4,2,14,16,74,351,38,11,43,087,47,10,26,213,34,09,56,317,43,1*7C
$GBGSV,4,3,14,07,39,208,39,06,72,336,43,04,31,134,47,03,42,205,34,1*7D
$GBGSV,4,4,14,02,28,237,38,01,41,152,43,1*73
$GNGSA,A,3,04,08,09,16,18,26,27,28,31,,,,0.7,0.5,0.6,1*37
$GNGSA,A,3,65,72,74,75,76,84,85,,,,,,0.7,0.5,0.6,2*31
$GNGSA,A,3,04,05,06,09,16,23,31,33,,,,,0.7,0.5,0.6,3*3D
$GNGSA,A,3,01,03,06,07,09,10,11,16,20,23,25,28,0.7,0.5,0.6,4*32
$GNGSA,A,3,02,,,,,,,,,,,,0.7,0.5,0.6,5*33
$GNVTG,,T,,M,0.0,N,0.0,K,A*3D
$GNDTM,P90,,0000.000025,S,00000.000001,W,0.982,W84*49
$GNRMC,070448.00,A,3727.022557,N,12639.103925,E,0.0,,191125,9.1,W,A,V*60
$GNGNS,070448.00,3727.022557,N,12639.103925,E,AAAAAN,37,0.5,10.9,18.0,,,V*17
$GNGGA,070448.00,3727.022557,N,12639.103925,E,1,12,0.5,10.9,M,18.0,M,,*4F
$PSMSG,magcal=PASS,bluesky=0*00
$GPGSV,3,1,12,04,48,278,46,08,20,210,40,09,22,312,42,16,68,314,43,1*68
$GPGSV,3,2,12,18,19,080,45,26,56,046,47,27,50,196,39,28,26,120,48,1*6D
$GPGSV,3,3,12,31,55,107,48,41,00,000,41,42,00,000,40,50,00,000,38,1*63
$GLGSV,3,1,09,74,32,061,44,66,00,000,44,76,16,289,42,75,53,347,49,1*7C
$GLGSV,3,2,09,65,37,264,50,84,33,060,40,83,02,018,25,85,36,125,52,1*72
$GLGSV,3,3,09,72,17,206,36,1*43
$GAGSV,3,1,09,04,25,171,42,05,34,307,43,06,46,190,39,09,60,228,45,7*7B
$GAGSV,3,2,09,16,19,257,42,23,22,058,46,26,11,058,24,31,67,016,43,7*70
$GAGSV,3,3,09,33,15,106,48,7*45
$GQGSV,1,1,01,02,78,101,46,1*5B
$GBGSV,4,1,14,28,11,183,35,25,42,079,50,23,67,343,44,20,14,311,40,1*7E
$GBGSV,4,2,14,16,74,351,38,11,43,087,47,10,26,213,32,09,56,317,43,1*7A
$GBGSV,4,3,14,07,39,208,39,06,72,336,43,04,31,134,47,03,42,205,34,1*7D
$GBGSV,4,4,14,02,28,237,37,01,41,152,42,1*7D
$GNGSA,A,3,04,08,09,16,18,26,27,28,31,,,,0.7,0.5,0.6,1*37
$GNGSA,A,3,65,72,74,75,76,84,85,,,,,,0.7,0.5,0.6,2*31
$GNGSA,A,3,04,05,06,09,16,23,31,33,,,,,0.7,0.5,0.6,3*3D
$GNGSA,A,3,01,03,06,07,09,10,11,16,20,23,25,28,0.7,0.5,0.6,4*32
$GNGSA,A,3,02,,,,,,,,,,,,0.7,0.5,0.6,5*33
$GNVTG,,T,,M,0.0,N,0.0,K,A*3D
$GNDTM,P90,,0000.000025,S,00000.000001,W,0.982,W84*49
$GNRMC,070449.00,A,3727.022571,N,12639.103964,E,0.0,,191125,9.1,W,A,V*60
$GNGNS,070449.00,3727.022571,N,12639.103964,E,AAAAAN,37,0.5,10.7,18.0,,,V*19
$GNGGA,070449.00,3727.022571,N,12639.103964,E,1,12,0.5,10.7,M,18.0,M,,*41
$PSMSG,magcal=PASS,bluesky=0*00
$GPGSV,3,1,12,04,48,278,45,08,20,210,40,09,22,312,42,16,68,314,42,1*6A
$GPGSV,3,2,12,18,19,080,45,26,56,046,48,27,50,196,40,28,26,120,48,1*6C
$GPGSV,3,3,12,31,55,107,50,41,00,000,42,42,00,000,40,50,00,000,36,1*67
$GLGSV,3,1,09,74,32,061,44,66,00,000,44,76,16,289,42,75,53,347,50,1*74
$GLGSV,3,2,09,65,37,264,50,84,33,060,38,83,02,018,18,85,36,125,53,1*72
$GLGSV,3,3,09,72,17,206,33,1*46
$GAGSV,2,1,08,04,25,171,42,05,34,307,43,06,46,190,39,09,60,228,45,7*7B
$GAGSV,2,2,08,16,19,257,42,23,22,058,47,31,67,016,41,33,15,106,48,7*73
$GQGSV,1,1,01,02,78,101,46,1*5B
$GBGSV,4,1,14,28,11,183,35,25,42,079,50,23,67,343,45,20,14,311,41,1*7E
$GBGSV,4,2,14,16,74,351,37,11,43,087,46,10,26,213,34,09,56,317,42,1*73
$GBGSV,4,3,14,07,39,208,39,06,72,336,42,04,31,134,48,03,42,205,34,1*73
$GBGSV,4,4,14,02,28,237,38,01,41,152,43,1*73
$GNGSA,A,3,04,08,09,16,18,26,27,28,31,,,,0.7,0.5,0.6,1*37
$GNGSA,A,3,65,72,74,75,76,84,85,,,,,,0.7,0.5,0.6,2*31
$GNGSA,A,3,04,05,06,09,16,23,31,33,,,,,0.7,0.5,0.6,3*3D
$GNGSA,A,3,01,03,06,07,09,10,11,16,20,23,25,28,0.7,0.5,0.6,4*32
$GNGSA,A,3,02,,,,,,,,,,,,0.7,0.5,0.6,5*33
$GNVTG,,T,,M,0.0,N,0.0,K,A*3D
$GNDTM,P90,,0000.000025,S,00000.000001,W,0.982,W84*49
$GNRMC,070450.00,A,3727.022615,N,12639.103882,E,0.0,,191125,9.1,W,A,V*60
$GNGNS,070450.00,3727.022615,N,12639.103882,E,AAAAAN,37,0.5,10.3,18.0,,,V*1D
$GNGGA,070450.00,3727.022615,N,12639.103882,E,1,12,0.5,10.3,M,18.0,M,,*45
$PSMSG,magcal=PASS,bluesky=0*00
$GPGSV,3,1,12,04,48,278,44,08,20,210,39,09,22,312,42,16,68,314,43,1*64
$GPGSV,3,2,12,18,19,080,46,26,56,046,47,27,50,196,40,28,26,120,48,1*60
$GPGSV,3,3,12,31,55,107,50,41,00,000,41,42,00,000,40,50,00,000,39,1*6B
$GLGSV,3,1,09,74,32,061,43,66,00,000,44,76,16,289,41,75,53,347,49,1*78
$GLGSV,3,2,09,65,37,264,50,84,33,060,36,83,02,018,23,85,36,125,53,1*74
$GLGSV,3,3,09,72,17,206,36,1*43
$GAGSV,2,1,08,04,25,171,42,05,34,307,42,06,46,190,39,09,60,228,45,7*7A
$GAGSV,2,2,08,16,19,257,42,23,22,058,47,31,67,016,41,33,15,106,48,7*73
$GQGSV,1,1,01,02,78,101,46,1*5B
$GBGSV,4,1,14,28,11,183,36,25,42,079,50,23,67,343,44,20,14,311,41,1*7C
$GBGSV,4,2,14,16,74,351,36,11,43,087,46,10,26,213,34,09,56,317,43,1*73
$GBGSV,4,3,14,07,39,208,40,06,72,336,42,04,31,134,47,03,42,205,31,1*77
$GBGSV,4,4,14,02,28,237,36,01,41,152,43,1*7D
$GNGSA,A,3,04,08,09,16,18,26,27,28,31,,,,0.7,0.5,0.6,1*37
$GNGSA,A,3,65,72,74,75,76,84,85,,,,,,0.7,0.5,0.6,2*31
$GNGSA,A,3,04,05,06,09,16,23,31,33,,,,,0.7,0.5,0.6,3*3D
$GNGSA,A,3,01,03,06,07,09,10,11,16,20,23,25,28,0.7,0.5,0.6,4*32
$GNGSA,A,3,02,,,,,,,,,,,,0.7,0.5,0.6,5*33
$GNVTG,,T,,M,0.0,N,0.0,K,A*3D
$GNDTM,P90,,0000.000025,S,00000.000001,W,0.982,W84*49
$GNRMC,070451.00,A,3727.022641,N,12639.103853,E,0.0,,191125,9.1,W,A,V*6C
$GNGNS,070451.00,3727.022641,N,12639.103853,E,AAAAAN,37,0.5,10.1,18.0,,,V*13
$GNGGA,070451.00,3727.022641,N,12639.103853,E,1,12,0.5,10.1,M,18.0,M,,*4B
$PSMSG,magcal=PASS,bluesky=0*00
$GPGSV,3,1,12,04,48,278,44,08,20,210,40,09,22,312,42,16,68,314,42,1*6B
$GPGSV,3,2,12,18,19,080,44,26,56,046,47,27,50,196,39,28,26,120,48,1*6C
$GPGSV,3,3,12,31,55,107,50,41,00,000,41,42,00,000,40,50,00,000,37,1*65
$GLGSV,3,1,09,74,32,061,44,66,00,000,43,76,16,289,42,75,53,347,49,1*7B
$GLGSV,3,2,09,65,37,264,50,84,33,060,39,83,02,018,23,85,36,125,53,1*7B
$GLGSV,3,3,09,72,17,206,37,1*42
$GAGSV,3,1,09,04,25,171,43,05,34,307,42,06,46,190,40,09,60,228,45,7*75
$GAGSV,3,2,09,16,19,257,42,23,22,058,45,26,11,058,24,31,67,016,42,7*72
$GAGSV,3,3,09,33,15,106,48,7*45
$GQGSV,1,1,01,02,78,101,46,1*5B
$GBGSV,4,1,14,28,11,183,37,25,42,079,50,23,67,343,44,20,14,311,41,1*7D
$GBGSV,4,2,14,16,74,351,39,11,43,087,48,10,26,213,34,09,56,317,43,1*72
$GBGSV,4,3,14,07,39,208,38,06,72,336,41,04,31,134,47,03,42,205,31,1*7B
$GBGSV,4,4,14,02,28,237,37,01,41,152,43,1*7C
$GNGSA,A,3,04,08,09,16,18,26,27,28,31,,,,0.7,0.5,0.6,1*37
$GNGSA,A,3,65,72,74,75,76,84,85,,,,,,0.7,0.5,0.6,2*31
$GNGSA,A,3,04,05,06,09,16,23,31,33,,,,,0.7,0.5,0.6,3*3D
$GNGSA,A,3,01,03,06,07,09,10,11,16,20,23,25,28,0.7,0.5,0.6,4*32
$GNGSA,A,3,02,,,,,,,,,,,,0.7,0.5,0.6,5*33
$GNVTG,,T,,M,0.0,N,0.0,K,A*3D
$GNDTM,P90,,0000.000025,S,00000.000001,W,0.982,W84*49
$GNRMC,070452.00,A,3727.022676,N,12639.103869,E,0.0,,191125,9.1,W,A,V*62
$GNGNS,070452.00,3727.022676,N,12639.103869,E,AAAAAN,37,0.5,10.1,18.0,,,V*1D
$GNGGA,070452.00,3727.022676,N,12639.103869,E,1,12,0.5,10.1,M,18.0,M,,*45
$PSMSG,magcal=PASS,bluesky=0*00
$GPGSV,3,1,12,04,48,278,44,08,20,210,39,09,22,312,42,16,68,314,41,1*66
$GPGSV,3,2,12,18,19,080,42,26,56,046,48,27,50,196,39,28,26,120,47,1*6A
$GPGSV,3,3,12,31,55,107,51,41,00,000,38,42,00,000,40,50,00,000,39,1*64
$GLGSV,3,1,09,74,32,061,44,66,00,000,43,76,16,289,43,75,53,347,49,1*7A
$GLGSV,3,2,09,65,37,264,50,84,33,060,38,83,02,018,23,85,36,125,52,1*7B
$GLGSV,3,3,09,72,17,206,41,1*43
$GAGSV,2,1,08,04,25,171,43,05,34,307,42,06,46,190,41,09,60,228,45,7*74
$GAGSV,2,2,08,16,19,257,40,23,22,058,45,31,67,016,42,33,15,106,48,7*70
$GQGSV,1,1,01,02,78,101,45,1*58
$GBGSV,4,1,13,28,11,183,37,25,42,079,49,23,67,343,43,20,14,311,41,1*75
$GBGSV,4,2,13,16,74,351,38,11,43,087,47,10,26,213,36,09,56,317,42,1*78
$GBGSV,4,3,13,07,39,208,37,06,72,336,41,04,31,134,48,02,28,237,35,1*74
$GBGSV,4,4,13,01,41,152,44,1*46
$GNGSA,A,3,04,08,09,16,18,26,27,28,31,,,,0.7,0.5,0.6,1*37
$GNGSA,A,3,65,72,74,75,76,84,85,,,,,,0.7,0.5,0.6,2*31
$GNGSA,A,3,04,05,06,09,16,23,31,33,,,,,0.7,0.5,0.6,3*3D
$GNGSA,A,3,01,03,06,07,09,10,11,16,20,23,25,28,0.7,0.5,0.6,4*32
$GNGSA,A,3,02,,,,,,,,,,,,0.7,0.5,0.6,5*33
$GNVTG,,T,,M,0.0,N,0.0,K,A*3D
$GNDTM,P90,,0000.000025,S,00000.000001,W,0.982,W84*49
$GNRMC,070453.00,A,3727.022697,N,12639.103899,E,0.0,,191125,9.1,W,A,V*63
$GNGNS,070453.00,3727.022697,N,12639.103899,E,AAAAAN,37,0.5,10.2,18.0,,,V*1F
$GNGGA,070453.00,3727.022697,N,12639.103899,E,1,12,0.5,10.2,M,18.0,M,,*47
$PSMSG,magcal=PASS,bluesky=0*00
$GPGSV,3,1,12,04,48,278,43,08,20,210,39,09,22,312,42,16,68,314,42,1*62
$GPGSV,3,2,12,18,19,080,42,26,56,046,48,27,50,196,35,28,26,120,47,1*66
$GPGSV,3,3,12,31,55,107,51,41,00,000,40,42,00,000,40,50,00,000,37,1*65
$GLGSV,3,1,09,74,32,061,45,66,00,000,44,76,16,289,43,75,53,347,49,1*7C
$GLGSV,3,2,09,65,37,264,48,84,33,060,39,83,02,018,23,85,36,125,54,1*75
$GLGSV,3,3,09,72,17,206,38,1*4D
$GAGSV,2,1,08,04,25,171,44,05,34,307,42,06,46,190,40,09,60,228,46,7*71
$GAGSV,2,2,08,16,19,257,41,23,22,058,45,31,67,016,41,33,15,106,47,7*7D
$GQGSV,1,1,01,02,78,101,45,1*58
$GBGSV,4,1,13,28,11,183,37,25,42,079,49,23,67,343,44,20,14,311,42,1*71
$GBGSV,4,2,13,16,74,351,39,11,43,087,48,10,26,213,33,09,56,317,43,1*72
$GBGSV,4,3,13,07,39,208,38,06,72,336,41,04,31,134,48,02,28,237,37,1*79
$GBGSV,4,4,13,01,41,152,44,1*46
$GNGSA,A,3,04,08,09,16,18,26,27,28,31,,,,0.7,0.5,0.6,1*37
$GNGSA,A,3,65,72,74,75,76,84,85,,,,,,0.7,0.5,0.6,2*31
$GNGSA,A,3,04,05,06,09,16,23,31,33,,,,,0.7,0.5,0.6,3*3D
$GNGSA,A,3,01,03,06,07,09,10,11,16,20,23,25,28,0.7,0.5,0.6,4*32
$GNGSA,A,3,02,,,,,,,,,,,,0.7,0.5,0.6,5*33
$GNVTG,,T,,M,0.0,N,0.0,K,A*3D
$GNDTM,P90,,0000.000025,S,00000.000001,W,0.982,W84*49
$GNRMC,070454.00,A,3727.022700,N,12639.103909,E,0.0,,191125,9.1,W,A,V*63
$GNGNS,070454.00,3727.022700,N,12639.103909,E,AAAAAN,37,0.5,10.2,18.0,,,V*1F
$GNGGA,070454.00,3727.022700,N,12639.103909,E,1,12,0.5,10.2,M,18.0,M,,*47
$PSMSG,magcal=PASS,bluesky=0*00
$GPGSV,3,1,12,04,48,278,44,08,20,210,41,09,22,312,42,16,68,314,43,1*6B
$GPGSV,3,2,12,18,19,080,44,26,56,046,47,27,50,196,37,28,26,120,49,1*63
$GPGSV,3,3,12,31,55,107,51,41,00,000,40,42,00,000,40,50,00,000,37,1*65
$GLGSV,3,1,09,74,32,061,44,66,00,000,42,76,16,289,42,75,53,347,48,1*7B
$GLGSV,3,2,09,65,37,264,47,84,33,060,39,83,02,018,23,85,36,125,53,1*7D
$GLGSV,3,3,09,72,17,206,35,1*40
$GAGSV,2,1,08,04,25,171,42,05,34,307,43,06,46,190,41,09,60,228,46,7*77
$GAGSV,2,2,08,16,19,257,40,23,22,058,46,31,67,016,41,33,15,106,48,7*70
$GQGSV,1,1,01,02,78,101,46,1*5B
$GBGSV,4,1,13,28,11,183,38,25,42,079,50,23,67,343,44,20,14,311,42,1*76
$GBGSV,4,2,13,16,74,351,38,11,43,087,47,10,26,213,35,09,56,317,42,1*7B
$GBGSV,4,3,13,07,39,208,37,06,72,336,41,04,31,134,47,02,28,237,35,1*7B
$GBGSV,4,4,13,01,41,152,44,1*46
$GNGSA,A,3,04,08,09,16,18,26,27,28,31,,,,0.7,0.5,0.6,1*37
$GNGSA,A,3,65,72,74,75,76,84,85,,,,,,0.7,0.5,0.6,2*31
$GNGSA,A,3,04,05,06,09,16,23,31,33,,,,,0.7,0.5,0.6,3*3D
$GNGSA,A,3,01,03,06,07,09,10,11,16,20,23,25,28,0.7,0.5,0.6,4*32
$GNGSA,A,3,02,,,,,,,,,,,,0.7,0.5,0.6,5*33
$GNVTG,,T,,M,0.0,N,0.0,K,A*3D
$GNDTM,P90,,0000.000025,S,00000.000001,W,0.982,W84*49
$GNRMC,070455.00,A,3727.022706,N,12639.103914,E,0.0,,191125,9.1,W,A,V*68
$GNGNS,070455.00,3727.022706,N,12639.103914,E,AAAAAN,37,0.5,10.2,18.0,,,V*14
$GNGGA,070455.00,3727.022706,N,12639.103914,E,1,12,0.5,10.2,M,18.0,M,,*4C
$PSMSG,magcal=PASS,bluesky=0*00
$GPGSV,3,1,12,04,48,278,45,08,20,210,40,09,22,312,42,16,68,314,44,1*6C
$GPGSV,3,2,12,18,19,080,44,26,56,046,46,27,50,196,38,28,26,120,48,1*6C
$GPGSV,3,3,12,31,55,107,51,41,00,000,37,42,00,000,40,50,00,000,38,1*6A
$GLGSV,3,1,09,74,32,061,44,66,00,000,40,76,16,289,44,75,53,347,48,1*7F
$GLGSV,3,2,09,65,37,264,47,84,33,060,38,83,02,018,23,85,36,125,54,1*7B
$GLGSV,3,3,09,72,17,206,37,1*42
$GAGSV,3,1,09,04,25,171,42,05,34,307,43,06,46,190,40,09,60,228,47,7*77
$GAGSV,3,2,09,16,19,257,37,23,22,058,47,26,11,058,23,31,67,016,41,7*76
$GAGSV,3,3,09,33,15,106,48,7*45
$GQGSV,1,1,01,02,78,101,45,1*58
$GBGSV,4,1,13,28,11,183,35,25,42,079,51,23,67,343,43,20,14,311,44,1*7B
$GBGSV,4,2,13,16,74,351,35,11,43,087,48,10,26,213,37,09,56,317,43,1*7A
$GBGSV,4,3,13,07,39,208,36,06,72,336,42,04,31,134,47,02,28,237,33,1*7F
$GBGSV,4,4,13,01,41,152,44,1*46
$GNGSA,A,3,04,08,09,16,18,26,27,28,31,,,,0.7,0.5,0.6,1*37
$GNGSA,A,3,65,72,74,75,76,84,85,,,,,,0.7,0.5,0.6,2*31
$GNGSA,A,3,04,05,06,09,16,23,31,33,,,,,0.7,0.5,0.6,3*3D
$GNGSA,A,3,01,03,06,07,09,10,11,16,20,23,25,28,0.7,0.5,0.6,4*32
$GNGSA,A,3,02,,,,,,,,,,,,0.7,0.5,0.6,5*33
$GNVTG,,T,,M,0.0,N,0.0,K,A*3D
$GNDTM,P90,,0000.000025,S,00000.000001,W,0.982,W84*49
$GNRMC,070456.00,A,3727.022708,N,12639.103918,E,0.0,,191125,9.1,W,A,V*69
$GNGNS,070456.00,3727.022708,N,12639.103918,E,AAAAAN,37,0.5,10.2,18.0,,,V*15
$GNGGA,070456.00,3727.022708,N,12639.103918,E,1,12,0.5,10.2,M,18.0,M,,*4D
$PSMSG,magcal=PASS,bluesky=0*00
$GPGSV,3,1,12,04,48,278,44,08,20,210,40,09,22,312,42,16,68,314,43,1*6A
$GPGSV,3,2,12,18,19,080,44,26,56,046,47,27,50,196,39,28,26,120,48,1*6C
$GPGSV,3,3,12,31,55,107,50,41,00,000,38,42,00,000,40,50,00,000,37,1*6B
$GLGSV,3,1,09,74,32,061,45,66,00,000,40,76,16,289,44,75,53,347,47,1*71
$GLGSV,3,2,09,65,37,264,45,84,33,060,40,83,02,018,23,85,36,125,54,1*76
$GLGSV,3,3,09,72,17,206,37,1*42
$GAGSV,2,1,08,04,25,171,42,05,34,307,42,06,46,190,41,09,60,228,47,7*77
$GAGSV,2,2,08,16,19,257,38,23,22,058,45,31,67,016,39,33,15,106,48,7*73
$GQGSV,1,1,01,02,78,101,45,1*58
$GBGSV,4,1,14,28,11,183,36,25,42,079,50,23,67,343,44,20,14,311,44,1*79
$GBGSV,4,2,14,16,74,351,35,11,43,087,47,10,26,213,35,09,56,317,42,1*71
$GBGSV,4,3,14,07,39,208,37,06,72,336,41,04,31,134,47,03,42,205,30,1*75
$GBGSV,4,4,14,02,28,237,33,01,41,152,43,1*78
$GNGSA,A,3,04,08,09,16,18,26,27,28,31,,,,0.8,0.5,0.6,1*38
$GNGSA,A,3,65,72,74,75,76,84,85,,,,,,0.8,0.5,0.6,2*3E
$GNGSA,A,3,04,05,06,09,16,23,31,33,,,,,0.8,0.5,0.6,3*32
$GNGSA,A,3,01,03,06,07,09,10,11,16,20,23,25,28,0.8,0.5,0.6,4*3D
$GNGSA,A,3,02,,,,,,,,,,,,0.8,0.5,0.6,5*3C
$GNVTG,,T,,M,0.0,N,0.0,K,A*3D
$GNDTM,P90,,0000.000025,S,00000.000001,W,0.982,W84*49
$GNRMC,070457.00,A,3727.022709,N,12639.103922,E,0.0,,191125,9.1,W,A,V*60
$GNGNS,070457.00,3727.022709,N,12639.103922,E,AAAAAN,37,0.5,10.2,18.0,,,V*1C
$GNGGA,070457.00,3727.022709,N,12639.103922,E,1,12,0.5,10.2,M,18.0,M,,*44
$PSMSG,magcal=PASS,bluesky=0*00
$GPGSV,3,1,12,04,48,278,44,08,20,210,41,09,22,312,42,16,68,314,43,1*6B
$GPGSV,3,2,12,18,19,080,45,26,56,046,47,27,50,196,37,28,26,120,49,1*62
$GPGSV,3,3,12,31,55,107,49,41,00,000,38,42,00,000,40,50,00,000,38,1*6C
$GLGSV,3,1,09,74,32,061,45,66,00,000,40,76,16,289,43,75,53,347,46,1*77
$GLGSV,3,2,09,65,37,264,44,84,33,060,41,83,02,018,23,85,36,125,53,1*71
$GLGSV,3,3,09,72,17,206,37,1*42
$GAGSV,2,1,08,04,25,171,41,05,34,307,43,06,46,190,41,09,60,228,47,7*75
$GAGSV,2,2,08,16,19,257,38,23,22,058,45,31,67,016,39,33,15,106,49,7*72
$GQGSV,1,1,01,02,78,101,45,1*58
$GBGSV,4,1,14,28,11,183,36,25,42,079,49,23,67,343,44,20,14,311,43,1*76
$GBGSV,4,2,14,16,74,351,34,11,43,087,47,10,26,213,35,09,56,317,41,1*73
$GBGSV,4,3,14,07,39,208,36,06,72,336,41,04,31,134,47,03,42,205,30,1*74
$GBGSV,4,4,14,02,28,237,34,01,41,152,44,1*78
$GNGSA,A,3,04,08,09,16,18,26,27,28,31,,,,0.8,0.5,0.6,1*38
$GNGSA,A,3,65,72,74,75,76,84,85,,,,,,0.8,0.5,0.6,2*3E
$GNGSA,A,3,04,05,06,09,16,23,31,33,,,,,0.8,0.5,0.6,3*32
$GNGSA,A,3,01,03,06,07,09,10,11,16,20,23,25,28,0.8,0.5,0.6,4*3D
$GNGSA,A,3,02,,,,,,,,,,,,0.8,0.5,0.6,5*3C
$GNVTG,,T,,M,0.0,N,0.0,K,A*3D
$GNDTM,P90,,0000.000025,S,00000.000001,W,0.982,W84*49
$GNRMC,070458.00,A,3727.022711,N,12639.103924,E,0.0,,191125,9.1,W,A,V*60
$GNGNS,070458.00,3727.022711,N,12639.103924,E,AAAAAN,37,0.5,10.2,18.0,,,V*1C
$GNGGA,070458.00,3727.022711,N,12639.103924,E,1,12,0.5,10.2,M,18.0,M,,*44
$PSMSG,magcal=PASS,bluesky=0*00
$GPGSV,3,1,12,04,48,278,45,08,20,210,40,09,22,312,42,16,68,314,44,1*6C
$GPGSV,3,2,12,18,19,080,45,26,56,046,46,27,50,196,37,28,26,120,48,1*62
$GPGSV,3,3,12,31,55,107,50,41,00,000,37,42,00,000,40,50,00,000,37,1*64
$GLGSV,3,1,09,74,32,061,43,66,00,000,41,76,16,289,42,75,53,347,46,1*71
$GLGSV,3,2,09,65,37,264,43,84,33,060,37,83,02,018,18,85,36,125,54,1*78
$GLGSV,3,3,09,72,17,206,37,1*42
$GAGSV,2,1,08,04,25,171,41,05,34,307,43,06,46,190,41,09,60,228,47,7*75
$GAGSV,2,2,08,16,19,257,37,23,22,058,46,31,67,016,41,33,15,106,48,7*70
$GQGSV,1,1,01,02,78,101,44,1*59
$GBGSV,4,1,13,28,11,183,36,25,42,079,50,23,67,343,43,20,14,311,43,1*7E
$GBGSV,4,2,13,16,74,351,35,11,43,087,47,10,26,213,37,09,56,317,42,1*74
$GBGSV,4,3,13,07,39,208,36,06,72,336,42,04,31,134,47,02,28,237,33,1*7F
$GBGSV,4,4,13,01,41,152,44,1*46
$GNGSA,A,3,04,08,09,16,18,26,27,28,31,,,,0.8,0.5,0.6,1*38
$GNGSA,A,3,65,72,74,75,76,84,85,,,,,,0.8,0.5,0.6,2*3E
$GNGSA,A,3,04,05,06,09,16,23,31,33,,,,,0.8,0.5,0.6,3*32
$GNGSA,A,3,01,03,06,07,09,10,11,16,20,23,25,28,0.8,0.5,0.6,4*3D
$GNGSA,A,3,02,,,,,,,,,,,,0.8,0.5,0.6,5*3C
$GNVTG,,T,,M,0.0,N,0.0,K,A*3D
$GNDTM,P90,,0000.000025,S,00000.000001,W,0.982,W84*49
$GNRMC,070459.00,A,3727.022712,N,12639.103924,E,0.0,,191125,9.1,W,A,V*62
$GNGNS,070459.00,3727.022712,N,12639.103924,E,AAAAAN,37,0.5,10.2,18.0,,,V*1E
$GNGGA,070459.00,3727.022712,N,12639.103924,E,1,12,0.5,10.2,M,18.0,M,,*46
$PSMSG,magcal=PASS,bluesky=0*00
$GPGSV,3,1,12,04,48,278,46,08,20,210,37,09,22,312,41,16,68,314,44,1*6C
$GPGSV,3,2,12,18,19,080,47,26,56,046,47,27,50,196,34,28,26,120,48,1*62
$GPGSV,3,3,12,31,55,107,49,41,00,000,37,42,00,000,40,50,00,000,39,1*62
$GLGSV,3,1,09,74,32,061,43,66,00,000,42,76,16,289,43,75,53,347,46,1*73
$GLGSV,3,2,09,65,37,264,43,84,33,060,37,83,02,018,18,85,36,125,54,1*78
$GLGSV,3,3,09,72,17,206,38,1*4D
$GAGSV,2,1,08,04,25,171,41,05,34,307,42,06,46,190,39,09,60,228,46,7*7A
$GAGSV,2,2,08,16,19,257,36,23,22,058,46,31,67,016,39,33,15,106,47,7*71
$GQGSV,1,1,01,02,78,101,45,1*58
$GBGSV,4,1,13,28,11,183,35,25,42,079,49,23,67,343,46,20,14,311,43,1*70
$GBGSV,4,2,13,16,74,351,37,11,43,087,46,10,26,213,38,09,56,317,42,1*78
$GBGSV,4,3,13,07,39,208,36,06,72,336,42,04,31,134,48,02,28,237,32,1*71
$GBGSV,4,4,13,01,41,152,42,1*40
$GNGSA,A,3,04,08,09,16,18,26,27,28,31,,,,0.8,0.5,0.6,1*38
$GNGSA,A,3,65,72,74,75,76,84,85,,,,,,0.8,0.5,0.6,2*3E
$GNGSA,A,3,04,05,06,09,16,23,31,33,,,,,0.8,0.5,0.6,3*32
$GNGSA,A,3,01,03,06,07,09,10,11,16,20,23,25,28,0.8,0.5,0.6,4*3D
$GNGSA,A,3,02,,,,,,,,,,,,0.8,0.5,0.6,5*3C
$GNVTG,,T,,M,0.0,N,0.0,K,A*3D
$GNDTM,P90,,0000.000025,S,00000.000001,W,0.982,W84*49
$GNRMC,070500.00,A,3727.022715,N,12639.103922,E,0.0,,191125,9.1,W,A,V*6E
$GNGNS,070500.00,3727.022715,N,12639.103922,E,AAAAAN,37,0.5,10.2,18.0,,,V*12
$GNGGA,070500.00,3727.022715,N,12639.103922,E,1,12,0.5,10.2,M,18.0,M,,*4A
$PSMSG,magcal=PASS,bluesky=0*00
$GPGSV,3,1,12,04,48,278,46,08,20,210,33,09,22,312,40,16,68,314,43,1*6E
$GPGSV,3,2,12,18,19,080,47,26,56,046,47,27,50,196,36,28,26,120,48,1*60
$GPGSV,3,3,12,31,55,107,47,41,00,000,37,42,00,000,40,50,00,000,40,1*62
$GLGSV,3,1,09,74,32,061,41,66,00,000,43,76,16,289,44,75,53,347,47,1*76
$GLGSV,3,2,09,65,37,264,42,84,33,060,32,83,02,018,18,85,36,125,53,1*7B
$GLGSV,3,3,09,72,17,206,37,1*42
$GAGSV,3,1,09,04,25,171,41,05,34,307,43,06,46,190,39,09,60,228,46,7*7B
$GAGSV,3,2,09,16,19,257,35,23,22,058,47,26,11,058,24,31,67,016,40,7*72
$GAGSV,3,3,09,33,15,106,48,7*45
$GQGSV,1,1,01,02,78,101,45,1*58
$GBGSV,4,1,13,28,11,183,34,25,42,079,49,23,67,343,45,20,14,311,43,1*72
$GBGSV,4,2,13,16,74,351,38,11,43,087,48,10,26,213,39,09,56,317,41,1*7B
$GBGSV,4,3,13,07,39,208,35,06,72,336,42,04,31,134,48,02,28,237,32,1*72
$GBGSV,4,4,13,01,41,152,42,1*40
$GNGSA,A,3,04,08,09,16,18,26,27,28,31,,,,0.8,0.5,0.6,1*38
$GNGSA,A,3,65,72,74,75,76,84,85,,,,,,0.8,0.5,0.6,2*3E
$GNGSA,A,3,04,05,06,09,16,23,31,33,,,,,0.8,0.5,0.6,3*32
$GNGSA,A,3,01,03,06,07,09,10,11,16,20,23,25,28,0.8,0.5,0.6,4*3D
$GNGSA,A,3,02,,,,,,,,,,,,0.8,0.5,0.6,5*3C
$GNVTG,,T,,M,0.0,N,0.0,K,A*3D
$GNDTM,P90,,0000.000025,S,00000.000001,W,0.982,W84*49
$GNRMC,070501.00,A,3727.022717,N,12639.103920,E,0.0,,191125,9.1,W,A,V*6F
$GNGNS,070501.00,3727.022717,N,12639.103920,E,AAAAAN,37,0.5,10.2,18.0,,,V*13
$GNGGA,070501.00,3727.022717,N,12639.103920,E,1,12,0.5,10.2,M,18.0,M,,*4B
$PSMSG,magcal=PASS,bluesky=0*00
$GPGSV,3,1,12,04,48,278,45,08,20,210,34,09,22,312,40,16,68,314,42,1*6B
$GPGSV,3,2,12,18,19,080,46,26,56,046,46,27,50,196,35,28,26,120,47,1*6C
$GPGSV,3,3,12,31,55,107,49,41,00,000,34,42,00,000,40,50,00,000,38,1*60
$GLGSV,3,1,09,74,32,061,43,66,00,000,42,76,16,289,44,75,53,347,46,1*74
$GLGSV,3,2,09,65,37,264,44,84,33,060,39,83,02,018,18,85,36,125,54,1*71
$GLGSV,3,3,09,72,17,206,39,1*4C
$GAGSV,3,1,09,04,25,171,40,05,34,307,44,06,46,190,37,09,60,228,47,7*72
$GAGSV,3,2,09,16,19,257,36,23,22,058,46,26,11,058,24,31,67,016,41,7*71
$GAGSV,3,3,09,33,15,106,47,7*4A
$GQGSV,1,1,01,02,78,101,45,1*58
$GBGSV,4,1,13,28,11,183,35,25,42,079,50,23,67,343,44,20,14,311,43,1*7A
$GBGSV,4,2,13,16,74,351,39,11,43,087,46,10,26,213,38,09,56,317,42,1*76
$GBGSV,4,3,13,07,39,208,37,06,72,336,41,04,31,134,47,02,28,237,32,1*7C
$GBGSV,4,4,13,01,41,152,42,1*40
$GNGSA,A,3,04,08,09,16,18,26,27,28,31,,,,0.8,0.5,0.6,1*38
$GNGSA,A,3,65,72,74,75,76,84,85,,,,,,0.8,0.5,0.6,2*3E
$GNGSA,A,3,04,05,06,09,16,23,31,33,,,,,0.8,0.5,0.6,3*32
$GNGSA,A,3,01,03,06,07,09,10,11,16,20,23,25,28,0.8,0.5,0.6,4*3D
$GNGSA,A,3,02,,,,,,,,,,,,0.8,0.5,0.6,5*3C
$GNVTG,,T,,M,0.0,N,0.0,K,A*3D
$GNDTM,P90,,0000.000025,S,00000.000001,W,0.982,W84*49
$GNRMC,070502.00,A,3727.022719,N,12639.103918,E,0.0,,191125,9.1,W,A,V*69
$GNGNS,070502.00,3727.022719,N,12639.103918,E,AAAAAN,37,0.5,10.2,18.0,,,V*15
$GNGGA,070502.00,3727.022719,N,12639.103918,E,1,12,0.5,10.2,M,18.0,M,,*4D
$PSMSG,magcal=PASS,bluesky=0*00
$GPGSV,3,1,12,04,48,278,45,08,20,210,41,09,22,312,40,16,68,314,43,1*68
$GPGSV,3,2,12,18,19,080,46,26,56,046,47,27,50,196,35,28,26,120,48,1*62
$GPGSV,3,3,12,31,55,107,49,41,00,000,38,42,00,000,40,50,00,000,38,1*6C
$GLGSV,3,1,09,74,32,061,43,66,00,000,42,76,16,289,45,75,53,347,46,1*75
$GLGSV,3,2,09,65,37,264,42,84,33,060,40,83,02,018,18,85,36,125,53,1*7E
$GLGSV,3,3,09,72,17,206,38,1*4D
$GAGSV,2,1,08,04,25,171,41,05,34,307,43,06,46,190,42,09,60,228,48,7*79
$GAGSV,2,2,08,16,19,257,34,23,22,058,46,31,67,016,40,33,15,106,48,7*72
$GQGSV,1,1,01,02,78,101,46,1*5B
$GBGSV,4,1,14,28,11,183,37,25,42,079,50,23,67,343,44,20,14,311,41,1*7D
$GBGSV,4,2,14,16,74,351,38,11,43,087,45,10,26,213,34,09,56,317,43,1*7E
$GBGSV,4,3,14,07,39,208,35,06,72,336,41,04,31,134,46,03,42,205,32,1*74
$GBGSV,4,4,14,02,28,237,36,01,41,152,44,1*7A
$GNGSA,A,3,04,08,09,16,18,26,27,28,31,,,,0.8,0.5,0.6,1*38
$GNGSA,A,3,65,72,74,75,76,84,85,,,,,,0.8,0.5,0.6,2*3E
$GNGSA,A,3,04,05,06,09,16,23,31,33,,,,,0.8,0.5,0.6,3*32
$GNGSA,A,3,01,03,06,07,09,10,11,16,20,23,25,28,0.8,0.5,0.6,4*3D
$GNGSA,A,3,02,,,,,,,,,,,,0.8,0.5,0.6,5*3C
$GNVTG,,T,,M,0.0,N,0.0,K,A*3D
$GNDTM,P90,,0000.000025,S,00000.000001,W,0.982,W84*49
$GNRMC,070503.00,A,3727.022724,N,12639.103920,E,0.0,,191125,9.1,W,A,V*6D
$GNGNS,070503.00,3727.022724,N,12639.103920,E,AAAAAN,37,0.5,10.2,18.0,,,V*11
$GNGGA,070503.00,3727.022724,N,12639.103920,E,1,12,0.5,10.2,M,18.0,M,,*49
$PSMSG,magcal=PASS,bluesky=0*00
$GPGSV,3,1,12,04,48,278,44,08,20,210,39,09,22,312,39,16,68,314,42,1*69
$GPGSV,3,2,12,18,19,080,44,26,56,046,47,27,50,196,34,28,26,120,47,1*6E
$GPGSV,3,3,12,31,55,107,50,41,00,000,40,42,00,000,40,50,00,000,40,1*64
$GLGSV,3,1,09,74,32,061,43,66,00,000,42,76,16,289,44,75,53,347,46,1*74
$GLGSV,3,2,09,65,37,264,42,84,33,060,43,83,02,018,18,85,36,125,52,1*7C
$GLGSV,3,3,09,72,17,206,39,1*4C
$GAGSV,2,1,08,04,25,171,42,05,34,307,43,06,46,190,43,09,60,228,48,7*7B
$GAGSV,2,2,08,16,19,257,39,23,22,058,44,31,67,016,41,33,15,106,47,7*73
$GQGSV,1,1,01,02,78,101,47,1*5A
$GBGSV,4,1,14,28,11,183,36,25,42,079,50,23,67,343,43,20,14,311,42,1*78
$GBGSV,4,2,14,16,74,351,38,11,43,087,46,10,26,213,34,09,56,317,43,1*7D
$GBGSV,4,3,14,07,39,208,35,06,72,336,41,04,31,134,47,03,42,205,34,1*73
$GBGSV,4,4,14,02,28,237,37,01,41,152,45,1*7A
$GNGSA,A,3,04,08,09,16,18,26,27,28,31,,,,0.8,0.5,0.6,1*38
$GNGSA,A,3,65,72,74,75,76,84,85,,,,,,0.8,0.5,0.6,2*3E
$GNGSA,A,3,04,05,06,09,16,23,31,33,,,,,0.8,0.5,0.6,3*32
$GNGSA,A,3,01,03,06,07,09,10,11,16,20,23,25,28,0.8,0.5,0.6,4*3D
$GNGSA,A,3,02,,,,,,,,,,,,0.8,0.5,0.6,5*3C
$GNVTG,,T,,M,0.0,N,0.0,K,A*3D
$GNDTM,P90,,0000.000025,S,00000.000001,W,0.982,W84*49
$GNRMC,070504.00,A,3727.022732,N,12639.103923,E,0.0,,191125,9.1,W,A,V*6E
$GNGNS,070504.00,3727.022732,N,12639.103923,E,AAAAAN,37,0.5,10.2,18.0,,,V*12
$GNGGA,070504.00,3727.022732,N,12639.103923,E,1,12,0.5,10.2,M,18.0,M,,*4A
$PSMSG,magcal=PASS,bluesky=0*00
$GPGSV,3,1,12,04,48,278,44,08,20,210,40,09,22,312,39,16,68,314,42,1*67
$GPGSV,3,2,12,18,19,080,45,26,56,046,47,27,50,196,35,28,26,120,48,1*61
$GPGSV,3,3,12,31,55,107,50,41,00,000,41,42,00,000,40,50,00,000,40,1*65
$GLGSV,3,1,09,74,32,061,43,66,00,000,43,76,16,289,43,75,53,347,46,1*72
$GLGSV,3,2,09,65,37,264,43,84,33,060,44,83,02,018,18,85,36,125,53,1*7B
$GLGSV,3,3,09,72,17,206,40,1*42
$GAGSV,2,1,08,04,25,171,41,05,34,307,43,06,46,190,43,09,60,228,48,7*78
$GAGSV,2,2,08,16,19,257,37,23,22,058,44,31,67,016,41,33,15,106,47,7*7D
$GQGSV,1,1,01,02,78,101,47,1*5A
$GBGSV,4,1,14,28,11,183,35,25,42,079,50,23,67,343,44,20,14,311,43,1*7D
$GBGSV,4,2,14,16,74,351,38,11,43,087,45,10,26,213,33,09,56,317,43,1*79
$GBGSV,4,3,14,07,39,208,36,06,72,336,41,04,31,134,47,03,42,205,33,1*77
$GBGSV,4,4,14,02,28,237,37,01,41,152,44,1*7B
$GNGSA,A,3,04,08,09,16,18,26,27,28,31,,,,0.8,0.5,0.6,1*38
$GNGSA,A,3,65,72,74,75,76,84,85,,,,,,0.8,0.5,0.6,2*3E
$GNGSA,A,3,04,05,06,09,16,23,31,33,,,,,0.8,0.5,0.6,3*32
$GNGSA,A,3,01,03,06,07,09,10,11,16,20,23,25,28,0.8,0.5,0.6,4*3D
$GNGSA,A,3,02,,,,,,,,,,,,0.8,0.5,0.6,5*3C
$GNVTG,,T,,M,0.0,N,0.0,K,A*3D
$GNDTM,P90,,0000.000025,S,00000.000001,W,0.982,W84*49
$GNRMC,070505.00,A,3727.022737,N,12639.103927,E,0.0,,191125,9.1,W,A,V*6E
$GNGNS,070505.00,3727.022737,N,12639.103927,E,AAAAAN,37,0.5,10.2,18.0,,,V*12
$GNGGA,070505.00,3727.022737,N,12639.103927,E,1,12,0.5,10.2,M,18.0,M,,*4A
$PSMSG,magcal=PASS,bluesky=0*00
$GPGSV,3,1,12,04,48,278,44,08,20,210,39,09,22,312,41,16,68,314,43,1*67
$GPGSV,3,2,12,18,19,080,47,26,56,046,46,27,50,196,32,28,26,120,49,1*64
$GPGSV,3,3,12,31,55,107,49,41,00,000,40,42,00,000,40,50,00,000,39,1*62
$GLGSV,3,1,09,74,32,061,41,66,00,000,44,76,16,289,44,75,53,347,46,1*70
$GLGSV,3,2,09,65,37,264,44,84,33,060,40,83,02,018,17,85,36,125,53,1*77
$GLGSV,3,3,09,72,17,206,42,1*40
$GAGSV,2,1,08,04,25,171,41,05,34,307,43,06,46,190,43,09,60,228,47,7*77
$GAGSV,2,2,08,16,19,257,37,23,22,058,46,31,67,016,40,33,15,106,48,7*71
$GQGSV,1,1,01,02,78,101,47,1*5A
$GBGSV,4,1,14,28,11,183,35,25,42,079,49,23,67,343,44,20,14,311,42,1*74
$GBGSV,4,2,14,16,74,351,36,11,43,087,44,10,26,213,34,09,56,317,43,1*71
$GBGSV,4,3,14,07,39,208,36,06,72,336,42,04,31,134,47,03,42,205,33,1*74
$GBGSV,4,4,14,02,28,237,36,01,41,152,44,1*7A
$GNGSA,A,3,04,08,09,16,18,26,27,28,31,,,,0.8,0.5,0.6,1*38
$GNGSA,A,3,65,72,74,75,76,84,85,,,,,,0.8,0.5,0.6,2*3E
$GNGSA,A,3,04,05,06,09,16,23,31,33,,,,,0.8,0.5,0.6,3*32
$GNGSA,A,3,01,03,06,07,09,10,11,16,20,23,25,28,0.8,0.5,0.6,4*3D
$GNGSA,A,3,02,,,,,,,,,,,,0.8,0.5,0.6,5*3C
$GNVTG,,T,,M,0.0,N,0.0,K,A*3D
$GNDTM,P90,,0000.000025,S,00000.000001,W,0.982,W84*49
$GNRMC,070506.00,A,3727.022742,N,12639.103930,E,0.0,,191125,9.1,W,A,V*69
$GNGNS,070506.00,3727.022742,N,12639.103930,E,AAAAAN,37,0.5,10.2,18.0,,,V*15
$GNGGA,070506.00,3727.022742,N,12639.103930,E,1,12,0.5,10.2,M,18.0,M,,*4D
$PSMSG,magcal=PASS,bluesky=0*00
$GPGSV,3,1,12,04,48,278,46,08,20,210,36,09,22,312,40,16,68,314,43,1*6B
$GPGSV,3,2,12,18,19,080,47,26,56,046,46,27,50,196,36,28,26,120,48,1*61
$GPGSV,3,3,12,31,55,107,49,41,00,000,34,42,00,000,40,50,00,000,40,1*6F
$GLGSV,3,1,09,74,32,061,41,66,00,000,45,76,16,289,44,75,53,347,46,1*71
$GLGSV,3,2,09,65,37,264,46,84,33,060,39,83,02,018,17,85,36,125,54,1*7C
$GLGSV,3,3,09,72,17,206,42,1*40
$GAGSV,2,1,08,04,25,171,40,05,34,307,43,06,46,190,42,09,60,228,46,7*76
$GAGSV,2,2,08,16,19,257,35,23,22,058,46,31,67,016,39,33,15,106,48,7*7D
$GQGSV,1,1,01,02,78,101,46,1*5B
$GBGSV,4,1,14,28,11,183,33,25,42,079,49,23,67,343,45,20,14,311,44,1*75
$GBGSV,4,2,14,16,74,351,37,11,43,087,45,10,26,213,38,09,56,317,43,1*7D
$GBGSV,4,3,14,07,39,208,35,06,72,336,42,04,31,134,47,03,42,205,33,1*77
$GBGSV,4,4,14,02,28,237,33,01,41,152,43,1*78
$GNGSA,A,3,04,08,09,16,18,26,27,28,31,,,,0.8,0.5,0.6,1*38
$GNGSA,A,3,65,72,74,75,76,84,85,,,,,,0.8,0.5,0.6,2*3E
$GNGSA,A,3,04,05,06,09,16,23,31,33,,,,,0.8,0.5,0.6,3*32
$GNGSA,A,3,01,03,06,07,09,10,11,16,20,23,25,28,0.8,0.5,0.6,4*3D
$GNGSA,A,3,02,,,,,,,,,,,,0.8,0.5,0.6,5*3C
$GNVTG,,T,,M,0.0,N,0.0,K,A*3D
$GNDTM,P90,,0000.000025,S,00000.000001,W,0.982,W84*49
$GNRMC,070507.00,A,3727.022744,N,12639.103932,E,0.0,,191125,9.1,W,A,V*6C
$GNGNS,070507.00,3727.022744,N,12639.103932,E,AAAAAN,37,0.5,10.2,18.0,,,V*10
$GNGGA,070507.00,3727.022744,N,12639.103932,E,1,12,0.5,10.2,M,18.0,M,,*48
$PSMSG,magcal=PASS,bluesky=0*00
$GPGSV,3,1,12,04,48,278,45,08,20,210,28,09,22,312,39,16,68,314,43,1*69
$GPGSV,3,2,12,18,19,080,46,26,56,046,46,27,50,196,37,28,26,120,47,1*6E
$GPGSV,3,3,12,31,55,107,48,41,00,000,34,42,00,000,40,50,00,000,39,1*60
$GLGSV,3,1,09,74,32,061,39,66,00,000,45,76,16,289,45,75,53,347,47,1*7E
$GLGSV,3,2,09,65,37,264,46,84,33,060,36,83,02,018,17,85,36,125,53,1*74
$GLGSV,3,3,09,72,17,206,40,1*42
$GAGSV,2,1,08,04,25,171,40,05,34,307,42,06,46,190,41,09,60,228,45,7*77
$GAGSV,2,2,08,16,19,257,34,23,22,058,47,31,67,016,41,33,15,106,49,7*73
$GQGSV,1,1,01,02,78,101,45,1*58
$GBGSV,4,1,14,28,11,183,32,25,42,079,50,23,67,343,45,20,14,311,44,1*7C
$GBGSV,4,2,14,16,74,351,37,11,43,087,47,10,26,213,38,09,56,317,41,1*7D
$GBGSV,4,3,14,07,39,208,34,06,72,336,41,04,31,134,48,03,42,205,33,1*7A
$GBGSV,4,4,14,02,28,237,33,01,41,152,42,1*79
$GNGSA,A,3,04,08,09,16,18,26,27,28,31,,,,0.8,0.5,0.6,1*38
$GNGSA,A,3,65,72,74,75,76,84,85,,,,,,0.8,0.5,0.6,2*3E
$GNGSA,A,3,04,05,06,09,16,23,31,33,,,,,0.8,0.5,0.6,3*32
$GNGSA,A,3,01,03,06,07,09,10,11,16,20,23,25,28,0.8,0.5,0.6,4*3D
$GNGSA,A,3,02,,,,,,,,,,,,0.8,0.5,0.6,5*3C
$GNVTG,,T,,M,0.0,N,0.0,K,A*3D
$GNDTM,P90,,0000.000025,S,00000.000001,W,0.982,W84*49
$GNRMC,070508.00,A,3727.022746,N,12639.103934,E,0.0,,191125,9.1,W,A,V*67
$GNGNS,070508.00,3727.022746,N,12639.103934,E,AAAAAN,37,0.5,10.2,18.0,,,V*1B
$GNGGA,070508.00,3727.022746,N,12639.103934,E,1,12,0.5,10.2,M,18.0,M,,*43
$PSMSG,magcal=PASS,bluesky=0*00
$GPGSV,3,1,12,04,48,278,45,08,20,210,34,09,22,312,43,16,68,314,44,1*6E
$GPGSV,3,2,12,18,19,080,45,26,56,046,45,27,50,196,41,28,26,120,45,1*6D
$GPGSV,3,3,12,31,55,107,48,41,00,000,34,42,00,000,40,50,00,000,42,1*6C
$GLGSV,3,1,09,74,32,061,38,66,00,000,45,76,16,289,45,75,53,347,47,1*7F
$GLGSV,3,2,09,65,37,264,45,84,33,060,39,83,02,018,17,85,36,125,53,1*78
$GLGSV,3,3,09,72,17,206,35,1*40
$GAGSV,2,1,08,04,25,171,37,05,34,307,44,06,46,190,44,09,60,228,44,7*75
$GAGSV,2,2,08,16,19,257,30,23,22,058,46,31,67,016,38,33,15,106,47,7*76
$GQGSV,1,1,01,02,78,101,44,1*59
$GBGSV,4,1,14,28,11,183,37,25,42,079,50,23,67,343,46,20,14,311,45,1*7B
$GBGSV,4,2,14,16,74,351,42,11,43,087,48,10,26,213,37,09,56,317,42,1*7C
$GBGSV,4,3,14,07,39,208,34,06,72,336,43,04,31,134,45,03,42,205,31,1*77
$GBGSV,4,4,14,02,28,237,33,01,41,152,39,1*75
$GNGSA,A,3,04,08,09,16,18,26,27,28,31,,,,0.8,0.5,0.6,1*38
$GNGSA,A,3,65,72,74,75,76,84,85,,,,,,0.8,0.5,0.6,2*3E
$GNGSA,A,3,04,05,06,09,16,23,31,33,,,,,0.8,0.5,0.6,3*32
$GNGSA,A,3,01,03,06,07,09,10,11,16,20,23,25,28,0.8,0.5,0.6,4*3D
$GNGSA,A,3,02,,,,,,,,,,,,0.8,0.5,0.6,5*3C
$GNVTG,,T,,M,0.0,N,0.0,K,A*3D
$GNDTM,P90,,0000.000025,S,00000.000001,W,0.982,W84*49
$GNRMC,070509.00,A,3727.022749,N,12639.103936,E,0.0,,191125,9.1,W,A,V*6B
$GNGNS,070509.00,3727.022749,N,12639.103936,E,AAAAAN,37,0.5,10.2,18.0,,,V*17
$GNGGA,070509.00,3727.022749,N,12639.103936,E,1,12,0.5,10.2,M,18.0,M,,*4F
$PSMSG,magcal=PASS,bluesky=0*00
$GPGSV,3,1,12,04,48,278,43,08,20,210,36,09,22,312,44,16,68,314,44,1*6D
$GPGSV,3,2,12,18,19,080,46,26,56,046,43,27,50,196,41,28,26,120,41,1*6C
$GPGSV,3,3,12,31,55,107,47,41,00,000,34,42,00,000,40,50,00,000,44,1*65
$GLGSV,3,1,09,74,32,061,39,66,00,000,46,76,16,289,44,75,53,347,46,1*7D
$GLGSV,3,2,09,65,37,264,43,84,33,060,40,83,02,018,17,85,36,125,51,1*72
$GLGSV,3,3,09,72,17,206,37,1*42
$GAGSV,2,1,08,04,25,171,37,05,34,307,44,06,46,190,46,09,60,228,44,7*77
$GAGSV,2,2,08,16,19,257,29,23,22,058,47,31,67,016,39,33,15,106,45,7*7C
$GQGSV,1,1,01,02,78,101,44,1*59
$GBGSV,4,1,14,28,11,183,40,25,42,079,49,23,67,343,47,20,14,311,47,1*70
$GBGSV,4,2,14,16,74,351,43,11,43,087,47,10,26,213,36,09,56,317,44,1*75
$GBGSV,4,3,14,07,39,208,35,06,72,336,43,04,31,134,44,03,42,205,35,1*73
$GBGSV,4,4,14,02,28,237,33,01,41,152,37,1*7B
$GNGSA,A,3,04,08,09,16,18,26,27,28,31,,,,0.8,0.5,0.6,1*38
$GNGSA,A,3,65,72,74,75,76,84,85,,,,,,0.8,0.5,0.6,2*3E
$GNGSA,A,3,04,05,06,09,16,23,31,33,,,,,0.8,0.5,0.6,3*32
$GNGSA,A,3,01,03,06,07,09,10,11,16,20,23,25,28,0.8,0.5,0.6,4*3D
$GNGSA,A,3,02,,,,,,,,,,,,0.8,0.5,0.6,5*3C
$GNVTG,,T,,M,0.0,N,0.0,K,A*3D
$GNDTM,P90,,0000.000025,S,00000.000001,W,0.982,W84*49
$GNRMC,070510.00,A,3727.022752,N,12639.103938,E,0.0,,191125,9.1,W,A,V*67
$GNGNS,070510.00,3727.022752,N,12639.103938,E,AAAAAN,37,0.5,10.2,18.0,,,V*1B
$GNGGA,070510.00,3727.022752,N,12639.103938,E,1,12,0.5,10.2,M,18.0,M,,*43
$PSMSG,magcal=PASS,bluesky=0*00
$GPGSV,3,1,12,04,48,278,40,08,20,210,33,09,22,312,41,16,68,314,41,1*6B
$GPGSV,3,2,12,18,19,080,41,26,56,046,40,27,50,196,29,28,26,120,39,1*69
$GPGSV,3,3,12,31,55,107,45,41,00,000,34,42,00,000,40,50,00,000,38,1*6C
$GLGSV,3,1,09,74,32,061,37,66,00,000,39,76,16,289,44,75,53,347,46,1*7B
$GLGSV,3,2,09,65,37,264,41,84,33,060,43,83,02,018,17,85,36,125,48,1*7B
$GLGSV,3,3,09,72,17,206,36,1*43
$GAGSV,2,1,08,04,25,171,36,05,34,307,42,06,46,190,37,09,60,228,41,7*73
$GAGSV,2,2,08,16,19,257,30,23,22,058,44,31,67,016,35,33,15,106,42,7*7C
$GQGSV,1,1,01,02,78,101,40,1*5D
$GBGSV,4,1,14,28,11,183,33,25,42,079,48,23,67,343,45,20,14,311,45,1*75
$GBGSV,4,2,14,16,74,351,42,11,43,087,48,10,26,213,36,09,56,317,39,1*71
$GBGSV,4,3,14,07,39,208,37,06,72,336,42,04,31,134,38,03,42,205,37,1*79
$GBGSV,4,4,14,02,28,237,33,01,41,152,34,1*78
$GNGSA,A,3,04,08,09,16,18,26,27,28,31,,,,0.8,0.5,0.6,1*38
$GNGSA,A,3,65,72,74,75,76,84,85,,,,,,0.8,0.5,0.6,2*3E
$GNGSA,A,3,04,05,06,09,16,23,31,33,,,,,0.8,0.5,0.6,3*32
$GNGSA,A,3,01,03,06,07,09,10,11,16,20,23,25,28,0.8,0.5,0.6,4*3D
$GNGSA,A,3,02,,,,,,,,,,,,0.8,0.5,0.6,5*3C
$GNVTG,,T,,M,0.0,N,0.0,K,A*3D
$GNDTM,P90,,0000.000025,S,00000.000001,W,0.982,W84*49
$GNRMC,070511.00,A,3727.022753,N,12639.103936,E,0.0,,191125,9.1,W,A,V*69
$GNGNS,070511.00,3727.022753,N,12639.103936,E,AAAAAN,37,0.5,10.2,18.0,,,V*15
$GNGGA,070511.00,3727.022753,N,12639.103936,E,1,12,0.5,10.2,M,18.0,M,,*4D
$PSMSG,magcal=PASS,bluesky=0*00
