$GLGSV,2,1,07,66,21,325,31,72,22,208,32,75,53,340,40,76,14,285,34,3*7E
$GLGSV,2,2,07,83,06,022,17,84,34,066,34,85,32,129,26,3*48
$GLGSV,1,1,01,73,00,084,,0*40
$GAGSV,2,1,07,04,29,171,42,05,33,310,37,06,50,192,41,09,63,235,33,2*7B
$GAGSV,2,2,07,18,65,111,38,23,25,057,31,31,70,010,43,2*44
$GAGSV,2,1,07,04,29,171,36,05,33,310,40,06,50,192,44,09,63,235,46,7*7A
$GAGSV,2,2,07,18,65,111,45,23,25,057,39,31,70,010,47,7*47
$GBGSV,2,1,08,09,55,316,43,11,43,093,29,16,74,350,46,23,66,335,49,1*78
$GBGSV,2,2,08,25,45,076,47,32,29,259,42,34,33,062,40,39,79,035,47,1*7E
$GBGSV,2,1,07,06,71,336,34,07,39,206,37,09,55,316,36,10,25,212,35,B*04
$GBGSV,2,2,07,11,43,093,35,16,74,350,33,32,29,259,08,B*37
$GQGSV,1,1,02,02,78,106,47,07,47,179,37,1*61
$GQGSV,1,1,03,02,78,106,36,04,28,184,40,07,47,179,38,6*59
$GQGSV,1,1,01,03,15,155,,0*53
$GNRMC,065542.00,A,3727.0324387,N,12639.1233486,E,0.007,,191125,,,R,V*01
$GNVTG,,T,,M,0.007,N,0.013,K,D*3D
$GNGGA,065542.00,3727.0324387,N,12639.1233486,E,4,12,0.59,16.848,M,17.833,M,1.0,4095*5C
$GNGSA,A,3,04,16,26,27,31,08,09,28,,,,,1.15,0.59,0.99,1*03
$GNGSA,A,3,85,76,75,65,84,72,74,,,,,,1.15,0.59,0.99,2*0C
$GNGSA,A,3,05,09,06,04,31,,,,,,,,1.15,0.59,0.99,3*06
$GNGSA,A,3,32,23,16,09,34,39,25,10,11,06,07,,1.15,0.59,0.99,4*09
$GNGSA,A,3,02,,,,,,,,,,,,1.15,0.59,0.99,5*0E
$GPGSV,3,1,11,04,48,286,42,08,16,209,29,09,19,316,34,16,67,302,44,1*6E
$GPGSV,3,2,11,26,60,041,49,27,45,196,45,28,30,117,36,31,59,101,43,1*66
$GPGSV,3,3,11,41,27,238,37,42,33,230,38,50,47,179,40,1*58
$GPGSV,2,1,07,04,48,286,36,08,16,209,31,09,19,316,38,26,60,041,33,6*69
$GPGSV,2,2,07,27,45,196,34,28,30,117,28,31,59,101,33,6*53
$GPGSV,1,1,01,18,18,085,,0*59
$GLGSV,3,1,09,65,40,270,44,66,21,325,35,72,22,208,43,74,35,057,42,1*79
$GLGSV,3,2,09,75,53,340,49,76,14,285,43,83,06,022,20,84,34,066,46,1*74
$GLGSV,3,3,09,85,32,129,44,1*47
$GLGSV,2,1,07,66,21,325,32,72,22,208,34,75,53,340,41,76,14,285,34,3*7A
$GLGSV,2,2,07,83,06,022,17,84,34,066,34,85,32,129,27,3*49
$GLGSV,1,1,01,73,00,084,,0*40
$GAGSV,2,1,07,04,29,171,43,05,33,310,37,06,50,192,42,09,63,235,34,2*7E
$GAGSV,2,2,07,18,65,111,39,23,25,057,31,31,70,010,44,2*42
$GAGSV,2,1,07,04,29,171,36,05,33,310,39,06,50,192,44,09,63,235,46,7*74
$GAGSV,2,2,07,18,65,111,45,23,25,057,39,31,70,010,47,7*47
$GBGSV,2,1,08,09,55,316,43,11,43,093,29,16,74,350,46,23,66,335,49,1*78
$GBGSV,2,2,08,25,45,076,47,32,29,259,42,34,33,062,40,39,79,035,47,1*7E
$GBGSV,2,1,07,06,71,336,35,07,39,206,38,09,55,316,36,10,25,212,36,B*09
$GBGSV,2,2,07,11,43,093,37,16,74,350,34,32,29,259,07,B*3D
$GQGSV,1,1,02,02,78,106,47,07,47,179,37,1*61
$GQGSV,1,1,03,02,78,106,37,04,28,184,41,07,47,179,39,6*58
$GQGSV,1,1,01,03,15,155,,0*53
$GNRMC,065543.00,A,3727.0324392,N,12639.1233481,E,0.008,,191125,,,R,V*0C
$GNVTG,,T,,M,0.008,N,0.015,K,D*34
$GNGGA,065543.00,3727.0324392,N,12639.1233481,E,4,12,0.59,16.845,M,17.833,M,1.0,4095*53
$GNGSA,A,3,04,16,26,27,31,08,09,28,,,,,1.15,0.59,0.99,1*03
$GNGSA,A,3,85,76,75,65,84,72,74,,,,,,1.15,0.59,0.99,2*0C
$GNGSA,A,3,05,09,06,04,31,,,,,,,,1.15,0.59,0.99,3*06
$GNGSA,A,3,32,23,16,09,34,39,25,10,11,06,07,,1.15,0.59,0.99,4*09
$GNGSA,A,3,02,,,,,,,,,,,,1.15,0.59,0.99,5*0E
$GPGSV,3,1,11,04,48,286,42,08,16,209,28,09,19,316,35,16,67,302,44,1*6E
$GPGSV,3,2,11,26,60,041,49,27,45,196,45,28,30,117,36,31,59,101,43,1*66
$GPGSV,3,3,11,41,27,238,37,42,33,230,38,50,47,179,40,1*58
$GPGSV,2,1,07,04,48,286,39,08,16,209,31,09,19,316,40,26,60,041,34,6*6E
$GPGSV,2,2,07,27,45,196,36,28,30,117,29,31,59,101,34,6*57
$GPGSV,1,1,01,18,18,085,,0*59
$GLGSV,3,1,09,65,40,270,44,66,21,325,34,72,22,208,42,74,35,057,42,1*79
$GLGSV,3,2,09,75,53,340,49,76,14,285,43,83,05,021,20,84,34,066,46,1*74
$GLGSV,3,3,09,85,32,129,44,1*47
$GLGSV,2,1,07,66,21,325,34,72,22,208,37,75,53,340,43,76,14,285,35,3*7C
$GLGSV,2,2,07,83,05,021,18,84,34,066,35,85,32,129,27,3*47
$GLGSV,1,1,01,73,00,084,,0*40
$GAGSV,2,1,07,04,29,171,43,05,33,310,37,06,50,192,42,09,63,235,34,2*7E
$GAGSV,2,2,07,18,65,111,38,23,25,057,31,31,70,010,43,2*44
$GAGSV,2,1,07,04,29,171,36,05,33,310,40,06,50,192,44,09,63,235,46,7*7A
$GAGSV,2,2,07,18,65,111,45,23,25,057,39,31,70,010,47,7*47
$GBGSV,2,1,08,09,55,316,43,11,43,093,29,16,74,350,46,23,66,335,49,1*78
$GBGSV,2,2,08,25,45,076,47,32,29,259,42,34,33,062,39,39,79,035,47,1*70
$GBGSV,2,1,07,06,71,336,35,07,39,206,38,09,55,316,37,10,25,212,36,B*08
$GBGSV,2,2,07,11,43,093,37,16,74,350,34,32,29,259,07,B*3D
$GQGSV,1,1,02,02,78,106,47,07,47,179,37,1*61
$GQGSV,1,1,03,02,78,106,39,04,28,184,42,07,47,179,41,6*5A
$GQGSV,1,1,01,03,15,155,,0*53
$GNRMC,065544.00,A,3727.0324396,N,12639.1233481,E,0.002,,191125,,,R,V*05
$GNVTG,,T,,M,0.002,N,0.004,K,D*3E
$GNGGA,065544.00,3727.0324396,N,12639.1233481,E,4,12,0.59,16.852,M,17.833,M,1.0,4095*56
$GNGSA,A,3,04,16,26,27,31,08,09,28,,,,,1.15,0.59,0.99,1*03
$GNGSA,A,3,85,76,75,65,84,72,74,,,,,,1.15,0.59,0.99,2*0C
$GNGSA,A,3,05,09,06,04,31,,,,,,,,1.15,0.59,0.99,3*06
$GNGSA,A,3,32,23,16,09,34,39,25,10,11,06,07,,1.15,0.59,0.99,4*09
$GNGSA,A,3,02,,,,,,,,,,,,1.15,0.59,0.99,5*0E
$GPGSV,3,1,11,04,48,286,42,08,16,209,28,09,19,316,34,16,67,302,45,1*6E
$GPGSV,3,2,11,26,60,041,49,27,45,196,46,28,30,117,36,31,59,101,43,1*65
$GPGSV,3,3,11,41,27,238,37,42,33,230,39,50,47,179,40,1*59
$GPGSV,2,1,07,04,48,286,40,08,16,209,32,09,19,316,41,26,60,041,35,6*63
$GPGSV,2,2,07,27,45,196,35,28,30,117,30,31,59,101,34,6*5C
$GPGSV,1,1,01,18,18,085,,0*59
$GLGSV,3,1,09,65,40,270,44,66,21,325,33,72,22,208,42,74,35,057,42,1*7E
$GLGSV,3,2,09,75,53,340,49,76,14,285,43,83,05,021,19,84,34,066,46,1*7E
$GLGSV,3,3,09,85,32,129,44,1*47
$GLGSV,2,1,07,66,21,325,37,72,22,208,39,75,53,340,45,76,14,285,38,3*7A
$GLGSV,2,2,07,83,05,021,20,84,34,066,38,85,32,129,28,3*4E
$GLGSV,1,1,01,73,00,084,,0*40
$GAGSV,2,1,07,04,29,171,45,05,33,310,39,06,50,192,43,09,63,235,34,2*77
$GAGSV,2,2,07,18,65,111,40,23,25,057,30,31,70,010,45,2*4C
$GAGSV,2,1,07,04,29,171,36,05,33,310,40,06,50,192,44,09,63,235,46,7*7A
$GAGSV,2,2,07,18,65,111,45,23,25,057,39,31,70,010,47,7*47
$GBGSV,2,1,08,09,55,316,43,11,43,093,28,16,74,350,46,23,66,335,49,1*79
$GBGSV,2,2,08,25,45,076,47,32,29,259,42,34,33,062,39,39,79,035,47,1*70
$GBGSV,2,1,07,06,71,336,37,07,39,206,40,09,55,316,39,10,25,212,36,B*0B
$GBGSV,2,2,07,11,43,093,39,16,74,350,37,32,29,259,07,B*30
$GQGSV,1,1,02,02,78,106,47,07,47,179,37,1*61
$GQGSV,1,1,03,02,78,106,40,04,28,184,44,07,47,179,41,6*52
$GQGSV,1,1,01,03,15,155,,0*53
$GNRMC,065545.00,A,3727.0324397,N,12639.1233485,E,0.007,,191125,,,R,V*04
$GNVTG,,T,,M,0.007,N,0.014,K,D*3A
$GNGGA,065545.00,3727.0324397,N,12639.1233485,E,4,12,0.59,16.853,M,17.833,M,1.0,4095*53
$GNGSA,A,3,04,16,26,27,31,08,09,28,,,,,1.15,0.59,0.99,1*03
$GNGSA,A,3,85,76,75,65,84,72,74,,,,,,1.15,0.59,0.99,2*0C
$GNGSA,A,3,05,09,06,04,31,,,,,,,,1.15,0.59,0.99,3*06
$GNGSA,A,3,32,23,16,09,34,39,25,10,11,06,07,,1.15,0.59,0.99,4*09
$GNGSA,A,3,02,,,,,,,,,,,,1.15,0.59,0.99,5*0E
$GPGSV,3,1,11,04,48,286,42,08,16,209,28,09,19,316,33,16,67,302,45,1*69
$GPGSV,3,2,11,26,60,041,49,27,45,196,46,28,30,117,37,31,59,101,43,1*64
$GPGSV,3,3,11,41,27,238,38,42,33,230,39,50,47,179,40,1*56
$GPGSV,1,1,01,16,67,302,18,5*5F
$GPGSV,2,1,07,04,48,286,39,08,16,209,31,09,19,316,40,26,60,041,35,6*6F
$GPGSV,2,2,07,27,45,196,34,28,30,117,31,31,59,101,34,6*5C
$GPGSV,1,1,01,18,18,085,,0*59
$GLGSV,3,1,09,65,40,270,44,66,21,325,32,72,22,208,42,74,35,057,41,1*7C
$GLGSV,3,2,09,75,53,340,49,76,14,285,44,83,05,021,22,84,34,066,46,1*71
$GLGSV,3,3,09,85,33,129,44,1*46
$GLGSV,3,1,09,65,40,270,19,66,21,325,37,72,22,208,39,74,35,057,17,3*7C
$GLGSV,3,2,09,75,53,340,43,76,14,285,35,83,05,021,20,84,34,066,34,3*78
$GLGSV,3,3,09,85,33,129,28,3*4E
$GLGSV,1,1,01,73,00,084,,0*40
$GAGSV,2,1,07,04,29,171,43,05,33,310,38,06,50,192,42,09,63,235,33,2*76
$GAGSV,2,2,07,18,65,111,38,23,25,057,30,31,70,010,44,2*42
$GAGSV,2,1,07,04,29,171,36,05,33,310,40,06,50,192,44,09,63,235,46,7*7A
$GAGSV,2,2,07,18,65,111,45,23,25,057,39,31,70,010,47,7*47
$GBGSV,2,1,08,09,55,316,43,11,43,093,27,16,74,350,46,23,66,335,49,1*76
$GBGSV,2,2,08,25,45,076,47,32,29,259,42,34,33,062,39,39,79,035,47,1*70
$GBGSV,2,1,07,06,71,336,37,07,39,206,40,09,55,316,38,10,25,212,36,B*0A
$GBGSV,2,2,07,11,43,093,39,16,74,350,35,32,29,259,08,B*3D
$GQGSV,1,1,02,02,78,106,47,07,47,179,37,1*61
$GQGSV,1,1,03,02,78,106,39,04,28,184,42,07,47,179,40,6*5B
$GQGSV,1,1,01,03,15,155,,0*53
$GNRMC,065546.00,A,3727.0324385,N,12639.1233489,E,0.004,,191125,,,R,V*0B
$GNVTG,,T,,M,0.004,N,0.008,K,D*34
$GNGGA,065546.00,3727.0324385,N,12639.1233489,E,4,12,0.59,16.848,M,17.833,M,1.0,4095*55
$GNGSA,A,3,04,16,26,27,31,08,09,28,,,,,1.15,0.59,0.99,1*03
$GNGSA,A,3,85,76,75,65,84,72,74,,,,,,1.15,0.59,0.99,2*0C
$GNGSA,A,3,05,09,06,04,31,,,,,,,,1.15,0.59,0.99,3*06
$GNGSA,A,3,32,23,16,09,34,39,25,10,11,06,07,,1.15,0.59,0.99,4*09
$GNGSA,A,3,02,,,,,,,,,,,,1.15,0.59,0.99,5*0E
$GPGSV,3,1,11,04,48,286,42,08,16,209,28,09,19,316,34,16,67,302,45,1*6E
$GPGSV,3,2,11,26,60,041,49,27,45,196,46,28,30,117,37,31,59,101,43,1*64
$GPGSV,3,3,11,41,27,238,37,42,33,230,39,50,47,179,40,1*59
$GPGSV,1,1,01,18,18,085,14,5*59
$GPGSV,2,1,08,04,48,286,38,08,16,209,30,09,19,316,39,16,67,302,14,6*6D
$GPGSV,2,2,08,26,60,041,34,27,45,196,34,28,30,117,30,31,59,101,34,6*62
$GLGSV,3,1,09,65,40,270,44,66,21,325,32,72,22,208,42,74,35,057,41,1*7C
$GLGSV,3,2,09,75,53,340,49,76,14,285,45,83,05,021,24,84,34,066,47,1*77
$GLGSV,3,3,09,85,33,129,45,1*47
$GLGSV,3,1,09,65,40,270,16,66,21,325,35,72,22,208,39,74,35,057,15,3*73
$GLGSV,3,2,09,75,53,340,43,76,14,285,35,83,05,021,21,84,34,066,35,3*78
$GLGSV,3,3,09,85,33,129,27,3*41
$GLGSV,1,1,01,73,00,084,,0*40
$GAGSV,2,1,07,04,29,171,43,05,33,310,38,06,50,192,42,09,63,235,33,2*76
$GAGSV,2,2,07,18,65,111,38,23,25,057,30,31,70,010,44,2*42
$GAGSV,2,1,07,04,29,171,36,05,33,310,40,06,50,192,44,09,63,235,46,7*7A
$GAGSV,2,2,07,18,65,111,45,23,25,057,39,31,70,010,47,7*47
$GBGSV,2,1,08,09,55,316,43,11,43,093,25,16,74,350,46,23,66,335,49,1*74
$GBGSV,2,2,08,25,45,076,47,32,29,259,42,34,33,062,40,39,79,035,47,1*7E
$GBGSV,2,1,07,06,71,336,36,07,39,206,39,09,55,316,38,10,25,212,35,B*06
$GBGSV,2,2,07,11,43,093,39,16,74,350,34,32,29,259,08,B*3C
$GQGSV,1,1,02,02,78,106,47,07,47,179,37,1*61
$GQGSV,1,1,03,02,78,106,39,04,28,184,41,07,47,179,40,6*58
$GQGSV,1,1,01,03,15,155,,0*53
$GNRMC,065547.00,A,3727.0324378,N,12639.1233488,E,0.003,,191125,,,R,V*0E
$GNVTG,,T,,M,0.003,N,0.006,K,D*3D
$GNGGA,065547.00,3727.0324378,N,12639.1233488,E,4,12,0.59,16.850,M,17.833,M,1.0,4095*5E
$GNGSA,A,3,04,16,26,27,31,08,09,28,,,,,1.15,0.59,0.99,1*03
$GNGSA,A,3,85,76,75,65,84,72,74,,,,,,1.15,0.59,0.99,2*0C
$GNGSA,A,3,05,09,06,04,31,,,,,,,,1.15,0.59,0.99,3*06
$GNGSA,A,3,32,23,16,09,34,39,25,10,11,06,07,,1.15,0.59,0.99,4*09
$GNGSA,A,3,02,,,,,,,,,,,,1.15,0.59,0.99,5*0E
$GPGSV,3,1,11,04,48,286,42,08,16,209,28,09,19,316,33,16,67,302,45,1*69
$GPGSV,3,2,11,26,60,041,49,27,45,196,45,28,30,117,37,31,59,101,43,1*67
$GPGSV,3,3,11,41,27,238,38,42,33,230,39,50,47,179,40,1*56
$GPGSV,2,1,08,04,48,286,39,08,16,209,31,09,19,316,39,16,67,302,08,6*60
$GPGSV,2,2,08,26,60,041,34,27,45,196,34,28,30,117,30,31,59,101,33,6*65
$GPGSV,1,1,01,18,18,085,,0*59
$GLGSV,3,1,09,65,40,270,44,66,21,325,32,72,22,208,41,74,35,057,41,1*7F
$GLGSV,3,2,09,75,53,340,49,76,14,285,45,83,05,021,23,84,34,066,47,1*70
$GLGSV,3,3,09,85,33,129,45,1*47
$GLGSV,3,1,09,65,40,270,12,66,21,325,36,72,22,208,39,74,35,057,11,3*70
$GLGSV,3,2,09,75,53,340,43,76,14,285,37,83,05,021,20,84,34,066,34,3*7A
$GLGSV,3,3,09,85,33,129,26,3*40
$GLGSV,1,1,01,73,00,084,,0*40
$GAGSV,2,1,07,04,29,171,43,05,33,310,38,06,50,192,43,09,63,235,32,2*76
$GAGSV,2,2,07,18,65,111,39,23,25,057,30,31,70,010,44,2*43
$GAGSV,2,1,07,04,29,171,36,05,33,310,40,06,50,192,44,09,63,235,46,7*7A
$GAGSV,2,2,07,18,65,111,45,23,25,057,39,31,70,010,47,7*47
$GBGSV,2,1,08,09,55,316,43,11,43,093,24,16,74,350,46,23,66,335,49,1*75
$GBGSV,2,2,08,25,45,076,47,32,29,259,42,34,33,062,40,39,79,035,47,1*7E
$GBGSV,2,1,08,06,71,336,36,07,39,206,39,09,55,316,37,10,25,212,35,B*06
$GBGSV,2,2,08,11,43,093,39,16,74,350,34,32,29,259,08,34,33,062,13,B*02
$GQGSV,1,1,02,02,78,106,47,07,47,179,37,1*61
$GQGSV,1,1,03,02,78,106,38,04,28,184,41,07,47,179,40,6*59
$GQGSV,1,1,01,03,15,155,,0*53
$GNRMC,065548.00,A,3727.0324377,N,12639.1233485,E,0.008,,191125,,,R,V*08
$GNVTG,,T,,M,0.008,N,0.015,K,D*34
$GNGGA,065548.00,3727.0324377,N,12639.1233485,E,4,12,0.59,16.843,M,17.833,M,1.0,4095*51
$GNGSA,A,3,04,16,26,27,31,08,09,28,,,,,1.15,0.59,0.99,1*03
$GNGSA,A,3,85,76,75,65,84,72,74,,,,,,1.15,0.59,0.99,2*0C
$GNGSA,A,3,05,09,06,04,31,,,,,,,,1.15,0.59,0.99,3*06
$GNGSA,A,3,32,23,16,09,34,39,25,10,11,06,07,,1.15,0.59,0.99,4*09
$GNGSA,A,3,02,,,,,,,,,,,,1.15,0.59,0.99,5*0E
$GPGSV,3,1,11,04,48,286,42,08,16,209,28,09,19,316,33,16,67,302,45,1*69
$GPGSV,3,2,11,26,60,041,49,27,45,196,45,28,30,117,37,31,59,101,43,1*67
$GPGSV,3,3,11,41,27,238,37,42,33,230,39,50,47,179,40,1*59
$GPGSV,1,1,01,18,18,085,18,5*55
$GPGSV,2,1,08,04,48,286,38,08,16,209,31,09,19,316,39,16,67,302,08,6*61
$GPGSV,2,2,08,26,60,041,33,27,45,196,33,28,30,117,29,31,59,101,33,6*6D
$GLGSV,3,1,09,65,40,270,44,66,21,325,32,72,22,208,41,74,35,057,41,1*7F
$GLGSV,3,2,09,75,53,340,49,76,14,285,45,83,05,021,21,84,34,066,47,1*72
$GLGSV,3,3,09,85,33,129,45,1*47
$GLGSV,3,1,09,65,40,270,09,66,21,325,36,72,22,208,39,74,35,057,11,3*7A
$GLGSV,3,2,09,75,53,340,43,76,14,285,36,83,05,021,21,84,34,066,35,3*7B
$GLGSV,3,3,09,85,33,129,26,3*40
$GLGSV,1,1,01,73,00,084,,0*40
$GAGSV,2,1,07,04,29,171,44,05,33,310,39,06,50,192,43,09,63,235,32,2*70
$GAGSV,2,2,07,18,65,111,39,23,25,057,30,31,70,010,43,2*44
$GAGSV,2,1,07,04,29,171,36,05,33,310,40,06,50,192,44,09,63,235,46,7*7A
$GAGSV,2,2,07,18,65,111,46,23,25,057,39,31,70,010,47,7*44
$GBGSV,2,1,08,09,55,316,43,11,43,093,25,16,74,350,46,23,66,335,49,1*74
$GBGSV,2,2,08,25,45,076,47,32,29,259,42,34,33,062,40,39,79,035,47,1*7E
$GBGSV,2,1,07,06,71,336,37,07,39,206,39,09,55,316,37,10,25,212,35,B*08
$GBGSV,2,2,07,11,43,093,41,16,74,350,34,34,33,062,13,B*3E
$GQGSV,1,1,03,02,78,106,47,04,28,184,24,07,47,179,37,1*55
$GQGSV,1,1,03,02,78,106,38,04,28,184,41,07,47,179,40,6*59
$GQGSV,1,1,01,03,15,155,,0*53
$GNRMC,065549.00,A,3727.0324381,N,12639.1233500,E,0.005,,191125,,,R,V*01
$GNVTG,,T,,M,0.005,N,0.009,K,D*34
$GNGGA,065549.00,3727.0324381,N,12639.1233500,E,4,12,0.59,16.849,M,17.833,M,1.0,4095*5F
$GNGSA,A,3,04,16,26,27,31,08,09,28,,,,,1.15,0.59,0.99,1*03
$GNGSA,A,3,85,76,75,65,84,72,74,,,,,,1.15,0.59,0.99,2*0C
$GNGSA,A,3,05,09,06,04,31,,,,,,,,1.15,0.59,0.99,3*06
$GNGSA,A,3,32,23,16,09,34,39,25,10,11,06,07,,1.15,0.59,0.99,4*09
$GNGSA,A,3,02,,,,,,,,,,,,1.15,0.59,0.99,5*0E
$GPGSV,3,1,11,04,48,286,42,08,16,209,27,09,19,316,33,16,67,302,45,1*66
$GPGSV,3,2,11,26,60,041,49,27,45,196,45,28,30,117,37,31,59,101,43,1*67
$GPGSV,3,3,11,41,27,238,37,42,33,230,39,50,47,179,40,1*59
$GPGSV,3,1,09,04,48,286,38,08,16,209,31,09,19,316,39,16,67,302,08,6*61
$GPGSV,3,2,09,18,18,085,16,26,60,041,33,27,45,196,33,28,30,117,29,6*69
$GPGSV,3,3,09,31,59,101,32,6*55
$GLGSV,3,1,09,65,40,270,44,66,21,325,32,72,22,208,41,74,35,057,41,1*7F
$GLGSV,3,2,09,75,53,340,49,76,14,285,44,83,05,021,21,84,34,066,47,1*73
$GLGSV,3,3,09,85,33,129,45,1*47
$GLGSV,3,1,09,65,40,270,09,66,21,325,36,72,22,208,39,74,35,057,11,3*7A
$GLGSV,3,2,09,75,53,340,43,76,14,285,36,83,05,021,21,84,34,066,36,3*78
$GLGSV,3,3,09,85,33,129,26,3*40
$GLGSV,1,1,01,73,00,084,,0*40
$GAGSV,2,1,07,04,29,171,43,05,33,310,38,06,50,192,42,09,63,235,32,2*77
$GAGSV,2,2,07,18,65,111,39,23,25,057,30,31,70,010,43,2*44
$GAGSV,2,1,07,04,29,171,37,05,33,310,40,06,50,192,44,09,63,235,46,7*7B
$GAGSV,2,2,07,18,65,111,45,23,25,057,39,31,70,010,47,7*47
$GBGSV,2,1,08,09,55,316,43,11,43,093,29,16,74,350,46,23,66,335,49,1*78
$GBGSV,2,2,08,25,45,076,47,32,29,259,42,34,33,062,41,39,79,035,47,1*7F
$GBGSV,2,1,07,06,71,336,37,07,39,206,39,09,55,316,36,10,25,212,35,B*09
$GBGSV,2,2,07,11,43,093,41,16,74,350,33,34,33,062,11,B*3B
$GQGSV,1,1,03,02,78,106,47,04,28,184,23,07,47,179,37,1*52
$GQGSV,1,1,03,02,78,106,38,04,28,184,41,07,47,179,40,6*59
$GQGSV,1,1,01,03,15,155,,0*53
$GNRMC,065550.00,A,3727.0324393,N,12639.1233489,E,0.007,,191125,,,R,V*08
$GNVTG,,T,,M,0.007,N,0.013,K,D*3D
$GNGGA,065550.00,3727.0324393,N,12639.1233489,E,4,12,0.59,16.850,M,17.833,M,1.0,4095*5C
$GNGSA,A,3,04,16,26,27,31,08,09,28,,,,,1.15,0.59,0.99,1*03
$GNGSA,A,3,85,76,75,84,72,74,,,,,,,1.15,0.59,0.99,2*0F
$GNGSA,A,3,23,05,09,06,04,31,,,,,,,1.15,0.59,0.99,3*07
$GNGSA,A,3,32,23,16,09,34,39,25,10,11,06,07,,1.15,0.59,0.99,4*09
$GNGSA,A,3,02,,,,,,,,,,,,1.15,0.59,0.99,5*0E
$GPGSV,3,1,11,04,48,285,42,08,16,209,25,09,19,316,33,16,67,302,45,1*67
$GPGSV,3,2,11,26,60,041,49,27,45,196,46,28,30,117,37,31,59,101,42,1*65
$GPGSV,3,3,11,41,27,238,38,42,33,230,39,50,47,179,40,1*56
$GPGSV,2,1,08,04,48,285,39,08,16,209,31,09,19,316,39,18,18,085,14,6*64
$GPGSV,2,2,08,26,60,041,33,27,45,196,33,28,30,117,29,31,59,101,32,6*6C
$GLGSV,3,1,09,65,40,270,44,66,21,325,32,72,22,208,40,74,35,057,41,1*7E
$GLGSV,3,2,09,75,53,340,49,76,14,285,44,83,05,021,22,84,34,066,47,1*70
$GLGSV,3,3,09,85,33,129,45,1*47
$GLGSV,3,1,09,65,40,270,08,66,21,325,36,72,22,208,39,74,35,057,09,3*72
$GLGSV,3,2,09,75,53,340,43,76,14,285,35,83,05,021,19,84,34,066,36,3*70
$GLGSV,3,3,09,85,33,129,26,3*40
$GLGSV,1,1,01,73,00,084,,0*40
$GAGSV,2,1,07,04,29,171,43,05,33,310,39,06,50,192,42,09,63,235,32,2*76
$GAGSV,2,2,07,18,65,111,39,23,25,057,30,31,70,010,43,2*44
$GAGSV,2,1,07,04,29,171,37,05,33,310,40,06,50,192,44,09,63,235,46,7*7B
$GAGSV,2,2,07,18,65,111,45,23,25,057,39,31,70,010,47,7*47
$GBGSV,2,1,08,09,55,316,43,11,43,093,30,16,74,350,46,23,66,335,49,1*70
$GBGSV,2,2,08,25,45,076,47,32,29,259,42,34,33,062,41,39,79,035,47,1*7F
$GBGSV,2,1,07,06,71,336,37,07,39,206,39,09,55,316,37,10,25,212,34,B*09
$GBGSV,2,2,07,11,43,093,41,16,74,350,33,34,33,062,10,B*3A
$GQGSV,1,1,03,02,78,106,47,04,28,184,22,07,47,179,37,1*53
$GQGSV,1,1,03,02,78,106,38,04,28,184,41,07,47,179,40,6*59
$GQGSV,1,1,01,03,15,155,,0*53
$GNRMC,065551.00,A,3727.0324399,N,12639.1233481,E,0.011,,191125,,,R,V*0C
$GNVTG,,T,,M,0.011,N,0.020,K,D*3A
$GNGGA,065551.00,3727.0324399,N,12639.1233481,E,4,12,0.56,16.850,M,17.833,M,1.0,4095*50
$GNGSA,A,3,04,16,26,27,31,08,09,28,,,,,1.09,0.56,0.93,1*0B
$GNGSA,A,3,85,76,75,84,72,74,,,,,,,1.09,0.56,0.93,2*07
$GNGSA,A,3,23,05,09,06,04,31,,,,,,,1.09,0.56,0.93,3*0F
$GNGSA,A,3,32,23,16,09,34,39,25,10,11,06,07,,1.09,0.56,0.93,4*01
$GNGSA,A,3,02,,,,,,,,,,,,1.09,0.56,0.93,5*06
$GPGSV,3,1,11,04,48,285,42,08,17,209,24,09,19,316,33,16,67,302,45,1*67
$GPGSV,3,2,11,26,60,041,49,27,45,196,46,28,30,117,37,31,59,101,42,1*65
$GPGSV,3,3,11,41,27,238,37,42,33,230,39,50,47,179,40,1*59
$GPGSV,2,1,08,04,48,285,37,08,17,209,31,09,19,316,39,18,18,085,13,6*6C
$GPGSV,2,2,08,26,60,041,32,27,45,196,33,28,30,117,28,31,59,101,32,6*6C
$GLGSV,3,1,09,65,40,270,44,66,21,325,32,72,22,208,40,74,35,057,41,1*7E
$GLGSV,3,2,09,75,53,340,49,76,14,285,44,83,05,021,22,84,34,066,47,1*70
$GLGSV,3,3,09,85,33,129,45,1*47
$GLGSV,3,1,09,65,40,270,08,66,21,325,36,72,22,208,39,74,35,057,08,3*73
$GLGSV,3,2,09,75,53,340,43,76,14,285,34,83,05,021,18,84,34,066,37,3*71
$GLGSV,3,3,09,85,33,129,26,3*40
$GLGSV,1,1,01,73,00,084,,0*40
$GAGSV,2,1,07,04,29,171,43,05,33,310,39,06,50,192,42,09,63,235,32,2*76
$GAGSV,2,2,07,18,65,111,39,23,25,057,30,31,70,010,43,2*44
$GAGSV,2,1,07,04,29,171,36,05,33,310,40,06,50,192,44,09,63,235,46,7*7A
$GAGSV,2,2,07,18,65,111,46,23,25,057,39,31,70,010,47,7*44
$GBGSV,2,1,08,09,55,316,43,11,43,093,29,16,74,350,46,23,66,335,49,1*78
$GBGSV,2,2,08,25,45,076,47,32,29,259,42,34,33,062,41,39,79,035,47,1*7F
$GBGSV,2,1,07,06,71,336,36,07,39,206,39,09,55,316,37,10,25,212,34,B*08
$GBGSV,2,2,07,11,43,093,40,16,74,350,33,34,33,062,10,B*3B
$GQGSV,1,1,03,02,78,106,47,04,28,184,22,07,47,179,37,1*53
$GQGSV,1,1,03,02,78,106,38,04,28,184,41,07,47,179,40,6*59
$GQGSV,1,1,01,03,15,155,,0*53
$GNRMC,065552.00,A,3727.0324389,N,12639.1233474,E,0.004,,191125,,,R,V*00
$GNVTG,,T,,M,0.004,N,0.008,K,D*34
$GNGGA,065552.00,3727.0324389,N,12639.1233474,E,4,12,0.56,16.850,M,17.833,M,1.0,4095*58
$GNGSA,A,3,04,16,26,27,31,08,09,28,,,,,1.09,0.56,0.93,1*0B
$GNGSA,A,3,85,76,75,84,72,74,,,,,,,1.09,0.56,0.93,2*07
$GNGSA,A,3,23,05,09,06,04,31,,,,,,,1.09,0.56,0.93,3*0F
$GNGSA,A,3,32,23,16,09,34,39,25,10,11,06,07,,1.09,0.56,0.93,4*01
$GNGSA,A,3,02,,,,,,,,,,,,1.09,0.56,0.93,5*06
$GPGSV,3,1,11,04,48,285,42,08,17,209,22,09,20,316,32,16,67,302,45,1*6A
$GPGSV,3,2,11,26,60,041,49,27,45,196,46,28,30,117,37,31,59,101,42,1*65
$GPGSV,3,3,11,41,27,238,38,42,33,230,39,50,47,179,40,1*56
$GPGSV,2,1,08,04,48,285,39,08,17,209,30,09,20,316,38,18,18,085,13,6*68
$GPGSV,2,2,08,26,60,041,32,27,45,196,33,28,30,117,28,31,59,101,32,6*6C
$GLGSV,3,1,09,65,40,270,44,66,21,325,30,72,22,208,40,74,35,057,41,1*7C
$GLGSV,3,2,09,75,53,340,49,76,14,285,44,83,05,021,20,84,34,066,47,1*72
$GLGSV,3,3,09,85,33,129,45,1*47
$GLGSV,3,1,09,65,40,270,08,66,21,325,35,72,22,208,38,74,35,057,07,3*7E
$GLGSV,3,2,09,75,53,340,42,76,14,285,33,83,05,021,16,84,34,066,36,3*78
$GLGSV,3,3,09,85,33,129,26,3*40
$GLGSV,1,1,01,73,00,084,,0*40
$GAGSV,2,1,07,04,29,171,44,05,33,310,39,06,50,192,43,09,63,235,32,2*70
$GAGSV,2,2,07,18,65,111,39,23,25,057,30,31,70,010,44,2*43
$GAGSV,2,1,07,04,29,171,36,05,33,310,40,06,50,192,44,09,63,235,46,7*7A
$GAGSV,2,2,07,18,65,111,46,23,25,057,38,31,70,010,47,7*45
$GBGSV,2,1,08,09,55,316,43,11,43,093,30,16,74,350,46,23,66,335,49,1*70
$GBGSV,2,2,08,25,45,076,47,32,29,259,42,34,33,062,41,39,79,035,47,1*7F
$GBGSV,2,1,07,06,71,336,36,07,39,206,39,09,55,316,37,10,25,212,34,B*08
$GBGSV,2,2,07,11,43,093,40,16,74,350,33,34,33,062,09,B*33
$GQGSV,1,1,03,02,78,106,47,04,28,184,21,07,47,179,37,1*50
$GQGSV,1,1,03,02,78,106,38,04,28,184,41,07,47,179,40,6*59
$GQGSV,1,1,01,03,15,155,,0*53
$GNRMC,065553.00,A,3727.0324391,N,12639.1233481,E,0.003,,191125,,,R,V*05
$GNVTG,,T,,M,0.003,N,0.005,K,D*3E
$GNGGA,065553.00,3727.0324391,N,12639.1233481,E,4,12,0.56,16.855,M,17.833,M,1.0,4095*5F
$GNGSA,A,3,04,16,26,27,31,08,09,28,,,,,1.09,0.56,0.93,1*0B
$GNGSA,A,3,85,76,75,84,72,74,,,,,,,1.09,0.56,0.93,2*07
$GNGSA,A,3,23,05,09,06,04,31,,,,,,,1.09,0.56,0.93,3*0F
$GNGSA,A,3,32,23,16,09,34,39,25,10,11,06,07,,1.09,0.56,0.93,4*01
$GNGSA,A,3,02,,,,,,,,,,,,1.09,0.56,0.93,5*06
$GPGSV,3,1,11,04,48,285,42,08,17,209,22,09,20,316,32,16,67,303,45,1*6B
$GPGSV,3,2,11,26,60,041,49,27,45,196,46,28,30,117,36,31,59,101,42,1*64
$GPGSV,3,3,11,41,27,238,37,42,33,230,39,50,47,179,40,1*59
$GPGSV,2,1,08,04,48,285,39,08,17,209,29,09,20,316,39,18,18,085,12,6*60
$GPGSV,2,2,08,26,60,041,32,27,45,196,33,28,30,117,27,31,59,101,32,6*63
$GLGSV,3,1,09,65,40,270,44,66,21,325,30,72,22,208,40,74,35,057,40,1*7D
$GLGSV,3,2,09,75,53,340,49,76,14,285,44,83,05,021,18,84,34,066,47,1*79
$GLGSV,3,3,09,85,33,129,45,1*47
$GLGSV,3,1,09,65,40,270,07,66,21,325,34,72,22,208,38,74,35,057,07,3*70
$GLGSV,3,2,09,75,53,340,42,76,14,285,34,83,05,021,13,84,34,066,35,3*79
$GLGSV,3,3,09,85,33,129,25,3*43
$GLGSV,1,1,01,73,00,084,,0*40
$GAGSV,2,1,07,04,29,171,44,05,33,310,38,06,50,192,43,09,63,235,32,2*71
$GAGSV,2,2,07,18,65,111,40,23,25,057,30,31,70,010,44,2*4D
$GAGSV,2,1,07,04,29,171,36,05,33,310,40,06,50,192,44,09,63,235,46,7*7A
$GAGSV,2,2,07,18,65,111,45,23,25,057,38,31,70,010,47,7*46
$GBGSV,2,1,08,09,55,316,43,11,43,093,29,16,74,350,46,23,66,335,49,1*78
$GBGSV,2,2,08,25,45,076,47,32,29,259,42,34,33,062,41,39,79,035,47,1*7F
$GBGSV,2,1,07,06,71,336,36,07,39,206,39,09,55,316,38,10,25,212,35,B*06
$GBGSV,2,2,07,11,43,093,40,16,74,350,34,34,33,062,09,B*34
$GQGSV,1,1,03,02,78,106,47,04,28,184,18,07,47,179,37,1*5A
$GQGSV,1,1,03,02,78,106,38,04,28,184,41,07,47,179,40,6*59
$GQGSV,1,1,01,03,15,155,,0*53
$GNRMC,065554.00,A,3727.0324388,N,12639.1233466,E,0.008,,191125,,,R,V*08
$GNVTG,,T,,M,0.008,N,0.015,K,D*34
$GNGGA,065554.00,3727.0324388,N,12639.1233466,E,4,12,0.56,16.854,M,17.833,M,1.0,4095*58
$GNGSA,A,3,04,16,26,27,31,08,09,28,,,,,1.09,0.56,0.93,1*0B
$GNGSA,A,3,85,76,75,84,72,74,,,,,,,1.09,0.56,0.93,2*07
$GNGSA,A,3,23,05,09,06,04,31,,,,,,,1.09,0.56,0.93,3*0F
$GNGSA,A,3,32,23,16,09,34,39,25,10,11,06,07,,1.09,0.56,0.93,4*01
$GNGSA,A,3,02,,,,,,,,,,,,1.09,0.56,0.93,5*06
$GPGSV,3,1,11,04,48,285,42,08,17,209,20,09,20,316,31,16,67,303,45,1*6A
$GPGSV,3,2,11,26,60,041,49,27,45,196,45,28,30,117,36,31,59,101,43,1*66
$GPGSV,3,3,11,41,27,238,37,42,33,230,39,50,47,179,40,1*59
$GPGSV,2,1,08,04,48,285,38,08,17,209,29,09,20,316,39,18,18,085,13,6*60
$GPGSV,2,2,08,26,60,041,33,27,45,196,34,28,30,117,28,31,59,101,32,6*6A
$GLGSV,3,1,09,65,40,270,44,66,21,325,31,72,22,208,40,74,35,057,40,1*7C
$GLGSV,3,2,09,75,53,340,49,76,14,285,43,83,05,021,18,84,34,066,47,1*7E
$GLGSV,3,3,09,85,33,129,45,1*47
$GLGSV,2,1,08,65,40,270,07,66,21,325,34,72,22,208,39,74,35,057,07,3*71
$GLGSV,2,2,08,75,53,340,42,76,14,285,33,84,34,066,36,85,33,129,24,3*73
$GLGSV,1,1,01,73,00,084,,0*40
$GAGSV,2,1,07,04,29,171,44,05,33,310,39,06,50,192,43,09,63,235,31,2*73
$GAGSV,2,2,07,18,65,111,40,23,25,057,30,31,70,010,44,2*4D
$GAGSV,2,1,07,04,29,171,36,05,33,310,40,06,50,192,44,09,63,235,46,7*7A
$GAGSV,2,2,07,18,65,111,45,23,25,057,38,31,70,010,47,7*46
$GBGSV,2,1,08,09,55,316,43,11,43,093,29,16,74,350,46,23,66,335,49,1*78
$GBGSV,2,2,08,25,45,076,47,32,29,259,42,34,33,062,40,39,79,035,47,1*7E
$GBGSV,2,1,07,06,71,336,36,07,39,206,39,09,55,316,38,10,25,212,35,B*06
$GBGSV,2,2,07,11,43,093,40,16,74,350,34,34,33,062,08,B*35
$GQGSV,1,1,03,02,78,106,47,04,28,184,17,07,47,179,37,1*55
$GQGSV,1,1,03,02,78,106,38,04,28,184,41,07,47,179,40,6*59
$GQGSV,1,1,01,03,15,155,,0*53
$GNRMC,065555.00,A,3727.0324390,N,12639.1233475,E,0.009,,191125,,,R,V*03
$GNVTG,,T,,M,0.009,N,0.017,K,D*37
$GNGGA,065555.00,3727.0324390,N,12639.1233475,E,4,12,0.56,16.857,M,17.833,M,1.0,4095*51
$GNGSA,A,3,04,16,26,27,31,08,09,28,,,,,1.09,0.56,0.93,1*0B
$GNGSA,A,3,85,76,75,84,72,74,,,,,,,1.09,0.56,0.93,2*07
$GNGSA,A,3,23,05,09,06,04,31,,,,,,,1.09,0.56,0.93,3*0F
$GNGSA,A,3,32,23,16,09,34,39,25,10,11,06,07,,1.09,0.56,0.93,4*01
$GNGSA,A,3,02,,,,,,,,,,,,1.09,0.56,0.93,5*06
$GPGSV,3,1,11,04,48,285,42,08,17,209,20,09,20,316,32,16,67,303,45,1*69
$GPGSV,3,2,11,26,60,041,49,27,45,196,45,28,30,117,36,31,59,101,43,1*66
$GPGSV,3,3,11,41,27,238,38,42,33,230,39,50,47,179,40,1*56
$GPGSV,2,1,08,04,48,285,38,08,17,209,30,09,20,316,39,18,18,085,15,6*6E
$GPGSV,2,2,08,26,60,041,33,27,45,196,34,28,30,117,30,31,59,101,32,6*63
$GLGSV,3,1,09,65,40,270,44,66,21,325,31,72,22,208,40,74,35,057,41,1*7D
$GLGSV,3,2,09,75,53,340,49,76,14,285,43,83,05,021,21,84,34,066,47,1*74
$GLGSV,3,3,09,85,33,129,45,1*47
$GLGSV,2,1,08,65,40,270,07,66,21,325,34,72,22,208,39,74,35,057,07,3*71
$GLGSV,2,2,08,75,53,340,42,76,14,285,32,84,34,066,36,85,33,129,23,3*75
$GLGSV,1,1,01,73,00,084,,0*40
$GAGSV,2,1,07,04,29,171,43,05,33,310,39,06,50,192,43,09,63,235,31,2*74
$GAGSV,2,2,07,18,65,111,39,23,25,057,30,31,70,010,44,2*43
$GAGSV,2,1,07,04,29,171,36,05,33,310,40,06,50,192,44,09,63,235,46,7*7A
$GAGSV,2,2,07,18,65,111,45,23,25,057,38,31,70,010,47,7*46
$GBGSV,2,1,08,09,55,316,43,11,43,093,28,16,74,350,46,23,66,335,49,1*79
$GBGSV,2,2,08,25,45,076,47,32,29,259,42,34,33,062,40,39,79,035,47,1*7E
$GBGSV,2,1,07,06,71,336,36,07,39,206,39,09,55,316,38,10,25,212,35,B*06
$GBGSV,2,2,07,11,43,093,39,16,74,350,34,34,33,062,08,B*3B
$GQGSV,1,1,03,02,78,106,47,04,28,184,20,07,47,179,37,1*51
$GQGSV,1,1,03,02,78,106,38,04,28,184,41,07,47,179,40,6*59
$GQGSV,1,1,01,03,15,155,,0*53
$GNRMC,065556.00,A,3727.0324409,N,12639.1233467,E,0.014,,191125,,,R,V*08
$GNVTG,,T,,M,0.014,N,0.025,K,D*3A
$GNGGA,065556.00,3727.0324409,N,12639.1233467,E,4,12,0.56,16.853,M,17.833,M,1.0,4095*52
$GNGSA,A,3,04,16,26,27,31,08,09,28,,,,,1.09,0.56,0.93,1*0B
$GNGSA,A,3,85,76,75,84,72,74,,,,,,,1.09,0.56,0.93,2*07
$GNGSA,A,3,23,05,09,06,04,31,,,,,,,1.09,0.56,0.93,3*0F
$GNGSA,A,3,32,23,16,09,34,39,25,10,11,06,07,,1.09,0.56,0.93,4*01
$GNGSA,A,3,02,,,,,,,,,,,,1.09,0.56,0.93,5*06
$GPGSV,3,1,11,04,48,285,42,08,17,209,22,09,20,316,33,16,67,303,45,1*6A
$GPGSV,3,2,11,26,60,041,49,27,45,196,45,28,30,117,37,31,59,101,43,1*67
$GPGSV,3,3,11,41,27,238,38,42,33,230,39,50,47,179,40,1*56
$GPGSV,2,1,08,04,48,285,38,08,17,209,30,09,20,316,39,18,18,085,17,6*6C
$GPGSV,2,2,08,26,60,041,33,27,45,196,33,28,30,117,30,31,59,101,32,6*64
$GLGSV,3,1,09,65,40,270,44,66,21,325,32,72,22,208,39,74,35,057,40,1*71
$GLGSV,3,2,09,75,53,340,49,76,14,285,43,83,05,021,25,84,34,066,46,1*71
$GLGSV,3,3,09,85,33,129,45,1*47
$GLGSV,2,1,07,65,40,270,08,66,21,325,35,72,22,208,40,75,53,340,43,3*7A
$GLGSV,2,2,07,76,14,285,32,84,34,066,37,85,33,129,23,3*4E
$GLGSV,1,1,01,73,00,084,,0*40
$GAGSV,2,1,07,04,29,171,44,05,33,310,38,06,50,192,43,09,63,235,32,2*71
$GAGSV,2,2,07,18,65,111,39,23,25,057,31,31,70,010,44,2*42
$GAGSV,2,1,07,04,29,171,36,05,33,310,40,06,50,192,44,09,63,235,46,7*7A
$GAGSV,2,2,07,18,65,111,45,23,25,057,38,31,70,010,47,7*46
$GBGSV,2,1,08,09,55,316,43,11,43,093,27,16,74,350,46,23,66,335,49,1*76
$GBGSV,2,2,08,25,45,076,47,32,29,259,41,34,33,062,40,39,79,035,47,1*7D
$GBGSV,2,1,07,06,71,336,36,07,39,206,39,09,55,316,38,10,25,212,35,B*06
$GBGSV,2,2,07,11,43,093,39,16,74,350,34,34,33,062,08,B*3B
$GQGSV,1,1,03,02,78,106,47,04,28,184,20,07,47,179,37,1*51
$GQGSV,1,1,03,02,78,106,38,04,28,184,41,07,47,179,40,6*59
$GQGSV,1,1,01,03,15,155,,0*53
$GNRMC,065557.00,A,3727.0324417,N,12639.1233467,E,0.005,,191125,,,R,V*06
$GNVTG,,T,,M,0.005,N,0.009,K,D*34
$GNGGA,065557.00,3727.0324417,N,12639.1233467,E,4,12,0.56,16.842,M,17.833,M,1.0,4095*5C
$GNGSA,A,3,04,16,26,27,31,08,09,28,,,,,1.09,0.56,0.93,1*0B
$GNGSA,A,3,85,76,75,84,72,74,,,,,,,1.09,0.56,0.93,2*07
$GNGSA,A,3,23,05,09,06,04,31,,,,,,,1.09,0.56,0.93,3*0F
$GNGSA,A,3,32,23,16,09,34,39,25,10,11,06,07,,1.09,0.56,0.93,4*01
$GNGSA,A,3,02,,,,,,,,,,,,1.09,0.56,0.93,5*06
$GPGSV,3,1,11,04,48,285,42,08,17,209,22,09,20,316,32,16,67,303,45,1*6B
$GPGSV,3,2,11,26,60,041,49,27,45,196,45,28,30,117,37,31,59,101,43,1*67
$GPGSV,3,3,11,41,27,238,38,42,33,230,39,50,47,179,40,1*56
$GPGSV,2,1,08,04,48,285,38,08,17,209,31,09,20,316,39,18,18,085,17,6*6D
$GPGSV,2,2,08,26,60,041,33,27,45,196,34,28,30,117,30,31,59,101,32,6*63
$GLGSV,3,1,09,65,40,270,44,66,21,325,35,72,22,208,40,74,35,057,40,1*78
$GLGSV,3,2,09,75,53,340,49,76,14,285,42,83,05,021,27,84,34,066,46,1*72
$GLGSV,3,3,09,85,33,129,45,1*47
$GLGSV,2,1,07,65,40,270,08,66,21,325,36,72,22,208,40,75,53,340,44,3*7E
$GLGSV,2,2,07,76,14,285,33,84,34,066,37,85,33,129,25,3*49
$GLGSV,1,1,01,73,00,084,,0*40
$GAGSV,2,1,07,04,29,171,44,05,33,310,38,06,50,192,43,09,63,235,32,2*71
$GAGSV,2,2,07,18,65,111,39,23,25,057,31,31,70,010,44,2*42
$GAGSV,2,1,07,04,29,171,36,05,33,310,40,06,50,192,44,09,63,235,46,7*7A
$GAGSV,2,2,07,18,65,111,45,23,25,057,38,31,70,010,47,7*46
$GBGSV,2,1,08,09,55,316,43,11,43,093,27,16,74,350,46,23,66,335,49,1*76
$GBGSV,2,2,08,25,45,076,47,32,29,259,41,34,33,062,39,39,79,035,47,1*73
$GBGSV,2,1,07,06,71,336,36,07,39,206,39,09,55,316,37,10,25,212,34,B*08
$GBGSV,2,2,07,11,43,093,39,16,74,350,34,34,33,062,08,B*3B
$GQGSV,1,1,03,02,78,106,47,04,28,184,21,07,47,179,37,1*50
$GQGSV,1,1,03,02,78,106,38,04,28,184,41,07,47,179,40,6*59
$GQGSV,1,1,01,03,15,155,,0*53
$GNRMC,065558.00,A,3727.0324398,N,12639.1233485,E,0.009,,191125,,,R,V*09
$GNVTG,,T,,M,0.009,N,0.017,K,D*37
$GNGGA,065558.00,3727.0324398,N,12639.1233485,E,4,12,0.56,16.853,M,17.833,M,1.0,4095*5F
$GNGSA,A,3,04,16,26,27,31,08,09,28,,,,,1.09,0.56,0.93,1*0B
$GNGSA,A,3,85,76,75,84,72,74,,,,,,,1.09,0.56,0.93,2*07
$GNGSA,A,3,23,05,09,06,04,31,,,,,,,1.09,0.56,0.93,3*0F
$GNGSA,A,3,32,23,16,09,34,39,25,10,11,06,07,,1.09,0.56,0.93,4*01
$GNGSA,A,3,02,,,,,,,,,,,,1.09,0.56,0.93,5*06
$GPGSV,3,1,11,04,48,285,42,08,17,209,23,09,20,316,31,16,67,303,45,1*69
$GPGSV,3,2,11,26,60,041,49,27,45,196,45,28,30,117,37,31,59,101,43,1*67
$GPGSV,3,3,11,41,27,238,38,42,33,230,39,50,47,179,40,1*56
$GPGSV,2,1,08,04,48,285,38,08,17,209,31,09,20,316,39,18,18,085,17,6*6D
$GPGSV,2,2,08,26,60,041,33,27,45,196,34,28,30,117,31,31,59,101,31,6*61
$GLGSV,3,1,09,65,40,270,44,66,21,325,34,72,22,208,40,74,35,057,40,1*79
$GLGSV,3,2,09,75,53,340,48,76,14,285,44,83,05,021,27,84,34,066,46,1*75
$GLGSV,3,3,09,85,33,129,45,1*47
$GLGSV,2,1,06,66,21,325,35,72,22,208,41,75,53,340,43,76,14,285,32,3*7A
$GLGSV,2,2,06,84,34,066,37,85,33,129,26,3*70
$GLGSV,1,1,01,73,00,084,,0*40
$GAGSV,2,1,07,04,29,171,43,05,33,310,39,06,50,192,43,09,63,235,32,2*77
$GAGSV,2,2,07,18,65,111,39,23,25,057,31,31,70,010,44,2*42
$GAGSV,2,1,07,04,29,171,36,05,33,310,40,06,50,192,43,09,63,235,46,7*7D
$GAGSV,2,2,07,18,65,111,45,23,25,057,38,31,70,010,47,7*46
$GBGSV,2,1,08,09,55,316,43,11,43,093,27,16,74,350,46,23,66,335,49,1*76
$GBGSV,2,2,08,25,45,076,47,32,29,259,41,34,33,062,40,39,79,035,47,1*7D
$GBGSV,2,1,06,06,71,336,36,07,39,206,40,09,55,316,38,10,25,212,35,B*09
$GBGSV,2,2,06,11,43,093,39,16,74,350,34,B*01
$GQGSV,1,1,03,02,78,106,47,04,28,184,19,07,47,179,37,1*5B
$GQGSV,1,1,03,02,78,106,38,04,28,184,41,07,47,179,40,6*59
$GQGSV,1,1,01,03,15,155,,0*53
$GNRMC,065559.00,A,3727.0324392,N,12639.1233484,E,0.006,,191125,,,R,V*0C
$GNVTG,,T,,M,0.006,N,0.011,K,D*3E
$GNGGA,065559.00,3727.0324392,N,12639.1233484,E,4,12,0.56,16.856,M,17.833,M,1.0,4095*50
$GNGSA,A,3,04,16,26,27,31,08,09,28,,,,,1.09,0.56,0.93,1*0B
$GNGSA,A,3,85,76,75,84,72,74,,,,,,,1.09,0.56,0.93,2*07
$GNGSA,A,3,23,05,09,06,04,31,,,,,,,1.09,0.56,0.93,3*0F
$GNGSA,A,3,32,23,16,09,34,39,25,10,11,06,07,,1.09,0.56,0.93,4*01
$GNGSA,A,3,02,,,,,,,,,,,,1.09,0.56,0.93,5*06
$GPGSV,3,1,11,04,48,285,42,08,17,209,22,09,20,316,30,16,67,303,45,1*69
$GPGSV,3,2,11,26,60,041,49,27,45,196,45,28,30,117,36,31,59,101,43,1*66
$GPGSV,3,3,11,41,27,238,39,42,33,230,40,50,47,179,40,1*59
$GPGSV,2,1,08,04,48,285,38,08,17,209,32,09,20,316,39,18,18,085,20,6*6A
$GPGSV,2,2,08,26,60,041,33,27,45,196,34,28,30,117,31,31,59,101,31,6*61
$GLGSV,3,1,09,65,40,270,44,66,21,325,35,72,22,208,40,74,35,057,39,1*76
$GLGSV,3,2,09,75,53,340,48,76,14,285,44,83,05,021,24,84,34,066,47,1*77
$GLGSV,3,3,09,85,33,129,45,1*47
$GLGSV,2,1,06,66,21,325,34,72,22,208,41,75,53,340,43,76,14,285,32,3*7B
$GLGSV,2,2,06,84,34,066,37,85,33,129,25,3*73
$GLGSV,1,1,01,73,00,084,,0*40
$GAGSV,2,1,07,04,29,171,44,05,33,310,39,06,50,192,42,09,63,235,32,2*71
$GAGSV,2,2,07,18,65,111,39,23,25,057,30,31,70,010,44,2*43
$GAGSV,2,1,07,04,29,171,36,05,33,310,40,06,50,192,43,09,63,235,46,7*7D
$GAGSV,2,2,07,18,65,111,46,23,25,057,37,31,70,010,47,7*4A
$GBGSV,2,1,08,09,55,316,43,11,43,093,29,16,74,350,46,23,66,335,49,1*78
$GBGSV,2,2,08,25,45,076,47,32,29,259,41,34,33,062,40,39,79,035,47,1*7D
$GBGSV,2,1,06,06,71,336,36,07,39,206,39,09,55,316,37,10,25,212,34,B*09
$GBGSV,2,2,06,11,43,093,39,16,74,350,34,B*01
$GQGSV,1,1,03,02,78,106,47,04,28,184,17,07,47,179,37,1*55
$GQGSV,1,1,03,02,78,106,38,04,28,184,41,07,47,179,40,6*59
$GQGSV,1,1,01,03,15,155,,0*53
$GNRMC,065600.00,A,3727.0324398,N,12639.1233476,E,0.006,,191125,,,R,V*04
$GNVTG,,T,,M,0.006,N,0.011,K,D*3E
$GNGGA,065600.00,3727.0324398,N,12639.1233476,E,4,12,0.56,16.855,M,17.833,M,1.0,4095*5B
$GNGSA,A,3,04,16,26,27,31,08,09,28,,,,,1.09,0.56,0.93,1*0B
$GNGSA,A,3,85,76,75,84,72,74,,,,,,,1.09,0.56,0.93,2*07
$GNGSA,A,3,23,05,09,06,04,31,,,,,,,1.09,0.56,0.93,3*0F
$GNGSA,A,3,32,23,16,09,34,39,25,10,11,06,07,,1.09,0.56,0.93,4*01
$GNGSA,A,3,02,,,,,,,,,,,,1.09,0.56,0.93,5*06
$GPGSV,3,1,11,04,48,285,42,08,17,209,22,09,20,316,30,16,67,303,45,1*69
$GPGSV,3,2,11,26,59,042,49,27,45,196,45,28,30,117,36,31,59,101,43,1*6F
$GPGSV,3,3,11,41,27,238,38,42,33,230,40,50,47,179,40,1*58
$GPGSV,2,1,08,04,48,285,38,08,17,209,32,09,20,316,38,18,18,085,21,6*6A
$GPGSV,2,2,08,26,59,042,33,27,45,196,34,28,30,117,31,31,59,101,31,6*68
$GLGSV,3,1,09,65,40,270,44,66,21,325,35,72,22,208,41,74,35,057,39,1*77
$GLGSV,3,2,09,75,53,340,48,76,14,285,44,83,05,021,21,84,34,066,47,1*72
$GLGSV,3,3,09,85,33,129,45,1*47
$GLGSV,2,1,06,66,21,325,33,72,22,208,41,75,53,340,43,76,14,285,32,3*7C
$GLGSV,2,2,06,84,34,066,37,85,33,129,24,3*72
$GLGSV,1,1,01,73,00,084,,0*40
$GAGSV,2,1,07,04,29,171,43,05,33,310,39,06,50,192,43,09,63,235,31,2*74
$GAGSV,2,2,07,18,65,111,39,23,25,057,30,31,70,010,44,2*43
$GAGSV,2,1,07,04,29,171,36,05,33,310,40,06,50,192,44,09,63,235,46,7*7A
$GAGSV,2,2,07,18,65,111,45,23,25,057,37,31,70,010,47,7*49
$GBGSV,2,1,08,09,55,316,43,11,43,093,30,16,74,350,46,23,66,335,49,1*70
$GBGSV,2,2,08,25,45,076,47,32,29,259,41,34,33,062,40,39,79,035,47,1*7D
$GBGSV,2,1,06,06,71,336,36,07,39,206,39,09,55,316,37,10,25,212,34,B*09
$GBGSV,2,2,06,11,43,093,40,16,74,350,34,B*0F
$GQGSV,1,1,03,02,78,106,47,03,15,155,25,07,47,179,37,1*51
$GQGSV,1,1,03,02,78,106,38,04,28,184,41,07,47,179,39,6*57
$GNRMC,065601.00,A,3727.0324389,N,12639.1233473,E,0.002,,191125,,,R,V*04
$GNVTG,,T,,M,0.002,N,0.004,K,D*3E
$GNGGA,065601.00,3727.0324389,N,12639.1233473,E,4,12,0.56,16.849,M,17.833,M,1.0,4095*52
$GNGSA,A,3,04,16,26,27,31,08,09,28,,,,,1.09,0.56,0.93,1*0B
$GNGSA,A,3,85,76,75,84,72,74,,,,,,,1.09,0.56,0.93,2*07
$GNGSA,A,3,23,05,09,06,04,31,,,,,,,1.09,0.56,0.93,3*0F
$GNGSA,A,3,32,23,16,09,34,39,25,10,11,06,07,,1.09,0.56,0.93,4*01
$GNGSA,A,3,02,,,,,,,,,,,,1.09,0.56,0.93,5*06
$GPGSV,3,1,11,04,48,285,43,08,17,209,22,09,20,316,29,16,67,303,45,1*60
$GPGSV,3,2,11,26,59,042,49,27,46,196,45,28,30,117,37,31,59,101,43,1*6D
$GPGSV,3,3,11,41,27,238,38,42,33,230,40,50,47,179,40,1*58
$GPGSV,2,1,08,04,48,285,38,08,17,209,31,09,20,316,39,18,18,085,21,6*68
$GPGSV,2,2,08,26,59,042,33,27,46,196,34,28,30,117,31,31,59,101,31,6*6B
$GLGSV,3,1,09,65,40,270,44,66,21,325,35,72,22,208,40,74,35,057,39,1*76
$GLGSV,3,2,09,75,53,340,48,76,14,285,45,83,05,021,19,84,34,066,46,1*79
$GLGSV,3,3,09,85,33,129,45,1*47
$GLGSV,2,1,06,66,21,325,33,72,22,208,41,75,53,340,43,76,14,285,31,3*7F
$GLGSV,2,2,06,84,34,066,37,85,33,129,25,3*73
$GLGSV,1,1,01,73,00,084,,0*40
$GAGSV,2,1,07,04,29,171,43,05,33,310,40,06,50,192,43,09,63,235,31,2*7A
$GAGSV,2,2,07,18,65,111,39,23,25,057,30,31,70,010,43,2*44
$GAGSV,2,1,07,04,29,171,36,05,33,310,40,06,50,192,43,09,63,235,46,7*7D
$GAGSV,2,2,07,18,65,111,45,23,25,057,37,31,70,010,47,7*49
$GBGSV,2,1,08,09,55,316,43,11,43,093,30,16,74,350,46,23,66,335,49,1*70
$GBGSV,2,2,08,25,45,076,47,32,29,259,40,34,33,062,41,39,79,035,47,1*7D
$GBGSV,2,1,06,06,71,336,36,07,39,206,39,09,55,316,37,10,25,212,34,B*09
$GBGSV,2,2,06,11,43,093,40,16,74,350,34,B*0F
$GQGSV,1,1,02,02,78,106,47,07,47,179,37,1*61
$GQGSV,1,1,03,02,78,106,38,04,28,184,41,07,47,179,39,6*57
$GQGSV,1,1,01,03,15,155,,0*53
$GNRMC,065602.00,A,3727.0324424,N,12639.1233450,E,0.012,,191125,,,R,V*07
$GNVTG,,T,,M,0.012,N,0.023,K,D*3A
$GNGGA,065602.00,3727.0324424,N,12639.1233450,E,4,12,0.56,16.843,M,17.833,M,1.0,4095*5A
$GNGSA,A,3,04,16,26,27,31,08,09,28,,,,,1.09,0.56,0.93,1*0B
$GNGSA,A,3,85,76,75,84,72,74,,,,,,,1.09,0.56,0.93,2*07
$GNGSA,A,3,23,05,09,06,04,31,,,,,,,1.09,0.56,0.93,3*0F
$GNGSA,A,3,32,23,16,09,34,39,25,10,11,06,07,,1.09,0.56,0.93,4*01
$GNGSA,A,3,02,,,,,,,,,,,,1.09,0.56,0.93,5*06
$GPGSV,3,1,11,04,48,285,43,08,17,209,22,09,20,316,29,16,67,303,45,1*60
$GPGSV,3,2,11,26,59,042,49,27,46,196,45,28,29,117,36,31,59,101,43,1*64
$GPGSV,3,3,11,41,27,238,38,42,33,230,40,50,47,179,40,1*58
$GPGSV,2,1,08,04,48,285,38,08,17,209,32,09,20,316,39,18,18,085,21,6*6B
$GPGSV,2,2,08,26,59,042,33,27,46,196,34,28,29,117,30,31,59,101,32,6*61
$GLGSV,3,1,09,65,40,270,44,66,21,325,35,72,22,208,40,74,35,057,39,1*76
$GLGSV,3,2,09,75,53,340,47,76,14,285,45,83,05,021,19,84,34,066,46,1*76
$GLGSV,3,3,09,85,33,129,45,1*47
$GLGSV,2,1,06,66,21,325,33,72,22,208,40,75,53,340,43,76,14,285,33,3*7C
$GLGSV,2,2,06,84,34,066,37,85,33,129,26,3*70
$GLGSV,1,1,01,73,00,084,,0*40
$GAGSV,2,1,07,04,29,171,43,05,33,310,40,06,50,192,43,09,63,235,31,2*7A
$GAGSV,2,2,07,18,65,111,38,23,25,057,31,31,70,010,44,2*43
$GAGSV,2,1,07,04,29,171,35,05,33,310,40,06,50,192,43,09,63,235,46,7*7E
$GAGSV,2,2,07,18,65,111,45,23,25,057,37,31,70,010,47,7*49
$GBGSV,2,1,08,09,55,316,43,11,43,093,30,16,74,350,46,23,66,335,49,1*70
$GBGSV,2,2,08,25,45,076,47,32,29,259,41,34,33,062,41,39,79,035,47,1*7C
$GBGSV,2,1,06,06,71,336,37,07,39,206,39,09,55,316,37,10,25,212,34,B*08
$GBGSV,2,2,06,11,43,093,40,16,74,350,34,B*0F
$GQGSV,1,1,02,02,78,106,47,07,47,179,37,1*61
$GQGSV,1,1,03,02,78,106,38,04,28,184,41,07,47,179,39,6*57
$GQGSV,1,1,01,03,15,155,,0*53
$GNRMC,065603.00,A,3727.0324417,N,12639.1233464,E,0.007,,191125,,,R,V*05
$GNVTG,,T,,M,0.007,N,0.013,K,D*3D
$GNGGA,065603.00,3727.0324417,N,12639.1233464,E,4,12,0.56,16.842,M,17.833,M,1.0,4095*5D
$GNGSA,A,3,04,16,26,27,31,08,09,28,,,,,1.09,0.56,0.93,1*0B
$GNGSA,A,3,85,76,75,84,72,74,,,,,,,1.09,0.56,0.93,2*07
$GNGSA,A,3,23,05,09,06,04,31,,,,,,,1.09,0.56,0.93,3*0F
$GNGSA,A,3,32,23,16,09,34,39,25,10,11,06,07,,1.09,0.56,0.93,4*01
$GNGSA,A,3,02,,,,,,,,,,,,1.09,0.56,0.93,5*06
$GPGSV,3,1,11,04,48,285,43,08,17,209,24,09,20,316,29,16,67,303,45,1*66
$GPGSV,3,2,11,26,59,042,49,27,46,196,45,28,29,117,36,31,59,102,43,1*67
$GPGSV,3,3,11,41,27,238,38,42,33,230,39,50,47,179,40,1*56
$GPGSV,2,1,08,04,48,285,38,08,17,209,33,09,20,316,39,18,18,085,20,6*6B
$GPGSV,2,2,08,26,59,042,33,27,46,196,33,28,29,117,30,31,59,102,31,6*66
$GLGSV,3,1,09,65,40,270,44,66,21,325,35,72,22,208,40,74,35,057,39,1*76
$GLGSV,3,2,09,75,53,340,47,76,14,285,45,83,05,021,22,84,34,066,46,1*7E
$GLGSV,3,3,09,85,33,129,45,1*47
$GLGSV,2,1,06,66,21,325,31,72,22,208,40,75,53,340,43,76,14,285,32,3*7F
$GLGSV,2,2,06,84,34,066,36,85,33,129,27,3*70
$GLGSV,1,1,01,73,00,084,,0*40
$GAGSV,2,1,07,04,29,171,44,05,33,310,39,06,50,192,42,09,63,235,31,2*72
$GAGSV,2,2,07,18,65,111,39,23,25,057,31,31,70,010,44,2*42
$GAGSV,2,1,07,04,29,171,35,05,33,310,40,06,50,192,43,09,63,235,46,7*7E
$GAGSV,2,2,07,18,65,111,45,23,25,057,37,31,70,010,47,7*49
$GBGSV,2,1,08,09,55,316,43,11,43,093,30,16,74,350,46,23,66,335,49,1*70
$GBGSV,2,2,08,25,45,076,47,32,29,259,41,34,33,062,40,39,79,035,47,1*7D
$GBGSV,2,1,06,06,71,336,36,07,39,206,39,09,55,316,37,10,25,212,35,B*08
$GBGSV,2,2,06,11,43,093,40,16,74,350,34,B*0F
$GQGSV,1,1,02,02,78,106,47,07,47,179,37,1*61
$GQGSV,1,1,03,02,78,106,39,04,28,184,41,07,47,179,40,6*58
$GQGSV,1,1,01,03,15,155,,0*53
$GNRMC,065604.00,A,3727.0324404,N,12639.1233463,E,0.004,,191125,,,R,V*04
$GNVTG,,T,,M,0.004,N,0.008,K,D*34
$GNGGA,065604.00,3727.0324404,N,12639.1233463,E,4,12,0.56,16.839,M,17.833,M,1.0,4095*53
$GNGSA,A,3,04,16,26,27,31,08,09,28,,,,,1.09,0.56,0.93,1*0B
$GNGSA,A,3,85,76,75,84,72,74,,,,,,,1.09,0.56,0.93,2*07
$GNGSA,A,3,23,05,09,06,04,31,,,,,,,1.09,0.56,0.93,3*0F
$GNGSA,A,3,32,23,16,09,34,39,25,10,11,06,07,,1.09,0.56,0.93,4*01
$GNGSA,A,3,02,,,,,,,,,,,,1.09,0.56,0.93,5*06
$GPGSV,3,1,11,04,48,285,43,08,17,209,27,09,20,316,29,16,67,303,45,1*65
$GPGSV,3,2,11,26,59,042,49,27,46,196,45,28,29,117,35,31,59,102,43,1*64
$GPGSV,3,3,11,41,27,238,38,42,33,230,39,50,47,179,40,1*56
$GPGSV,2,1,08,04,48,285,37,08,17,209,33,09,20,316,39,18,18,085,18,6*6F
$GPGSV,2,2,08,26,59,042,34,27,46,196,33,28,29,117,30,31,59,102,31,6*61
$GLGSV,3,1,09,65,40,270,44,66,21,325,34,72,22,208,39,74,35,057,39,1*79
$GLGSV,3,2,09,75,53,340,48,76,14,285,45,83,05,021,27,84,34,066,45,1*77
$GLGSV,3,3,09,85,33,129,45,1*47
$GLGSV,2,1,06,66,21,325,29,72,22,208,40,75,53,340,43,76,14,285,31,3*75
$GLGSV,2,2,06,84,34,066,36,85,33,129,27,3*70
$GLGSV,1,1,01,73,00,084,,0*40
$GAGSV,2,1,07,04,29,171,43,05,33,310,38,06,50,192,42,09,63,235,31,2*74
$GAGSV,2,2,07,18,65,111,38,23,25,057,31,31,70,010,44,2*43
$GAGSV,2,1,07,04,29,171,34,05,33,310,40,06,50,192,43,09,63,235,46,7*7F
$GAGSV,2,2,07,18,65,111,45,23,25,057,37,31,70,010,47,7*49
$GBGSV,2,1,08,09,55,316,43,11,43,093,30,16,74,350,46,23,66,335,49,1*70
$GBGSV,2,2,08,25,45,076,47,32,29,259,41,34,33,062,41,39,79,035,46,1*7D
$GBGSV,2,1,06,06,71,336,36,07,39,206,39,09,55,316,37,10,25,212,34,B*09
$GBGSV,2,2,06,11,43,093,39,16,74,350,35,B*00
$GQGSV,1,1,02,02,78,106,47,07,47,179,37,1*61
$GQGSV,1,1,03,02,78,106,39,04,28,184,41,07,47,179,39,6*56
$GQGSV,1,1,01,03,15,155,,0*53
$GNRMC,065605.00,A,3727.0324399,N,12639.1233489,E,0.011,,191125,,,R,V*06
$GNVTG,,T,,M,0.011,N,0.020,K,D*3A
$GNGGA,065605.00,3727.0324399,N,12639.1233489,E,4,12,0.56,16.844,M,17.833,M,1.0,4095*5F
$GNGSA,A,3,04,16,26,27,31,08,09,28,,,,,1.09,0.56,0.93,1*0B
$GNGSA,A,3,85,76,75,84,72,74,,,,,,,1.09,0.56,0.93,2*07
$GNGSA,A,3,23,05,09,06,04,31,,,,,,,1.09,0.56,0.93,3*0F
$GNGSA,A,3,32,23,16,09,34,39,25,10,11,06,07,,1.09,0.56,0.93,4*01
$GNGSA,A,3,02,,,,,,,,,,,,1.09,0.56,0.93,5*06
$GPGSV,3,1,11,04,48,285,43,08,17,209,29,09,20,316,30,16,67,303,45,1*63
$GPGSV,3,2,11,26,59,042,49,27,46,196,45,28,29,117,35,31,59,102,43,1*64
$GPGSV,3,3,11,41,27,238,38,42,33,230,39,50,47,179,40,1*56
$GPGSV,2,1,08,04,48,285,38,08,17,209,33,09,20,316,38,18,18,085,17,6*6E
$GPGSV,2,2,08,26,59,042,33,27,46,196,34,28,29,117,31,31,59,102,31,6*60
$GLGSV,3,1,09,65,40,270,44,66,21,325,33,72,22,208,39,74,35,057,39,1*7E
$GLGSV,3,2,09,75,53,340,47,76,14,285,45,83,05,021,30,84,34,066,46,1*7D
$GLGSV,3,3,09,85,33,129,45,1*47
$GLGSV,2,1,06,66,21,325,28,72,22,208,40,75,53,340,43,76,14,285,32,3*77
$GLGSV,2,2,06,84,34,066,37,85,33,129,27,3*71
$GLGSV,1,1,01,73,00,084,,0*40
$GAGSV,2,1,07,04,29,171,44,05,33,310,38,06,50,192,43,09,63,235,31,2*72
$GAGSV,2,2,07,18,65,111,38,23,25,057,32,31,70,010,44,2*40
$GAGSV,2,1,07,04,29,171,35,05,33,310,41,06,50,192,43,09,63,235,46,7*7F
$GAGSV,2,2,07,18,65,111,45,23,25,057,37,31,70,010,47,7*49
$GBGSV,2,1,08,09,55,316,43,11,43,093,30,16,74,350,46,23,66,335,49,1*70
$GBGSV,2,2,08,25,45,076,47,32,29,259,42,34,33,062,40,39,79,035,46,1*7F
$GBGSV,2,1,06,06,71,336,36,07,39,206,39,09,55,316,37,10,25,212,34,B*09
$GBGSV,2,2,06,11,43,093,39,16,74,350,35,B*00
$GQGSV,1,1,02,02,78,106,47,07,47,179,37,1*61
$GQGSV,1,1,03,02,78,106,39,04,28,184,41,07,47,179,40,6*58
$GQGSV,1,1,01,03,15,155,,0*53
$GNRMC,065606.00,A,3727.0324416,N,12639.1233483,E,0.002,,191125,,,R,V*0D
$GNVTG,,T,,M,0.002,N,0.004,K,D*3E
$GNGGA,065606.00,3727.0324416,N,12639.1233483,E,4,12,0.56,16.844,M,17.833,M,1.0,4095*56
$GNGSA,A,3,04,16,26,27,31,08,09,28,,,,,1.09,0.56,0.93,1*0B
$GNGSA,A,3,85,76,75,84,72,74,,,,,,,1.09,0.56,0.93,2*07
$GNGSA,A,3,23,05,09,06,04,31,,,,,,,1.09,0.56,0.93,3*0F
$GNGSA,A,3,32,23,16,09,34,39,25,10,11,06,07,,1.09,0.56,0.93,4*01
$GNGSA,A,3,02,,,,,,,,,,,,1.09,0.56,0.93,5*06
$GPGSV,3,1,11,04,48,285,42,08,17,209,29,09,20,316,30,16,67,303,45,1*62
$GPGSV,3,2,11,26,59,042,49,27,46,196,45,28,29,117,36,31,59,102,43,1*67
$GPGSV,3,3,11,41,27,238,38,42,33,230,40,50,47,179,40,1*58
$GPGSV,2,1,08,04,48,285,38,08,17,209,33,09,20,316,38,18,18,085,16,6*6F
$GPGSV,2,2,08,26,59,042,33,27,46,196,34,28,29,117,31,31,59,102,31,6*60
$GLGSV,3,1,09,65,40,270,44,66,21,325,26,72,22,208,39,74,35,057,39,1*7A
$GLGSV,3,2,09,75,53,340,48,76,14,285,45,83,05,021,30,84,34,066,45,1*71
$GLGSV,3,3,09,85,33,129,45,1*47
$GLGSV,2,1,06,66,21,325,27,72,22,208,40,75,53,340,43,76,14,285,33,3*79
$GLGSV,2,2,06,84,34,066,37,85,33,129,27,3*71
$GLGSV,1,1,01,73,00,084,,0*40
$GAGSV,2,1,07,04,29,171,44,05,33,310,39,06,50,192,43,09,63,235,32,2*70
$GAGSV,2,2,07,18,65,111,38,23,25,057,32,31,70,010,44,2*40
$GAGSV,2,1,07,04,29,171,35,05,33,310,41,06,50,192,43,09,63,235,46,7*7F
$GAGSV,2,2,07,18,65,111,46,23,25,057,37,31,70,010,48,7*45
$GBGSV,2,1,08,09,55,316,43,11,43,093,30,16,74,350,46,23,66,335,49,1*70
$GBGSV,2,2,08,25,45,076,47,32,29,259,42,34,33,062,40,39,79,035,46,1*7F
$GBGSV,2,1,06,06,71,336,36,07,39,206,39,09,55,316,37,10,25,212,34,B*09
$GBGSV,2,2,06,11,43,093,40,16,74,350,35,B*0E
$GQGSV,1,1,02,02,78,106,47,07,47,179,38,1*6E
$GQGSV,1,1,03,02,78,106,39,04,28,184,41,07,47,179,40,6*58
$GQGSV,1,1,01,03,15,155,,0*53
$GNRMC,065607.00,A,3727.0324425,N,12639.1233469,E,0.010,,191125,,,R,V*0B
$GNVTG,,T,,M,0.010,N,0.019,K,D*31
$GNGGA,065607.00,3727.0324425,N,12639.1233469,E,4,12,0.56,16.843,M,17.833,M,1.0,4095*54
$GNGSA,A,3,04,16,26,27,31,08,09,28,,,,,1.09,0.56,0.93,1*0B
$GNGSA,A,3,85,76,75,84,72,74,,,,,,,1.09,0.56,0.93,2*07
$GNGSA,A,3,23,05,09,06,04,31,,,,,,,1.09,0.56,0.93,3*0F
$GNGSA,A,3,32,23,16,09,34,39,25,10,11,06,07,,1.09,0.56,0.93,4*01
$GNGSA,A,3,02,,,,,,,,,,,,1.09,0.56,0.93,5*06
$GPGSV,3,1,11,04,48,285,43,08,17,209,31,09,20,316,29,16,67,303,45,1*62
$GPGSV,3,2,11,26,59,042,49,27,46,196,45,28,29,117,36,31,59,102,43,1*67
$GPGSV,3,3,11,41,27,238,37,42,33,230,40,50,47,179,40,1*57
$GPGSV,2,1,08,04,48,285,39,08,17,209,32,09,20,316,39,18,18,085,16,6*6E
$GPGSV,2,2,08,26,59,042,33,27,46,196,35,28,29,117,32,31,59,102,32,6*61
$GLGSV,3,1,09,65,40,270,44,66,21,325,27,72,22,208,39,74,35,057,38,1*7A
$GLGSV,3,2,09,75,53,340,47,76,14,285,45,83,05,021,28,84,34,066,46,1*74
$GLGSV,3,3,09,85,33,129,45,1*47
$GLGSV,2,1,06,66,21,325,26,72,22,208,40,75,53,340,43,76,14,285,34,3*7F
$GLGSV,2,2,06,84,34,066,38,85,33,129,27,3*7E
$GLGSV,1,1,01,73,00,084,,0*40
$GAGSV,2,1,07,04,29,171,44,05,33,310,39,06,50,192,43,09,63,235,33,2*71
$GAGSV,2,2,07,18,65,111,38,23,25,057,31,31,70,010,44,2*43
$GAGSV,2,1,07,04,29,171,36,05,33,310,41,06,50,192,43,09,63,235,46,7*7C
$GAGSV,2,2,07,18,65,111,45,23,25,057,37,31,70,010,48,7*46
$GBGSV,2,1,08,09,55,316,43,11,43,093,31,16,74,350,46,23,66,335,49,1*71
$GBGSV,2,2,08,25,45,076,47,32,29,259,42,34,33,062,40,39,79,035,46,1*7F
$GBGSV,2,1,06,06,71,336,36,07,39,206,39,09,55,316,37,10,25,212,34,B*09
$GBGSV,2,2,06,11,43,093,40,16,74,350,35,B*0E
$GQGSV,1,1,02,02,78,106,47,07,47,179,38,1*6E
$GQGSV,1,1,03,02,78,106,39,04,28,184,41,07,47,179,40,6*58
$GQGSV,1,1,01,03,15,155,,0*53
$GNRMC,065608.00,A,3727.0324434,N,12639.1233479,E,0.006,,191125,,,R,V*02
$GNVTG,,T,,M,0.006,N,0.011,K,D*3E
$GNGGA,065608.00,3727.0324434,N,12639.1233479,E,4,12,0.56,16.841,M,17.833,M,1.0,4095*58
$GNGSA,A,3,04,16,26,27,31,08,09,28,,,,,1.09,0.56,0.93,1*0B
$GNGSA,A,3,85,76,75,84,72,74,,,,,,,1.09,0.56,0.93,2*07
$GNGSA,A,3,23,05,09,06,04,31,,,,,,,1.09,0.56,0.93,3*0F
$GNGSA,A,3,32,23,16,09,34,39,25,10,11,06,07,,1.09,0.56,0.93,4*01
$GNGSA,A,3,02,,,,,,,,,,,,1.09,0.56,0.93,5*06
$GPGSV,3,1,11,04,48,285,43,08,17,209,32,09,20,316,29,16,67,303,45,1*61
$GPGSV,3,2,11,26,59,042,49,27,46,196,45,28,29,117,36,31,59,102,43,1*67
$GPGSV,3,3,11,41,27,238,37,42,33,230,39,50,47,179,40,1*59
$GPGSV,2,1,08,04,48,285,39,08,17,209,32,09,20,316,38,18,18,085,16,6*6F
$GPGSV,2,2,08,26,59,042,33,27,46,196,35,28,29,117,32,31,59,102,32,6*61
$GLGSV,3,1,09,65,40,270,44,66,21,325,28,72,22,208,39,74,35,057,39,1*74
$GLGSV,3,2,09,75,53,340,47,76,14,285,44,83,05,021,24,84,34,066,46,1*79
$GLGSV,3,3,09,85,33,129,45,1*47
$GLGSV,2,1,06,66,21,325,23,72,22,208,40,75,53,340,43,76,14,285,34,3*7A
$GLGSV,2,2,06,84,34,066,38,85,33,129,27,3*7E
$GLGSV,1,1,01,73,00,084,,0*40
$GAGSV,2,1,07,04,29,171,44,05,33,310,39,06,50,192,43,09,63,235,33,2*71
$GAGSV,2,2,07,18,65,111,39,23,25,057,31,31,70,010,44,2*42
$GAGSV,2,1,07,04,29,171,36,05,33,310,40,06,50,192,43,09,63,235,46,7*7D
$GAGSV,2,2,07,18,65,111,45,23,25,057,37,31,70,010,48,7*46
$GBGSV,2,1,08,09,55,316,43,11,43,093,31,16,74,350,46,23,66,335,49,1*71
$GBGSV,2,2,08,25,45,076,46,32,29,259,42,34,33,062,40,39,79,035,47,1*7F
$GBGSV,2,1,06,06,71,336,36,07,39,206,39,09,55,316,37,10,25,212,34,B*09
$GBGSV,2,2,06,11,43,093,40,16,74,350,35,B*0E
$GQGSV,1,1,02,02,78,106,47,07,47,179,37,1*61
$GQGSV,1,1,03,02,78,106,39,04,28,184,40,07,47,179,40,6*59
$GQGSV,1,1,01,03,15,155,,0*53
$GNRMC,065609.00,A,3727.0324431,N,12639.1233481,E,0.006,,191125,,,R,V*01
$GNVTG,,T,,M,0.006,N,0.011,K,D*3E
$GNGGA,065609.00,3727.0324431,N,12639.1233481,E,4,12,0.56,16.847,M,17.833,M,1.0,4095*5D
$GNGSA,A,3,04,16,26,27,31,08,09,28,,,,,1.09,0.56,0.93,1*0B
$GNGSA,A,3,85,76,75,84,72,74,,,,,,,1.09,0.56,0.93,2*07
$GNGSA,A,3,23,05,09,06,04,31,,,,,,,1.09,0.56,0.93,3*0F
$GNGSA,A,3,32,23,16,09,34,39,25,10,11,06,07,,1.09,0.56,0.93,4*01
$GNGSA,A,3,02,,,,,,,,,,,,1.09,0.56,0.93,5*06
$GPGSV,3,1,11,04,48,285,43,08,17,209,32,09,20,316,29,16,67,303,45,1*61
$GPGSV,3,2,11,26,59,042,49,27,46,196,45,28,29,117,36,31,59,102,43,1*67
$GPGSV,3,3,11,41,27,238,37,42,33,230,39,50,47,179,40,1*59
$GPGSV,2,1,08,04,48,285,38,08,17,209,32,09,20,316,38,18,18,085,16,6*6E
$GPGSV,2,2,08,26,59,042,32,27,46,196,36,28,29,117,33,31,59,102,32,6*62
$GLGSV,3,1,09,65,40,270,44,66,21,325,30,72,22,208,39,74,35,057,39,1*7D
$GLGSV,3,2,09,75,53,340,47,76,14,285,44,83,05,021,24,84,34,066,46,1*79
$GLGSV,3,3,09,85,33,129,45,1*47
$GLGSV,2,1,06,66,21,325,21,72,22,208,39,75,53,340,43,76,14,285,34,3*76
$GLGSV,2,2,06,84,34,066,38,85,33,129,27,3*7E
$GLGSV,1,1,01,73,00,084,,0*40
$GAGSV,2,1,07,04,29,171,44,05,33,310,38,06,50,192,42,09,63,235,32,2*70
$GAGSV,2,2,07,18,65,111,39,23,25,057,30,31,70,010,44,2*43
$GAGSV,2,1,07,04,29,171,35,05,33,310,40,06,50,192,43,09,63,235,46,7*7E
$GAGSV,2,2,07,18,65,111,46,23,25,057,38,31,70,010,48,7*4A
$GBGSV,2,1,08,09,55,316,44,11,43,093,31,16,74,350,46,23,66,335,49,1*76
$GBGSV,2,2,08,25,45,076,46,32,29,259,42,34,33,062,41,39,79,035,46,1*7F
$GBGSV,2,1,06,06,71,336,37,07,39,206,39,09,55,316,37,10,25,212,35,B*09
$GBGSV,2,2,06,11,43,093,40,16,74,350,34,B*0F
$GQGSV,1,1,02,02,78,106,47,07,47,179,37,1*61
$GQGSV,1,1,03,02,78,106,39,04,28,184,40,07,47,179,40,6*59
$GQGSV,1,1,01,03,15,155,,0*53
$GNRMC,065610.00,A,3727.0324408,N,12639.1233482,E,0.009,,191125,,,R,V*0F
$GNVTG,,T,,M,0.009,N,0.016,K,D*36
$GNGGA,065610.00,3727.0324408,N,12639.1233482,E,4,12,0.56,16.850,M,17.833,M,1.0,4095*5A
$GNGSA,A,3,04,16,26,27,31,08,09,28,,,,,1.09,0.56,0.93,1*0B
$GNGSA,A,3,85,76,75,84,72,74,,,,,,,1.09,0.56,0.93,2*07
$GNGSA,A,3,23,05,09,06,04,31,,,,,,,1.09,0.56,0.93,3*0F
$GNGSA,A,3,32,23,16,09,34,39,25,10,11,06,07,,1.09,0.56,0.93,4*01
$GNGSA,A,3,02,,,,,,,,,,,,1.09,0.56,0.93,5*06
$GPGSV,3,1,11,04,48,285,43,08,17,209,33,09,20,316,29,16,67,303,45,1*60
$GPGSV,3,2,11,26,59,042,49,27,46,196,44,28,29,117,36,31,59,102,43,1*66
$GPGSV,3,3,11,41,27,238,38,42,33,230,39,50,47,179,40,1*56
$GPGSV,2,1,08,04,48,285,38,08,17,209,31,09,20,316,38,18,18,085,15,6*6E
$GPGSV,2,2,08,26,59,042,32,27,46,196,36,28,29,117,33,31,59,102,32,6*62
$GLGSV,3,1,09,65,40,270,44,66,21,325,31,72,22,208,39,74,35,057,38,1*7D
$GLGSV,3,2,09,75,53,340,47,76,14,285,43,83,05,021,26,84,34,066,46,1*7C
$GLGSV,3,3,09,85,33,129,45,1*47
$GLGSV,2,1,06,66,21,325,23,72,22,208,39,75,53,340,42,76,14,285,35,3*74
$GLGSV,2,2,06,84,34,066,37,85,33,129,27,3*71
$GLGSV,1,1,01,73,00,084,,0*40
$GAGSV,2,1,07,04,29,171,44,05,33,310,39,06,50,192,42,09,63,235,32,2*71
$GAGSV,2,2,07,18,65,111,39,23,25,057,30,31,70,010,44,2*43
$GAGSV,2,1,07,04,29,171,35,05,33,310,40,06,50,192,43,09,63,235,46,7*7E
$GAGSV,2,2,07,18,65,111,46,23,25,057,37,31,70,010,48,7*45
$GBGSV,2,1,08,09,55,316,44,11,43,093,30,16,74,350,46,23,66,335,49,1*77
$GBGSV,2,2,08,25,45,076,47,32,29,259,42,34,33,062,41,39,79,035,46,1*7E
$GBGSV,2,1,06,06,71,336,37,07,39,206,39,09,55,316,37,10,25,212,35,B*09
$GBGSV,2,2,06,11,43,093,40,16,74,350,34,B*0F
$GQGSV,1,1,02,02,78,106,47,07,47,179,37,1*61
$GQGSV,1,1,03,02,78,106,39,04,28,184,40,07,47,179,40,6*59
$GQGSV,1,1,01,03,15,155,,0*53
$GNRMC,065611.00,A,3727.0324414,N,12639.1233481,E,0.005,,191125,,,R,V*0C
$GNVTG,,T,,M,0.005,N,0.010,K,D*3C
$GNGGA,065611.00,3727.0324414,N,12639.1233481,E,4,12,0.56,16.843,M,17.833,M,1.0,4095*57
$GNGSA,A,3,04,16,26,27,31,08,09,28,,,,,1.09,0.56,0.93,1*0B
$GNGSA,A,3,85,76,75,84,72,74,,,,,,,1.09,0.56,0.93,2*07
$GNGSA,A,3,23,05,09,06,04,31,,,,,,,1.09,0.56,0.93,3*0F
$GNGSA,A,3,32,23,16,09,34,39,25,10,11,06,07,,1.09,0.56,0.93,4*01
$GNGSA,A,3,02,,,,,,,,,,,,1.09,0.56,0.93,5*06
$GPGSV,3,1,11,04,48,285,43,08,17,209,33,09,20,316,30,16,67,303,45,1*68
$GPGSV,3,2,11,26,59,042,49,27,46,196,45,28,29,117,37,31,59,102,43,1*66
$GPGSV,3,3,11,41,27,238,37,42,33,230,39,50,47,179,40,1*59
$GPGSV,2,1,08,04,48,285,40,08,17,209,31,09,20,316,38,18,18,085,12,6*66
$GPGSV,2,2,08,26,59,042,32,27,46,196,36,28,29,117,33,31,59,102,32,6*62
$GLGSV,3,1,09,65,40,270,44,66,21,325,32,72,22,208,39,74,35,057,38,1*7E
$GLGSV,3,2,09,75,53,340,47,76,14,285,42,83,05,021,29,84,34,066,46,1*72
$GLGSV,3,3,09,85,33,129,45,1*47
$GLGSV,2,1,06,66,21,325,25,72,22,208,38,75,53,340,42,76,14,285,35,3*73
$GLGSV,2,2,06,84,34,066,37,85,33,129,28,3*7E
$GLGSV,1,1,01,73,00,084,,0*40
$GAGSV,2,1,07,04,29,171,44,05,33,310,39,06,50,192,43,09,63,235,32,2*70
$GAGSV,2,2,07,18,65,111,39,23,25,057,31,31,70,010,44,2*42
$GAGSV,2,1,07,04,29,171,35,05,33,310,40,06,50,192,43,09,63,235,46,7*7E
$GAGSV,2,2,07,18,65,111,46,23,25,057,37,31,70,010,48,7*45
$GBGSV,2,1,08,09,55,316,43,11,43,093,32,16,74,350,46,23,66,335,49,1*72
$GBGSV,2,2,08,25,45,076,47,32,29,259,43,34,33,062,41,39,79,035,46,1*7F
$GBGSV,2,1,06,06,71,336,36,07,39,206,39,09,55,316,37,10,25,212,34,B*09
$GBGSV,2,2,06,11,43,093,40,16,74,350,34,B*0F
$GQGSV,1,1,02,02,78,106,47,07,47,179,37,1*61
$GQGSV,1,1,03,02,78,106,39,04,28,184,40,07,47,179,40,6*59
$GQGSV,1,1,01,03,15,155,,0*53
$GNRMC,065612.00,A,3727.0324432,N,12639.1233467,E,0.015,,191125,,,R,V*02
$GNVTG,,T,,M,0.015,N,0.029,K,D*37
$GNGGA,065612.00,3727.0324432,N,12639.1233467,E,4,12,0.56,16.854,M,17.833,M,1.0,4095*5E
$GNGSA,A,3,04,16,26,27,31,08,09,28,,,,,1.09,0.56,0.93,1*0B
$GNGSA,A,3,85,76,75,84,72,74,,,,,,,1.09,0.56,0.93,2*07
$GNGSA,A,3,23,05,09,06,04,31,,,,,,,1.09,0.56,0.93,3*0F
$GNGSA,A,3,32,23,16,09,34,39,25,10,11,06,07,,1.09,0.56,0.93,4*01
$GNGSA,A,3,02,,,,,,,,,,,,1.09,0.56,0.93,5*06
$GPGSV,3,1,11,04,48,285,43,08,17,209,34,09,20,316,30,16,67,303,45,1*6F
$GPGSV,3,2,11,26,59,042,49,27,46,196,45,28,29,117,38,31,59,102,43,1*69
$GPGSV,3,3,11,41,27,238,38,42,33,230,39,50,47,179,40,1*56
$GPGSV,2,1,07,04,48,285,39,08,17,209,31,09,20,316,38,26,59,042,32,6*66
$GPGSV,2,2,07,27,46,196,36,28,29,117,34,31,59,102,33,6*54
$GPGSV,1,1,01,18,18,085,,0*59
$GLGSV,3,1,09,65,40,270,44,66,21,325,32,72,22,208,39,74,35,057,39,1*7F
$GLGSV,3,2,09,75,53,340,48,76,14,285,43,83,05,021,30,84,34,066,46,1*74
$GLGSV,3,3,09,85,33,129,46,1*44
$GLGSV,2,1,06,66,21,325,29,72,22,208,38,75,53,340,42,76,14,285,35,3*7F
$GLGSV,2,2,06,84,34,066,36,85,33,129,27,3*70
$GLGSV,1,1,01,73,00,084,,0*40
$GAGSV,2,1,07,04,29,171,44,05,33,310,39,06,50,192,43,09,63,235,33,2*71
$GAGSV,2,2,07,18,65,111,39,23,25,057,30,31,70,010,44,2*43
$GAGSV,2,1,07,04,29,171,36,05,33,310,40,06,50,192,43,09,63,235,46,7*7D
$GAGSV,2,2,07,18,65,111,46,23,25,057,37,31,70,010,48,7*45
$GBGSV,2,1,08,09,55,316,43,11,43,093,31,16,74,350,46,23,66,335,49,1*71
$GBGSV,2,2,08,25,45,076,47,32,29,259,42,34,33,062,41,39,79,035,46,1*7E
$GBGSV,2,1,06,06,71,336,36,07,39,206,38,09,55,316,37,10,25,212,34,B*08
$GBGSV,2,2,06,11,43,093,37,16,74,350,33,B*08
$GQGSV,1,1,02,02,78,106,47,07,47,179,37,1*61
$GQGSV,1,1,03,02,78,106,39,04,28,184,40,07,47,179,40,6*59
$GQGSV,1,1,01,03,15,155,,0*53
$GNRMC,065613.00,A,3727.0324449,N,12639.1233463,E,0.006,,191125,,,R,V*09
$GNVTG,,T,,M,0.006,N,0.011,K,D*3E
$GNGGA,065613.00,3727.0324449,N,12639.1233463,E,4,12,0.56,16.849,M,17.833,M,1.0,4095*5B
$GNGSA,A,3,04,16,26,27,31,08,09,28,,,,,1.09,0.56,0.93,1*0B
$GNGSA,A,3,85,76,75,84,72,74,,,,,,,1.09,0.56,0.93,2*07
$GNGSA,A,3,23,05,09,06,04,31,,,,,,,1.09,0.56,0.93,3*0F
$GNGSA,A,3,32,23,16,09,34,39,25,10,11,06,07,,1.09,0.56,0.93,4*01
$GNGSA,A,3,02,,,,,,,,,,,,1.09,0.56,0.93,5*06
$GPGSV,3,1,11,04,48,285,43,08,17,209,35,09,20,316,29,16,67,303,45,1*66
$GPGSV,3,2,11,26,59,042,49,27,46,196,45,28,29,117,37,31,59,102,43,1*66
$GPGSV,3,3,11,41,27,238,38,42,33,230,39,50,47,179,40,1*56
$GPGSV,1,1,01,18,18,085,21,5*5F
$GPGSV,2,1,07,04,48,285,39,08,17,209,31,09,20,316,38,26,59,042,32,6*66
$GPGSV,2,2,07,27,46,196,35,28,29,117,34,31,59,102,33,6*57
$GLGSV,3,1,09,65,40,270,44,66,21,325,32,72,22,208,40,74,35,057,39,1*71
$GLGSV,3,2,09,75,53,340,48,76,14,285,43,83,05,021,30,84,34,066,46,1*74
$GLGSV,3,3,09,85,33,129,46,1*44
$GLGSV,2,1,06,66,21,325,31,72,22,208,38,75,53,340,42,76,14,285,35,3*76
$GLGSV,2,2,06,84,34,066,35,85,33,129,27,3*73
$GLGSV,1,1,01,73,00,084,,0*40
$GAGSV,2,1,07,04,29,171,43,05,33,310,38,06,50,192,43,09,63,235,33,2*77
$GAGSV,2,2,07,18,65,111,38,23,25,057,31,31,70,010,44,2*43
$GAGSV,2,1,07,04,29,171,36,05,33,310,40,06,50,192,43,09,63,235,46,7*7D
$GAGSV,2,2,07,18,65,111,46,23,25,057,38,31,70,010,47,7*45
$GBGSV,2,1,08,09,55,316,44,11,43,093,30,16,74,350,46,23,66,335,49,1*77
$GBGSV,2,2,08,25,45,076,47,32,29,259,43,34,33,062,41,39,79,035,47,1*7E
