$GLGSV,2,1,08,65,39,266,48,72,20,207,42,74,34,060,38,75,53,344,47,1*7D
$GLGSV,2,2,08,76,16,288,40,84,34,063,42,85,35,127,46,,,,37,1*41
$GLGSV,2,1,05,72,20,207,32,75,53,344,41,76,16,288,26,84,34,063,37,3*77
$GLGSV,2,2,05,85,35,127,39,3*4A
$GLGSV,1,1,02,66,22,323,,83,04,020,,0*74
$GAGSV,2,1,08,04,26,172,42,05,34,309,40,06,48,191,40,09,61,231,41,2*7F
$GAGSV,2,2,08,16,19,256,42,18,66,108,37,23,23,058,38,31,69,013,42,2*7D
$GAGSV,2,1,08,04,26,172,38,05,34,309,42,06,48,191,44,09,61,231,48,7*78
$GAGSV,2,2,08,16,19,256,34,18,66,108,47,23,23,058,39,31,69,013,46,7*7B
$GAGSV,1,1,03,12,00,156,,26,11,060,,33,14,108,,0*48
$GBGSV,2,1,08,09,56,317,43,11,43,089,44,16,74,351,46,23,67,340,49,1*78
$GBGSV,2,2,08,25,44,078,45,32,28,257,42,34,32,060,42,39,79,039,47,1*71
$GBGSV,2,1,06,06,71,336,35,07,39,207,38,09,56,317,42,10,26,213,37,B*0B
$GBGSV,2,2,06,11,43,089,45,16,74,351,35,B*01
$GQGSV,1,1,02,02,79,104,46,07,47,179,34,1*60
$GQGSV,1,1,03,02,79,104,30,04,27,184,36,07,47,179,41,6*5C
$GQGSV,1,1,02,03,16,155,,08,33,230,,0*6A
$GNRMC,070108.00,A,3727.0188792,N,12639.1147557,E,0.005,,191125,,,R,V*04
$GNVTG,,T,,M,0.005,N,0.009,K,D*34
$GNGGA,070108.00,3727.0188792,N,12639.1147557,E,4,12,0.56,16.964,M,17.833,M,1.0,4095*5B
$GNGSA,A,3,26,27,31,16,04,09,28,08,,,,,1.07,0.56,0.92,1*04
$GNGSA,A,3,85,72,75,76,65,84,,,,,,,1.07,0.56,0.92,2*08
$GNGSA,A,3,23,16,06,05,09,04,31,,,,,,1.07,0.56,0.92,3*07
$GNGSA,A,3,06,11,32,34,25,09,16,39,23,,,,1.07,0.56,0.92,4*08
$GNGSA,A,3,02,07,,,,,,,,,,,1.07,0.56,0.92,5*0E
$GPGSV,3,1,11,04,49,281,46,08,19,210,35,09,21,314,36,16,68,309,45,1*68
$GPGSV,3,2,11,26,58,045,46,27,48,196,47,28,27,119,42,31,57,105,48,1*63
$GPGSV,3,3,11,41,27,238,39,42,33,230,40,50,47,179,37,1*59
$GPGSV,2,1,08,04,49,281,33,08,19,210,35,09,21,314,36,18,19,083,21,6*6F
$GPGSV,2,2,08,26,58,045,38,27,48,196,34,28,27,119,40,31,57,105,39,6*64
$GPGSV,1,1,01,29,02,037,,0*59
$GLGSV,2,1,08,65,39,266,48,72,20,207,43,74,34,060,38,75,53,344,47,1*7C
$GLGSV,2,2,08,76,16,288,40,84,34,063,43,85,35,127,47,,,,40,1*41
$GLGSV,2,1,05,72,20,207,31,75,53,344,41,76,16,288,25,84,34,063,36,3*76
$GLGSV,2,2,05,85,35,127,37,3*44
$GLGSV,1,1,02,66,22,323,,83,04,020,,0*74
$GAGSV,2,1,08,04,26,172,42,05,34,309,39,06,48,191,40,09,61,231,41,2*71
$GAGSV,2,2,08,16,19,256,41,18,66,107,37,23,23,058,40,31,69,013,41,2*7D
$GAGSV,2,1,08,04,26,172,37,05,34,309,42,06,48,191,44,09,61,231,47,7*78
$GAGSV,2,2,08,16,19,256,34,18,66,107,47,23,23,058,38,31,69,013,46,7*75
$GAGSV,1,1,03,12,00,156,,26,11,060,,33,14,108,,0*48
$GBGSV,2,1,08,09,56,317,44,11,43,089,44,16,74,351,46,23,67,340,49,1*7F
$GBGSV,2,2,08,25,44,078,44,32,28,257,42,34,32,060,42,39,79,039,47,1*70
$GBGSV,2,1,06,06,71,336,35,07,39,207,38,09,56,317,42,10,26,213,36,B*0A
$GBGSV,2,2,06,11,43,089,44,16,74,351,35,B*00
$GQGSV,1,1,02,02,79,104,46,07,47,179,34,1*60
$GQGSV,1,1,03,02,79,104,30,04,27,184,36,07,47,179,41,6*5C
$GQGSV,1,1,02,03,16,155,,08,33,230,,0*6A
$GNRMC,070109.00,A,3727.0188795,N,12639.1147558,E,0.006,,191125,,,R,V*0E
$GNVTG,,T,,M,0.006,N,0.011,K,D*3E
$GNGGA,070109.00,3727.0188795,N,12639.1147558,E,4,12,0.56,16.970,M,17.833,M,1.0,4095*57
$GNGSA,A,3,26,27,31,16,04,09,28,08,,,,,1.07,0.56,0.92,1*04
$GNGSA,A,3,85,72,75,76,65,84,,,,,,,1.07,0.56,0.92,2*08
$GNGSA,A,3,23,16,06,05,09,04,31,,,,,,1.07,0.56,0.92,3*07
$GNGSA,A,3,06,11,32,34,25,09,16,39,23,,,,1.07,0.56,0.92,4*08
$GNGSA,A,3,02,07,,,,,,,,,,,1.07,0.56,0.92,5*0E
$GPGSV,3,1,11,04,49,281,47,08,19,210,36,09,21,314,35,16,68,309,45,1*69
$GPGSV,3,2,11,26,58,045,46,27,48,196,46,28,27,119,42,31,57,105,48,1*62
$GPGSV,3,3,11,41,27,238,38,42,33,230,40,50,47,179,36,1*59
$GPGSV,2,1,08,04,49,281,33,08,19,210,35,09,21,314,35,18,19,083,19,6*67
$GPGSV,2,2,08,26,58,045,38,27,48,196,34,28,27,119,42,31,57,105,38,6*67
$GPGSV,1,1,01,29,02,037,,0*59
$GLGSV,2,1,07,65,39,266,48,72,20,207,43,74,34,060,38,75,53,344,47,1*73
$GLGSV,2,2,07,76,16,288,40,84,34,063,42,85,35,127,47,1*4B
$GLGSV,2,1,06,65,39,266,14,72,20,207,30,75,53,344,41,76,16,288,24,3*70
$GLGSV,2,2,06,84,34,063,35,85,35,127,38,3*70
$GLGSV,1,1,02,66,22,323,,83,04,020,,0*74
$GAGSV,2,1,08,04,26,172,42,05,34,309,40,06,48,191,40,09,61,231,41,2*7F
$GAGSV,2,2,08,16,19,256,41,18,66,107,38,23,23,058,40,31,69,013,41,2*72
$GAGSV,2,1,08,04,26,172,37,05,34,309,42,06,48,191,45,09,61,231,47,7*79
$GAGSV,2,2,08,16,19,256,35,18,66,107,47,23,23,058,38,31,69,013,46,7*74
$GAGSV,1,1,03,12,00,156,,26,11,060,,33,14,108,,0*48
$GBGSV,2,1,08,09,56,317,43,11,43,089,44,16,74,351,47,23,67,340,49,1*79
$GBGSV,2,2,08,25,44,078,45,32,28,257,42,34,32,060,43,39,79,039,47,1*70
$GBGSV,2,1,07,06,71,336,34,07,39,207,38,09,56,317,42,10,26,213,37,B*0B
$GBGSV,2,2,07,11,43,089,45,16,74,351,35,23,67,340,13,B*35
$GQGSV,1,1,02,02,79,104,46,07,47,179,33,1*67
$GQGSV,1,1,03,02,79,104,31,04,27,184,36,07,47,179,41,6*5D
$GQGSV,1,1,02,03,16,155,,08,33,230,,0*6A
$GNRMC,070110.00,A,3727.0188813,N,12639.1147565,E,0.013,,191125,,,R,V*0D
$GNVTG,,T,,M,0.013,N,0.025,K,D*3D
$GNGGA,070110.00,3727.0188813,N,12639.1147565,E,4,12,0.56,16.972,M,17.833,M,1.0,4095*52
$GNGSA,A,3,26,27,31,16,04,09,28,08,,,,,1.07,0.56,0.92,1*04
$GNGSA,A,3,85,72,75,76,65,84,,,,,,,1.07,0.56,0.92,2*08
$GNGSA,A,3,23,16,06,05,09,04,31,,,,,,1.07,0.56,0.92,3*07
$GNGSA,A,3,06,11,32,34,25,09,16,39,23,,,,1.07,0.56,0.92,4*08
$GNGSA,A,3,02,07,,,,,,,,,,,1.07,0.56,0.92,5*0E
$GPGSV,3,1,11,04,49,281,47,08,19,210,37,09,21,314,36,16,68,309,45,1*6B
$GPGSV,3,2,11,26,58,045,46,27,48,196,46,28,27,119,42,31,57,105,48,1*62
$GPGSV,3,3,11,41,27,238,38,42,33,230,40,50,47,179,36,1*59
$GPGSV,2,1,08,04,49,281,35,08,19,210,34,09,21,314,36,18,19,083,21,6*68
$GPGSV,2,2,08,26,58,045,38,27,48,196,33,28,27,119,41,31,57,105,39,6*62
$GPGSV,1,1,01,29,02,037,,0*59
$GLGSV,2,1,07,65,39,266,48,72,20,207,43,74,34,060,38,75,53,344,47,1*73
$GLGSV,2,2,07,76,16,288,41,84,34,063,42,85,35,127,47,1*4A
$GLGSV,2,1,06,65,39,266,10,72,20,207,31,75,53,344,41,76,16,288,21,3*70
$GLGSV,2,2,06,84,34,063,34,85,35,127,38,3*71
$GLGSV,1,1,02,66,22,323,,83,04,020,,0*74
$GAGSV,2,1,08,04,26,172,41,05,34,309,40,06,48,191,40,09,61,231,41,2*7C
$GAGSV,2,2,08,16,19,256,41,18,66,107,38,23,23,058,40,31,69,013,41,2*72
$GAGSV,2,1,08,04,26,172,37,05,34,309,42,06,48,191,45,09,61,231,47,7*79
$GAGSV,2,2,08,16,19,256,35,18,66,107,47,23,23,058,37,31,69,013,46,7*7B
$GAGSV,1,1,03,12,00,156,,26,11,060,,33,14,108,,0*48
$GBGSV,2,1,08,09,56,317,43,11,43,089,44,16,74,351,47,23,67,340,49,1*79
$GBGSV,2,2,08,25,44,078,45,32,28,257,42,34,32,060,42,39,79,039,47,1*71
$GBGSV,2,1,07,06,71,336,34,07,39,207,39,09,56,317,42,10,26,213,37,B*0A
$GBGSV,2,2,07,11,43,089,45,16,74,351,34,23,67,340,11,B*36
$GQGSV,1,1,02,02,79,104,46,07,47,179,34,1*60
$GQGSV,1,1,03,02,79,104,32,04,27,184,36,07,47,179,41,6*5E
$GQGSV,1,1,02,03,16,155,,08,33,230,,0*6A
$GNRMC,070111.00,A,3727.0188798,N,12639.1147560,E,0.009,,191125,,,R,V*0E
$GNVTG,,T,,M,0.009,N,0.016,K,D*36
$GNGGA,070111.00,3727.0188798,N,12639.1147560,E,4,12,0.56,16.972,M,17.833,M,1.0,4095*5A
$GNGSA,A,3,26,27,31,16,04,09,28,08,,,,,1.07,0.56,0.92,1*04
$GNGSA,A,3,85,72,75,76,65,84,,,,,,,1.07,0.56,0.92,2*08
$GNGSA,A,3,23,16,06,05,09,04,31,,,,,,1.07,0.56,0.92,3*07
$GNGSA,A,3,06,11,32,34,25,09,16,39,23,,,,1.07,0.56,0.92,4*08
$GNGSA,A,3,02,07,,,,,,,,,,,1.07,0.56,0.92,5*0E
$GPGSV,3,1,11,04,49,281,47,08,19,210,36,09,21,314,36,16,68,309,45,1*6A
$GPGSV,3,2,11,26,58,045,46,27,48,196,46,28,27,119,42,31,57,105,48,1*62
$GPGSV,3,3,11,41,27,238,38,42,33,230,40,50,47,179,36,1*59
$GPGSV,2,1,08,04,49,281,34,08,19,210,34,09,21,314,36,18,19,083,21,6*69
$GPGSV,2,2,08,26,58,045,38,27,48,196,33,28,27,119,40,31,57,105,39,6*63
$GPGSV,1,1,01,29,02,037,,0*59
$GLGSV,2,1,07,65,39,266,48,72,20,207,43,74,34,060,38,75,53,344,47,1*73
$GLGSV,2,2,07,76,16,288,41,84,34,063,42,85,35,127,47,1*4A
$GLGSV,2,1,06,65,39,266,08,72,20,207,31,75,53,344,40,76,16,288,19,3*73
$GLGSV,2,2,06,84,34,063,33,85,35,127,37,3*79
$GLGSV,1,1,02,66,22,323,,83,04,020,,0*74
$GAGSV,2,1,08,04,26,172,40,05,34,309,40,06,48,191,40,09,61,231,41,2*7D
$GAGSV,2,2,08,16,19,256,42,18,66,107,39,23,23,058,39,31,69,013,42,2*7D
$GAGSV,2,1,08,04,26,172,37,05,34,309,42,06,48,191,44,09,61,231,47,7*78
$GAGSV,2,2,08,16,19,256,35,18,66,107,47,23,23,058,37,31,69,013,46,7*7B
$GAGSV,1,1,03,12,00,156,,26,11,060,,33,14,108,,0*48
$GBGSV,2,1,08,09,56,317,43,11,43,089,44,16,74,351,46,23,67,340,49,1*78
$GBGSV,2,2,08,25,44,078,45,32,28,257,42,34,32,060,42,39,79,039,47,1*71
$GBGSV,2,1,07,06,71,336,33,07,39,207,38,09,56,317,42,10,26,213,37,B*0C
$GBGSV,2,2,07,11,43,089,45,16,74,351,34,23,67,340,09,B*3F
$GQGSV,1,1,02,02,79,104,46,07,47,179,33,1*67
$GQGSV,1,1,03,02,79,104,32,04,27,184,36,07,47,179,41,6*5E
$GQGSV,1,1,02,03,16,155,,08,33,230,,0*6A
$GNRMC,070112.00,A,3727.0188803,N,12639.1147555,E,0.004,,191125,,,R,V*0B
$GNVTG,,T,,M,0.004,N,0.007,K,D*3B
$GNGGA,070112.00,3727.0188803,N,12639.1147555,E,4,12,0.56,16.972,M,17.833,M,1.0,4095*52
$GNGSA,A,3,26,27,31,16,04,09,28,08,,,,,1.07,0.56,0.92,1*04
$GNGSA,A,3,85,72,75,76,65,84,,,,,,,1.07,0.56,0.92,2*08
$GNGSA,A,3,23,16,06,05,09,04,31,,,,,,1.07,0.56,0.92,3*07
$GNGSA,A,3,06,11,32,34,25,09,16,39,23,,,,1.07,0.56,0.92,4*08
$GNGSA,A,3,02,07,,,,,,,,,,,1.07,0.56,0.92,5*0E
$GPGSV,3,1,11,04,49,281,47,08,19,210,36,09,21,314,36,16,68,309,45,1*6A
$GPGSV,3,2,11,26,58,045,46,27,48,196,46,28,27,119,42,31,57,105,48,1*62
$GPGSV,3,3,11,41,27,238,38,42,33,230,40,50,47,179,36,1*59
$GPGSV,2,1,08,04,49,281,34,08,19,210,34,09,21,314,36,18,19,083,22,6*6A
$GPGSV,2,2,08,26,58,045,38,27,48,196,33,28,27,119,40,31,57,105,39,6*63
$GPGSV,1,1,01,29,02,037,,0*59
$GLGSV,2,1,07,65,39,266,48,72,20,207,43,74,34,060,37,75,53,344,47,1*7C
$GLGSV,2,2,07,76,16,288,41,84,34,063,42,85,35,127,47,1*4A
$GLGSV,2,1,06,65,39,266,08,72,20,207,31,75,53,344,41,76,16,288,18,3*73
$GLGSV,2,2,06,84,34,063,33,85,35,127,36,3*78
$GLGSV,1,1,02,66,22,323,,83,04,020,,0*74
$GAGSV,2,1,08,04,26,172,40,05,34,309,40,06,48,191,40,09,61,231,41,2*7D
$GAGSV,2,2,08,16,19,256,42,18,66,107,39,23,23,058,39,31,69,013,41,2*7E
$GAGSV,2,1,08,04,26,172,37,05,34,309,42,06,48,191,45,09,61,231,47,7*79
$GAGSV,2,2,08,16,19,256,35,18,66,107,47,23,23,058,37,31,69,013,46,7*7B
$GAGSV,1,1,03,12,00,156,,26,11,060,,33,14,108,,0*48
$GBGSV,2,1,08,09,56,317,43,11,43,089,44,16,74,351,47,23,67,340,49,1*79
$GBGSV,2,2,08,25,44,078,44,32,28,257,42,34,32,060,42,39,79,039,47,1*70
$GBGSV,2,1,07,06,71,336,33,07,39,207,38,09,56,317,42,10,26,213,37,B*0C
$GBGSV,2,2,07,11,43,089,45,16,74,351,34,23,67,340,08,B*3E
$GQGSV,1,1,02,02,79,104,46,07,47,179,33,1*67
$GQGSV,1,1,03,02,79,104,32,04,27,184,36,07,47,179,41,6*5E
$GQGSV,1,1,02,03,16,155,,08,33,230,,0*6A
$GNRMC,070113.00,A,3727.0188800,N,12639.1147550,E,0.002,,191125,,,R,V*0A
$GNVTG,,T,,M,0.002,N,0.003,K,D*39
$GNGGA,070113.00,3727.0188800,N,12639.1147550,E,4,12,0.56,16.964,M,17.833,M,1.0,4095*52
$GNGSA,A,3,26,27,31,16,04,09,28,08,,,,,1.07,0.56,0.92,1*04
$GNGSA,A,3,85,72,75,76,65,84,,,,,,,1.07,0.56,0.92,2*08
$GNGSA,A,3,23,16,06,05,09,04,31,,,,,,1.07,0.56,0.92,3*07
$GNGSA,A,3,06,11,32,34,25,09,16,39,23,,,,1.07,0.56,0.92,4*08
$GNGSA,A,3,02,07,,,,,,,,,,,1.07,0.56,0.92,5*0E
$GPGSV,3,1,11,04,49,281,47,08,19,210,36,09,21,314,36,16,68,309,45,1*6A
$GPGSV,3,2,11,26,58,045,46,27,48,196,46,28,27,119,43,31,57,105,48,1*63
$GPGSV,3,3,11,41,27,238,38,42,33,230,40,50,47,179,36,1*59
$GPGSV,2,1,08,04,49,281,33,08,19,210,33,09,21,314,36,18,19,083,25,6*6D
$GPGSV,2,2,08,26,58,045,38,27,48,196,33,28,27,119,40,31,57,105,39,6*63
$GPGSV,1,1,01,29,02,037,,0*59
$GLGSV,2,1,07,65,39,266,48,72,20,207,43,74,34,060,37,75,53,344,47,1*7C
$GLGSV,2,2,07,76,16,288,41,84,34,063,42,85,35,127,47,1*4A
$GLGSV,2,1,06,65,39,266,09,72,20,207,31,75,53,344,40,76,16,288,21,3*79
$GLGSV,2,2,06,84,34,063,33,85,35,127,36,3*78
$GLGSV,1,1,02,66,22,323,,83,04,020,,0*74
$GAGSV,2,1,08,04,26,172,40,05,34,309,40,06,48,191,39,09,61,231,41,2*73
$GAGSV,2,2,08,16,19,256,42,18,66,107,39,23,23,058,39,31,69,013,41,2*7E
$GAGSV,2,1,08,04,26,172,38,05,34,309,42,06,48,191,45,09,61,231,47,7*76
$GAGSV,2,2,08,16,19,256,35,18,66,107,47,23,23,058,38,31,69,013,46,7*74
$GAGSV,1,1,03,12,00,156,,26,12,059,,33,14,108,,0*41
$GBGSV,2,1,08,09,56,317,44,11,43,089,44,16,74,351,47,23,67,340,49,1*7E
$GBGSV,2,2,08,25,44,078,44,32,28,257,42,34,32,060,42,39,79,039,47,1*70
$GBGSV,2,1,07,06,71,336,33,07,39,207,38,09,56,317,41,10,26,213,36,B*0E
$GBGSV,2,2,07,11,43,089,45,16,74,351,34,23,67,340,08,B*3E
$GQGSV,1,1,02,02,79,104,46,07,47,179,33,1*67
$GQGSV,1,1,03,02,79,104,32,04,27,184,37,07,47,179,41,6*5F
$GQGSV,1,1,02,03,16,155,,08,33,230,,0*6A
$GNRMC,070114.00,A,3727.0188787,N,12639.1147547,E,0.009,,191125,,,R,V*00
$GNVTG,,T,,M,0.009,N,0.016,K,D*36
$GNGGA,070114.00,3727.0188787,N,12639.1147547,E,4,12,0.56,16.966,M,17.833,M,1.0,4095*51
$GNGSA,A,3,26,27,31,16,04,09,28,08,,,,,1.07,0.56,0.92,1*04
$GNGSA,A,3,85,72,75,76,65,84,,,,,,,1.07,0.56,0.92,2*08
$GNGSA,A,3,23,16,06,05,09,04,31,,,,,,1.07,0.56,0.92,3*07
$GNGSA,A,3,06,11,32,34,25,09,16,39,23,,,,1.07,0.56,0.92,4*08
$GNGSA,A,3,02,07,,,,,,,,,,,1.07,0.56,0.92,5*0E
$GPGSV,3,1,11,04,49,281,47,08,19,210,37,09,21,314,36,16,68,309,45,1*6B
$GPGSV,3,2,11,26,58,045,46,27,48,196,46,28,27,119,43,31,57,105,48,1*63
$GPGSV,3,3,11,41,27,238,38,42,33,230,40,50,47,179,36,1*59
$GPGSV,2,1,08,04,49,281,33,08,19,210,33,09,21,314,36,18,19,083,26,6*6E
$GPGSV,2,2,08,26,58,045,38,27,48,196,33,28,27,119,40,31,57,105,39,6*63
$GPGSV,1,1,01,29,02,037,,0*59
$GLGSV,2,1,07,65,39,266,48,72,20,207,43,74,34,060,37,75,53,344,47,1*7C
$GLGSV,2,2,07,76,16,288,42,84,34,063,43,85,35,127,48,1*47
$GLGSV,2,1,06,65,39,266,08,72,20,207,32,75,53,344,40,76,16,288,25,3*7F
$GLGSV,2,2,06,84,34,063,33,85,35,127,35,3*7B
$GLGSV,1,1,02,66,22,323,,83,04,020,,0*74
$GAGSV,2,1,08,04,26,172,40,05,34,309,40,06,48,191,39,09,61,231,41,2*73
$GAGSV,2,2,08,16,19,256,42,18,66,107,39,23,23,058,39,31,69,013,41,2*7E
$GAGSV,3,1,09,04,26,172,38,05,34,309,42,06,48,191,45,09,61,231,47,7*76
$GAGSV,3,2,09,16,19,256,35,18,66,107,47,23,23,058,37,31,69,013,46,7*7B
$GAGSV,3,3,09,33,14,108,41,7*43
$GAGSV,1,1,02,12,00,156,,26,12,059,,0*7C
$GBGSV,2,1,08,09,56,317,44,11,43,089,44,16,74,351,47,23,67,340,49,1*7E
$GBGSV,2,2,08,25,44,078,44,32,28,257,42,34,32,060,42,39,79,039,47,1*70
$GBGSV,2,1,07,06,71,336,33,07,39,207,38,09,56,317,41,10,26,213,36,B*0E
$GBGSV,2,2,07,11,43,089,45,16,74,351,34,23,67,340,07,B*31
$GQGSV,1,1,02,02,79,103,46,07,47,179,33,1*60
$GQGSV,1,1,03,02,79,103,32,04,27,184,37,07,47,179,41,6*58
$GQGSV,1,1,02,03,16,155,,08,33,230,,0*6A
$GNRMC,070115.00,A,3727.0188807,N,12639.1147557,E,0.010,,191125,,,R,V*0F
$GNVTG,,T,,M,0.010,N,0.019,K,D*31
$GNGGA,070115.00,3727.0188807,N,12639.1147557,E,4,12,0.56,16.963,M,17.833,M,1.0,4095*53
$GNGSA,A,3,26,27,31,16,04,09,28,08,,,,,1.07,0.56,0.92,1*04
$GNGSA,A,3,85,72,75,76,65,84,,,,,,,1.07,0.56,0.92,2*08
$GNGSA,A,3,23,16,06,05,09,04,31,,,,,,1.07,0.56,0.92,3*07
$GNGSA,A,3,06,11,32,34,25,09,16,39,23,,,,1.07,0.56,0.92,4*08
$GNGSA,A,3,02,07,,,,,,,,,,,1.07,0.56,0.92,5*0E
$GPGSV,3,1,11,04,49,281,47,08,19,210,36,09,21,314,36,16,68,309,45,1*6A
$GPGSV,3,2,11,26,58,045,46,27,48,196,46,28,27,119,43,31,57,105,48,1*63
$GPGSV,3,3,11,41,27,238,38,42,33,230,40,50,47,179,36,1*59
$GPGSV,2,1,08,04,49,281,32,08,19,210,33,09,21,314,36,18,19,083,27,6*6E
$GPGSV,2,2,08,26,58,045,38,27,48,196,34,28,27,119,41,31,57,105,39,6*65
$GPGSV,1,1,01,29,02,037,,0*59
$GLGSV,2,1,07,65,39,266,48,72,20,207,43,74,34,060,38,75,53,344,47,1*73
$GLGSV,2,2,07,76,16,288,42,84,34,063,43,85,35,127,48,1*47
$GLGSV,2,1,06,65,39,266,09,72,20,207,32,75,53,344,40,76,16,288,26,3*7D
$GLGSV,2,2,06,84,34,063,32,85,35,127,35,3*7A
$GLGSV,1,1,02,66,22,323,,83,04,020,,0*74
$GAGSV,2,1,08,04,26,172,40,05,34,309,40,06,48,191,39,09,61,231,41,2*73
$GAGSV,2,2,08,16,19,256,42,18,66,107,38,23,23,058,39,31,69,013,41,2*7F
$GAGSV,3,1,09,04,26,172,38,05,34,309,42,06,48,191,45,09,61,231,47,7*76
$GAGSV,3,2,09,16,19,256,34,18,66,107,47,23,23,058,37,31,69,013,46,7*7A
$GAGSV,3,3,09,33,14,108,42,7*40
$GAGSV,1,1,02,12,00,156,,26,12,059,,0*7C
$GBGSV,2,1,08,09,56,317,44,11,43,089,44,16,74,351,47,23,67,340,49,1*7E
$GBGSV,2,2,08,25,44,078,44,32,28,257,42,34,32,060,42,39,79,039,47,1*70
$GBGSV,2,1,07,06,71,336,33,07,39,207,37,09,56,317,41,10,26,213,36,B*01
$GBGSV,2,2,07,11,43,089,45,16,74,351,34,23,67,340,07,B*31
$GQGSV,1,1,02,02,79,103,46,07,47,179,34,1*67
$GQGSV,1,1,03,02,79,103,32,04,27,184,37,07,47,179,41,6*58
$GQGSV,1,1,02,03,16,155,,08,33,230,,0*6A
$GNRMC,070116.00,A,3727.0188813,N,12639.1147566,E,0.009,,191125,,,R,V*03
$GNVTG,,T,,M,0.009,N,0.016,K,D*36
$GNGGA,070116.00,3727.0188813,N,12639.1147566,E,4,12,0.56,16.967,M,17.833,M,1.0,4095*53
$GNGSA,A,3,26,27,31,16,04,09,28,08,,,,,1.07,0.56,0.92,1*04
$GNGSA,A,3,85,72,75,76,65,84,,,,,,,1.07,0.56,0.92,2*08
$GNGSA,A,3,23,16,06,05,09,04,31,,,,,,1.07,0.56,0.92,3*07
$GNGSA,A,3,06,11,32,34,25,09,16,39,23,,,,1.07,0.56,0.92,4*08
$GNGSA,A,3,02,07,,,,,,,,,,,1.07,0.56,0.92,5*0E
$GPGSV,3,1,11,04,49,281,47,08,19,210,37,09,21,314,37,16,68,309,45,1*6A
$GPGSV,3,2,11,26,58,045,46,27,48,196,46,28,27,119,42,31,57,105,48,1*62
$GPGSV,3,3,11,41,27,238,39,42,33,230,40,50,47,179,37,1*59
$GPGSV,2,1,08,04,49,281,30,08,19,210,33,09,21,314,36,18,19,083,28,6*63
$GPGSV,2,2,08,26,58,045,37,27,48,196,33,28,27,119,39,31,57,105,37,6*6C
$GPGSV,1,1,01,29,02,037,,0*59
$GLGSV,2,1,07,65,39,266,48,72,20,207,43,74,34,060,38,75,53,344,47,1*73
$GLGSV,2,2,07,76,16,288,42,84,34,063,43,85,35,127,48,1*47
$GLGSV,2,1,06,65,39,266,08,72,20,207,31,75,53,344,39,76,16,288,26,3*71
$GLGSV,2,2,06,84,34,063,32,85,35,127,35,3*7A
$GLGSV,1,1,02,66,22,323,,83,04,020,,0*74
$GAGSV,2,1,08,04,26,172,40,05,34,309,40,06,48,191,40,09,61,231,40,2*7C
$GAGSV,2,2,08,16,19,256,42,18,66,107,39,23,23,058,39,31,69,013,41,2*7E
$GAGSV,3,1,09,04,26,172,38,05,34,309,42,06,48,191,45,09,61,231,47,7*76
$GAGSV,3,2,09,16,19,256,34,18,66,107,47,23,23,058,38,31,69,013,46,7*75
$GAGSV,3,3,09,33,14,108,41,7*43
$GAGSV,1,1,02,12,00,156,,26,12,059,,0*7C
$GBGSV,2,1,08,09,56,317,43,11,43,089,44,16,74,351,47,23,67,340,49,1*79
$GBGSV,2,2,08,25,44,078,44,32,28,257,42,34,32,060,42,39,79,039,47,1*70
$GBGSV,2,1,07,06,71,336,33,07,39,207,38,09,56,317,41,10,26,213,38,B*00
$GBGSV,2,2,07,11,43,089,46,16,74,351,33,23,67,340,07,B*35
$GQGSV,1,1,02,02,79,103,46,07,47,179,34,1*67
$GQGSV,1,1,03,02,79,103,32,04,27,184,35,07,47,179,40,6*5B
$GQGSV,1,1,02,03,16,155,,08,33,230,,0*6A
$GNRMC,070117.00,A,3727.0188806,N,12639.1147551,E,0.010,,191125,,,R,V*0A
$GNVTG,,T,,M,0.010,N,0.019,K,D*31
$GNGGA,070117.00,3727.0188806,N,12639.1147551,E,4,12,0.56,16.970,M,17.833,M,2.0,4095*57
$GNGSA,A,3,26,27,31,16,04,09,28,08,,,,,1.07,0.56,0.92,1*04
$GNGSA,A,3,85,72,75,76,65,84,,,,,,,1.07,0.56,0.92,2*08
$GNGSA,A,3,23,16,06,05,09,04,31,,,,,,1.07,0.56,0.92,3*07
$GNGSA,A,3,06,11,32,34,25,09,16,39,23,,,,1.07,0.56,0.92,4*08
$GNGSA,A,3,02,07,,,,,,,,,,,1.07,0.56,0.92,5*0E
$GPGSV,3,1,11,04,49,281,46,08,19,210,37,09,21,314,36,16,68,309,45,1*6A
$GPGSV,3,2,11,26,58,045,46,27,48,196,46,28,27,119,42,31,57,105,48,1*62
$GPGSV,3,3,11,41,27,238,39,42,33,230,40,50,47,179,36,1*58
$GPGSV,2,1,08,04,49,281,30,08,19,210,34,09,21,314,36,18,19,083,27,6*6B
$GPGSV,2,2,08,26,58,045,37,27,48,196,33,28,27,119,39,31,57,105,37,6*6C
$GPGSV,1,1,01,29,02,037,,0*59
$GLGSV,2,1,07,65,39,266,48,72,20,207,43,74,34,060,38,75,53,344,47,1*73
$GLGSV,2,2,07,76,16,288,42,84,34,063,43,85,35,127,48,1*47
$GLGSV,2,1,06,65,39,266,07,72,20,207,31,75,53,344,39,76,16,288,26,3*7E
$GLGSV,2,2,06,84,34,063,32,85,35,127,34,3*7B
$GLGSV,1,1,02,66,22,323,,83,04,020,,0*74
$GAGSV,2,1,08,04,26,172,40,05,34,309,40,06,48,191,39,09,61,231,40,2*72
$GAGSV,2,2,08,16,19,256,42,18,66,107,39,23,23,058,39,31,69,015,42,2*7B
$GAGSV,3,1,09,04,26,172,38,05,34,309,43,06,48,191,45,09,61,231,47,7*77
$GAGSV,3,2,09,16,19,256,35,18,66,107,47,23,23,058,38,31,69,015,46,7*72
$GAGSV,3,3,09,33,14,108,41,7*43
$GAGSV,1,1,02,12,00,156,,26,12,059,,0*7C
$GBGSV,2,1,08,09,56,317,43,11,43,089,44,16,74,351,47,23,67,340,49,1*79
$GBGSV,2,2,08,25,44,078,44,32,28,257,42,34,32,060,42,39,79,039,47,1*70
$GBGSV,2,1,07,06,71,336,34,07,39,207,39,09,56,317,41,10,26,213,37,B*09
$GBGSV,2,2,07,11,43,089,46,16,74,351,33,23,67,340,07,B*35
$GQGSV,1,1,02,02,79,103,46,07,47,179,34,1*67
$GQGSV,1,1,03,02,79,103,32,04,27,184,36,07,47,179,40,6*58
$GQGSV,1,1,02,03,16,155,,08,33,230,,0*6A
$GNRMC,070118.00,A,3727.0188810,N,12639.1147552,E,0.020,,191125,,,R,V*02
$GNVTG,,T,,M,0.020,N,0.038,K,D*31
$GNGGA,070118.00,3727.0188810,N,12639.1147552,E,4,12,0.56,16.966,M,17.833,M,1.0,4095*58
$GNGSA,A,3,26,27,31,16,04,09,28,08,,,,,1.07,0.56,0.92,1*04
$GNGSA,A,3,85,72,75,76,65,84,,,,,,,1.07,0.56,0.92,2*08
$GNGSA,A,3,23,16,06,05,09,04,31,,,,,,1.07,0.56,0.92,3*07
$GNGSA,A,3,06,11,32,34,25,09,16,39,23,,,,1.07,0.56,0.92,4*08
$GNGSA,A,3,02,07,,,,,,,,,,,1.07,0.56,0.92,5*0E
$GPGSV,3,1,11,04,49,281,46,08,19,210,37,09,21,314,36,16,68,309,45,1*6A
$GPGSV,3,2,11,26,58,045,46,27,48,196,46,28,27,119,42,31,57,105,48,1*62
$GPGSV,3,3,11,41,27,238,39,42,33,230,40,50,47,179,36,1*58
$GPGSV,2,1,08,04,49,281,29,08,19,210,33,09,21,314,36,18,19,083,28,6*6B
$GPGSV,2,2,08,26,58,045,37,27,48,196,33,28,27,119,40,31,57,105,38,6*6D
$GPGSV,1,1,01,29,02,037,,0*59
$GLGSV,2,1,07,65,39,266,48,72,20,207,44,74,34,060,38,75,53,344,47,1*74
$GLGSV,2,2,07,76,16,288,42,84,34,063,43,85,35,127,48,1*47
$GLGSV,2,1,06,65,39,266,06,72,20,207,30,75,53,344,39,76,16,288,26,3*7E
$GLGSV,2,2,06,84,34,063,32,85,35,127,34,3*7B
$GLGSV,1,1,02,66,22,323,,83,04,020,,0*74
$GAGSV,2,1,08,04,26,172,40,05,34,309,40,06,48,191,40,09,61,231,40,2*7C
$GAGSV,2,2,08,16,19,256,42,18,66,107,39,23,23,058,39,31,69,015,41,2*78
$GAGSV,3,1,09,04,26,172,37,05,34,309,42,06,48,191,45,09,61,231,47,7*79
$GAGSV,3,2,09,16,19,256,34,18,66,107,47,23,23,058,38,31,69,015,46,7*73
$GAGSV,3,3,09,33,14,108,42,7*40
$GAGSV,1,1,02,12,00,156,,26,12,059,,0*7C
$GBGSV,2,1,08,09,56,317,43,11,43,089,44,16,74,351,47,23,67,340,49,1*79
$GBGSV,2,2,08,25,44,078,44,32,28,257,42,34,32,060,42,39,79,039,47,1*70
$GBGSV,2,1,07,06,71,336,33,07,39,207,39,09,56,317,41,10,26,213,36,B*0F
$GBGSV,2,2,07,11,43,089,46,16,74,351,34,23,67,340,07,B*32
$GQGSV,1,1,02,02,79,103,46,07,47,179,33,1*60
$GQGSV,1,1,03,02,79,103,32,04,27,184,37,07,47,179,40,6*59
$GQGSV,1,1,02,03,16,155,,08,33,230,,0*6A
$GNRMC,070119.00,A,3727.0188790,N,12639.1147561,E,0.004,,191125,,,R,V*02
$GNVTG,,T,,M,0.004,N,0.006,K,D*3A
$GNGGA,070119.00,3727.0188790,N,12639.1147561,E,4,12,0.56,16.970,M,17.833,M,1.0,4095*59
$GNGSA,A,3,26,27,31,16,04,09,28,08,,,,,1.07,0.56,0.92,1*04
$GNGSA,A,3,85,72,75,76,65,84,,,,,,,1.07,0.56,0.92,2*08
$GNGSA,A,3,23,16,06,05,09,04,31,,,,,,1.07,0.56,0.92,3*07
$GNGSA,A,3,06,11,32,34,25,09,16,39,23,,,,1.07,0.56,0.92,4*08
$GNGSA,A,3,02,07,,,,,,,,,,,1.07,0.56,0.92,5*0E
$GPGSV,3,1,11,04,49,281,46,08,19,210,37,09,21,314,36,16,68,309,45,1*6A
$GPGSV,3,2,11,26,58,045,46,27,48,196,46,28,27,119,42,31,57,105,48,1*62
$GPGSV,3,3,11,41,27,238,39,42,33,230,39,50,47,179,37,1*57
$GPGSV,2,1,08,04,49,281,29,08,19,210,34,09,21,314,36,18,19,083,28,6*6C
$GPGSV,2,2,08,26,58,045,37,27,48,196,33,28,27,119,41,31,57,105,38,6*6C
$GPGSV,1,1,02,29,02,037,,40,07,260,,0*6D
$GLGSV,2,1,07,65,39,266,48,72,20,207,43,74,34,060,40,75,53,344,47,1*7C
$GLGSV,2,2,07,76,16,288,42,84,34,063,44,85,35,127,47,1*4F
$GLGSV,2,1,05,72,20,207,31,75,53,344,41,76,16,288,27,84,34,063,32,3*70
$GLGSV,2,2,05,85,35,127,35,3*46
$GLGSV,1,1,02,66,22,323,,83,04,020,,0*74
$GAGSV,2,1,08,04,26,172,40,05,34,309,40,06,48,191,40,09,61,231,39,2*72
$GAGSV,2,2,08,16,19,256,41,18,66,107,39,23,23,058,38,31,69,015,41,2*7A
$GAGSV,3,1,09,04,26,172,38,05,34,309,42,06,48,191,44,09,61,231,47,7*77
$GAGSV,3,2,09,16,19,256,34,18,66,107,47,23,23,058,37,31,69,015,46,7*7C
$GAGSV,3,3,09,33,14,108,41,7*43
$GAGSV,1,1,02,12,00,156,,26,12,059,,0*7C
$GBGSV,2,1,08,09,56,317,44,11,43,089,44,16,74,351,46,23,67,340,49,1*7F
$GBGSV,2,2,08,25,44,078,44,32,28,257,41,34,32,060,42,39,79,039,47,1*73
$GBGSV,2,1,07,06,71,336,34,07,39,207,38,09,56,317,41,10,26,213,38,B*07
$GBGSV,2,2,07,11,43,089,45,16,74,351,34,23,67,340,07,B*31
$GQGSV,1,1,02,02,79,103,46,07,47,179,34,1*67
$GQGSV,1,1,03,02,79,103,33,04,27,184,37,07,47,179,41,6*59
$GQGSV,1,1,02,03,16,155,,08,33,230,,0*6A
$GNRMC,070120.00,A,3727.0188798,N,12639.1147566,E,0.006,,191125,,,R,V*05
$GNVTG,,T,,M,0.006,N,0.011,K,D*3E
$GNGGA,070120.00,3727.0188798,N,12639.1147566,E,4,12,0.56,16.971,M,17.833,M,2.0,4095*5E
$GNGSA,A,3,26,27,31,16,04,09,28,08,,,,,1.07,0.56,0.92,1*04
$GNGSA,A,3,85,72,75,76,65,84,,,,,,,1.07,0.56,0.92,2*08
$GNGSA,A,3,23,16,06,05,09,04,31,,,,,,1.07,0.56,0.92,3*07
$GNGSA,A,3,06,11,32,34,25,09,16,39,23,,,,1.07,0.56,0.92,4*08
$GNGSA,A,3,02,07,,,,,,,,,,,1.07,0.56,0.92,5*0E
$GPGSV,3,1,11,04,49,281,46,08,19,210,37,09,21,314,36,16,68,309,45,1*6A
$GPGSV,3,2,11,26,58,045,46,27,48,196,46,28,27,119,42,31,57,105,48,1*62
$GPGSV,3,3,11,41,27,238,40,42,33,230,40,50,47,179,37,1*57
$GPGSV,2,1,08,04,49,281,28,08,19,210,35,09,21,314,35,18,19,083,28,6*6F
$GPGSV,2,2,08,26,58,045,37,27,48,196,36,28,27,119,41,31,57,105,39,6*68
$GPGSV,1,1,02,29,02,037,,40,07,260,,0*6D
$GLGSV,2,1,07,65,39,266,48,72,20,207,43,74,34,060,39,75,53,344,47,1*72
$GLGSV,2,2,07,76,16,288,41,84,34,063,43,85,35,127,47,1*4B
$GLGSV,2,1,05,72,20,207,32,75,53,344,41,76,16,288,26,84,34,063,34,3*74
$GLGSV,2,2,05,85,35,127,34,3*47
$GLGSV,1,1,02,66,22,323,,83,04,020,,0*74
$GAGSV,2,1,08,04,26,172,40,05,34,309,40,06,48,191,41,09,61,231,36,2*7C
$GAGSV,2,2,08,16,19,256,41,18,66,107,38,23,23,058,37,31,69,015,40,2*75
$GAGSV,3,1,09,04,26,172,37,05,34,309,42,06,48,191,44,09,61,231,47,7*78
$GAGSV,3,2,09,16,19,256,34,18,66,107,47,23,23,058,37,31,69,015,46,7*7C
$GAGSV,3,3,09,33,14,108,40,7*42
$GAGSV,1,1,02,12,00,156,,26,12,059,,0*7C
$GBGSV,2,1,08,09,56,317,43,11,43,089,44,16,74,351,46,23,67,340,49,1*78
$GBGSV,2,2,08,25,44,078,44,32,28,257,42,34,32,060,42,39,79,039,47,1*70
$GBGSV,2,1,06,06,71,336,33,07,39,207,38,09,56,317,41,10,26,213,36,B*0F
$GBGSV,2,2,06,11,43,089,45,16,74,351,33,B*07
$GQGSV,1,1,02,02,79,103,45,07,47,179,34,1*64
$GQGSV,1,1,03,02,79,103,32,04,27,184,39,07,47,179,39,6*59
$GQGSV,1,1,02,03,16,155,,08,33,230,,0*6A
$GNRMC,070121.00,A,3727.0188782,N,12639.1147574,E,0.006,,191125,,,R,V*0C
$GNVTG,,T,,M,0.006,N,0.011,K,D*3E
$GNGGA,070121.00,3727.0188782,N,12639.1147574,E,4,12,0.56,16.970,M,17.833,M,1.0,4095*55
$GNGSA,A,3,26,27,31,16,04,09,28,08,,,,,1.07,0.56,0.92,1*04
$GNGSA,A,3,85,72,75,76,65,84,,,,,,,1.07,0.56,0.92,2*08
$GNGSA,A,3,23,16,06,05,09,04,31,,,,,,1.07,0.56,0.92,3*07
$GNGSA,A,3,06,11,32,34,25,09,16,39,23,,,,1.07,0.56,0.92,4*08
$GNGSA,A,3,02,07,,,,,,,,,,,1.07,0.56,0.92,5*0E
$GPGSV,3,1,11,04,49,281,46,08,19,210,37,09,21,314,36,16,68,309,45,1*6A
$GPGSV,3,2,11,26,58,045,46,27,48,196,46,28,27,119,42,31,57,105,48,1*62
$GPGSV,3,3,11,41,27,238,40,42,33,230,40,50,47,179,37,1*57
$GPGSV,2,1,08,04,49,281,28,08,19,210,34,09,21,314,35,18,19,083,28,6*6E
$GPGSV,2,2,08,26,58,045,37,27,48,196,35,28,27,119,41,31,57,105,38,6*6A
$GPGSV,1,1,02,29,02,037,,40,07,260,,0*6D
$GLGSV,2,1,07,65,39,266,48,72,20,207,44,74,34,060,39,75,53,344,47,1*75
$GLGSV,2,2,07,76,16,288,39,84,34,063,44,85,35,127,47,1*43
$GLGSV,2,1,05,72,20,207,32,75,53,344,42,76,16,288,27,84,34,063,33,3*71
$GLGSV,2,2,05,85,35,127,34,3*47
$GLGSV,1,1,02,66,22,323,,83,04,020,,0*74
$GAGSV,2,1,08,04,26,172,42,05,34,309,41,06,48,191,42,09,61,231,37,2*7D
$GAGSV,2,2,08,16,19,256,41,18,66,107,40,23,23,058,38,31,69,015,40,2*75
$GAGSV,3,1,09,04,26,172,38,05,34,309,42,06,48,191,44,09,61,231,47,7*77
$GAGSV,3,2,09,16,19,256,34,18,66,107,47,23,23,058,39,31,69,015,46,7*72
$GAGSV,3,3,09,33,14,108,41,7*43
$GAGSV,1,1,02,12,00,156,,26,12,059,,0*7C
$GBGSV,2,1,08,09,56,317,44,11,43,089,44,16,74,351,47,23,67,340,49,1*7E
$GBGSV,2,2,08,25,44,078,44,32,28,257,42,34,32,060,42,39,79,039,47,1*70
$GBGSV,2,1,06,06,72,336,33,07,39,207,38,09,56,317,41,10,26,213,37,B*0D
$GBGSV,2,2,06,11,43,089,45,16,74,351,33,B*07
$GQGSV,1,1,02,02,79,103,45,07,47,179,34,1*64
$GQGSV,1,1,03,02,79,103,35,04,27,184,37,07,47,179,40,6*5E
$GQGSV,1,1,02,03,16,155,,08,33,230,,0*6A
$GNRMC,070122.00,A,3727.0188776,N,12639.1147566,E,0.017,,191125,,,R,V*07
$GNVTG,,T,,M,0.017,N,0.031,K,D*3C
$GNGGA,070122.00,3727.0188776,N,12639.1147566,E,4,12,0.56,16.967,M,17.833,M,1.0,4095*58
$GNGSA,A,3,26,27,31,16,04,09,28,08,,,,,1.07,0.56,0.92,1*04
$GNGSA,A,3,85,72,75,76,65,84,,,,,,,1.07,0.56,0.92,2*08
$GNGSA,A,3,23,16,06,05,09,04,31,,,,,,1.07,0.56,0.92,3*07
$GNGSA,A,3,06,11,32,34,25,09,16,39,23,,,,1.07,0.56,0.92,4*08
$GNGSA,A,3,02,07,,,,,,,,,,,1.07,0.56,0.92,5*0E
$GPGSV,3,1,11,04,49,281,46,08,19,210,37,09,21,314,36,16,68,309,45,1*6A
$GPGSV,3,2,11,26,58,045,46,27,48,196,46,28,27,119,42,31,57,105,48,1*62
$GPGSV,3,3,11,41,27,238,39,42,33,230,40,50,47,179,38,1*56
$GPGSV,2,1,08,04,49,281,28,08,19,210,33,09,21,314,35,18,19,083,28,6*69
$GPGSV,2,2,08,26,58,045,37,27,48,196,34,28,27,119,41,31,57,105,38,6*6B
$GPGSV,1,1,02,29,02,037,,40,07,260,,0*6D
$GLGSV,2,1,08,65,39,266,48,72,20,207,44,74,34,060,39,75,53,344,47,1*7A
$GLGSV,2,2,08,76,16,288,39,84,34,063,43,85,35,127,47,,,,39,1*41
$GLGSV,2,1,06,65,39,266,13,72,20,207,31,75,53,344,41,76,16,288,27,3*75
$GLGSV,2,2,06,84,34,063,32,85,35,127,34,3*7B
$GLGSV,1,1,02,66,22,323,,83,04,020,,0*74
$GAGSV,2,1,08,04,26,172,40,05,34,309,41,06,48,191,41,09,61,231,37,2*7C
$GAGSV,2,2,08,16,19,256,41,18,66,107,40,23,23,058,38,31,69,015,41,2*74
$GAGSV,3,1,09,04,26,172,38,05,34,309,42,06,48,191,45,09,61,231,47,7*76
$GAGSV,3,2,09,16,19,256,34,18,66,107,47,23,23,058,38,31,69,015,46,7*73
$GAGSV,3,3,09,33,14,108,40,7*42
$GAGSV,1,1,02,12,00,156,,26,12,059,,0*7C
$GBGSV,2,1,08,09,56,317,44,11,43,089,45,16,74,351,46,23,67,340,49,1*7E
$GBGSV,2,2,08,25,44,078,45,32,28,257,40,34,32,060,42,39,79,039,47,1*73
$GBGSV,2,1,06,06,72,336,32,07,39,208,37,09,56,317,41,10,26,213,38,B*03
$GBGSV,2,2,06,11,43,089,46,16,74,351,32,B*05
$GQGSV,1,1,02,02,79,103,45,07,47,179,35,1*65
$GQGSV,1,1,03,02,79,103,32,04,27,184,37,07,47,179,40,6*59
$GQGSV,1,1,02,03,16,155,,08,33,230,,0*6A
$GNRMC,070123.00,A,3727.0188787,N,12639.1147565,E,0.008,,191125,,,R,V*05
$GNVTG,,T,,M,0.008,N,0.016,K,D*37
$GNGGA,070123.00,3727.0188787,N,12639.1147565,E,4,12,0.56,16.970,M,17.833,M,1.0,4095*52
$GNGSA,A,3,26,27,31,16,04,09,28,08,,,,,1.07,0.56,0.92,1*04
$GNGSA,A,3,85,72,75,76,65,84,,,,,,,1.07,0.56,0.92,2*08
$GNGSA,A,3,23,16,06,05,09,04,31,,,,,,1.07,0.56,0.92,3*07
$GNGSA,A,3,06,11,32,34,25,09,16,39,23,,,,1.07,0.56,0.92,4*08
$GNGSA,A,3,02,07,,,,,,,,,,,1.07,0.56,0.92,5*0E
$GPGSV,3,1,11,04,49,281,46,08,19,210,37,09,21,314,36,16,68,309,45,1*6A
$GPGSV,3,2,11,26,58,045,46,27,48,196,46,28,27,119,41,31,57,105,48,1*61
$GPGSV,3,3,11,41,27,238,39,42,33,230,40,50,47,179,37,1*59
$GPGSV,2,1,08,04,49,281,27,08,19,210,32,09,21,314,36,18,19,083,28,6*64
$GPGSV,2,2,08,26,58,045,37,27,48,196,33,28,27,119,43,31,57,105,38,6*6E
$GPGSV,1,1,02,29,02,037,,40,07,260,,0*6D
$GLGSV,2,1,08,65,39,266,48,72,20,207,44,74,34,060,39,75,53,344,47,1*7A
$GLGSV,2,2,08,76,16,288,39,84,34,063,43,85,35,127,46,,,,41,1*4F
$GLGSV,2,1,06,65,39,266,11,72,20,207,31,75,53,344,40,76,16,288,27,3*76
$GLGSV,2,2,06,84,34,063,32,85,35,127,34,3*7B
$GLGSV,1,1,02,66,22,323,,83,04,020,,0*74
$GAGSV,2,1,08,04,26,172,40,05,34,309,42,06,47,191,40,09,61,231,37,2*71
$GAGSV,2,2,08,16,19,256,41,18,66,107,40,23,23,058,38,31,69,015,42,2*77
$GAGSV,3,1,09,04,26,172,38,05,34,309,42,06,47,191,45,09,61,231,47,7*79
$GAGSV,3,2,09,16,19,256,34,18,66,107,47,23,23,058,37,31,69,015,46,7*7C
$GAGSV,3,3,09,33,14,108,41,7*43
$GAGSV,1,1,02,12,00,156,,26,12,059,,0*7C
$GBGSV,2,1,08,09,56,317,44,11,43,089,44,16,74,351,46,23,67,340,49,1*7F
$GBGSV,2,2,08,25,44,078,44,32,28,257,41,34,32,060,41,39,79,039,47,1*70
$GBGSV,2,1,06,06,72,336,33,07,39,208,38,09,56,317,41,10,26,213,36,B*03
$GBGSV,2,2,06,11,43,089,45,16,74,351,32,B*06
$GQGSV,1,1,02,02,79,103,45,07,47,179,35,1*65
$GQGSV,1,1,03,02,79,103,33,04,27,184,37,07,47,179,41,6*59
$GQGSV,1,1,02,03,16,155,,08,33,230,,0*6A
$GNRMC,070124.00,A,3727.0188800,N,12639.1147556,E,0.009,,191125,,,R,V*03
$GNVTG,,T,,M,0.009,N,0.017,K,D*37
$GNGGA,070124.00,3727.0188800,N,12639.1147556,E,4,12,0.56,16.967,M,17.833,M,2.0,4095*50
$GNGSA,A,3,26,27,31,16,04,09,28,08,,,,,1.07,0.56,0.92,1*04
$GNGSA,A,3,85,72,75,76,65,84,,,,,,,1.07,0.56,0.92,2*08
$GNGSA,A,3,23,16,06,05,09,04,31,,,,,,1.07,0.56,0.92,3*07
$GNGSA,A,3,06,11,32,34,25,09,16,39,23,,,,1.07,0.56,0.92,4*08
$GNGSA,A,3,02,07,,,,,,,,,,,1.07,0.56,0.92,5*0E
$GPGSV,3,1,11,04,49,281,46,08,19,210,38,09,21,314,36,16,68,309,45,1*65
$GPGSV,3,2,11,26,58,045,46,27,48,196,46,28,27,119,42,31,57,105,49,1*63
$GPGSV,3,3,11,41,27,238,39,42,33,230,40,50,47,179,37,1*59
$GPGSV,2,1,08,04,49,281,25,08,19,210,32,09,21,314,36,18,19,083,29,6*67
$GPGSV,2,2,08,26,58,045,37,27,48,196,34,28,27,119,42,31,57,105,40,6*67
$GPGSV,1,1,02,29,02,037,,40,07,260,,0*6D
$GLGSV,2,1,08,65,39,266,47,72,20,207,43,74,34,060,39,75,53,344,47,1*72
$GLGSV,2,2,08,76,16,288,41,84,34,063,43,85,35,127,47,,,,41,1*41
$GLGSV,2,1,06,65,39,266,10,72,20,207,31,75,53,344,41,76,16,288,25,3*74
$GLGSV,2,2,06,84,34,063,31,85,35,127,35,3*79
$GLGSV,1,1,02,66,22,323,,83,04,020,,0*74
$GAGSV,2,1,08,04,26,172,41,05,34,309,42,06,47,191,41,09,61,231,37,2*71
$GAGSV,2,2,08,16,19,256,42,18,66,107,39,23,23,058,38,31,69,015,42,2*7A
$GAGSV,3,1,09,04,26,172,38,05,34,309,42,06,47,191,45,09,61,231,47,7*79
$GAGSV,3,2,09,16,19,256,32,18,66,107,47,23,23,058,38,31,69,015,46,7*75
$GAGSV,3,3,09,33,14,108,41,7*43
$GAGSV,1,1,02,12,00,156,,26,12,059,,0*7C
$GBGSV,2,1,08,09,56,317,44,11,43,089,45,16,74,351,46,23,67,340,49,1*7E
$GBGSV,2,2,08,25,44,078,44,32,28,257,41,34,32,060,42,39,79,039,47,1*73
$GBGSV,2,1,06,06,72,336,33,07,39,208,38,09,56,317,42,10,26,213,36,B*00
$GBGSV,2,2,06,11,43,089,46,16,74,351,33,B*04
$GQGSV,1,1,02,02,79,103,45,07,47,179,34,1*64
$GQGSV,1,1,03,02,79,103,35,04,27,184,39,07,47,179,41,6*51
$GQGSV,1,1,02,03,16,155,,08,33,230,,0*6A
$GNRMC,070125.00,A,3727.0188801,N,12639.1147571,E,0.002,,191125,,,R,V*0D
$GNVTG,,T,,M,0.002,N,0.003,K,D*39
$GNGGA,070125.00,3727.0188801,N,12639.1147571,E,4,12,0.56,16.966,M,17.833,M,1.0,4095*57
$GNGSA,A,3,26,27,31,16,04,09,28,08,,,,,1.07,0.56,0.92,1*04
$GNGSA,A,3,85,72,75,76,65,84,,,,,,,1.07,0.56,0.92,2*08
$GNGSA,A,3,23,16,06,05,09,04,31,,,,,,1.07,0.56,0.92,3*07
$GNGSA,A,3,06,11,32,34,25,09,16,39,23,,,,1.07,0.56,0.92,4*08
$GNGSA,A,3,02,07,,,,,,,,,,,1.07,0.56,0.92,5*0E
$GPGSV,3,1,11,04,49,281,46,08,19,210,37,09,21,314,36,16,68,309,45,1*6A
$GPGSV,3,2,11,26,58,045,46,27,48,196,46,28,27,119,42,31,57,105,49,1*63
$GPGSV,3,3,11,41,27,238,39,42,33,230,40,50,47,179,36,1*58
$GPGSV,2,1,08,04,49,281,26,08,19,210,32,09,21,314,36,18,19,083,28,6*65
$GPGSV,2,2,08,26,58,045,36,27,48,196,34,28,27,119,41,31,57,105,39,6*6B
$GPGSV,1,1,02,29,02,037,,40,07,260,,0*6D
$GLGSV,2,1,08,65,39,266,48,72,20,207,42,74,34,060,39,75,53,344,47,1*7C
$GLGSV,2,2,08,76,16,288,42,84,34,063,43,85,35,127,47,,,,41,1*42
$GLGSV,2,1,06,65,39,266,11,72,20,207,31,75,53,344,41,76,16,288,22,3*72
$GLGSV,2,2,06,84,34,063,31,85,35,127,34,3*78
$GLGSV,1,1,02,66,22,323,,83,04,020,,0*74
$GAGSV,2,1,08,04,26,172,40,05,34,309,42,06,47,191,41,09,61,231,37,2*70
$GAGSV,2,2,08,16,19,256,42,18,66,107,39,23,23,058,38,31,69,015,41,2*79
$GAGSV,3,1,09,04,26,172,38,05,34,309,42,06,47,191,45,09,61,231,47,7*79
$GAGSV,3,2,09,16,19,256,31,18,66,107,47,23,23,058,38,31,69,015,46,7*76
$GAGSV,3,3,09,33,14,108,41,7*43
$GAGSV,1,1,02,12,00,156,,26,12,059,,0*7C
$GBGSV,2,1,08,09,56,317,43,11,43,089,45,16,74,351,46,23,67,340,49,1*79
$GBGSV,2,2,08,25,44,078,43,32,28,257,41,34,32,060,42,39,79,039,47,1*74
$GBGSV,2,1,06,06,72,336,34,07,39,208,38,09,56,317,42,10,26,213,36,B*07
$GBGSV,2,2,06,11,43,089,46,16,74,351,33,B*04
$GQGSV,1,1,02,02,79,103,45,07,47,179,33,1*63
$GQGSV,1,1,03,02,79,103,34,04,27,184,36,07,47,179,41,6*5F
$GQGSV,1,1,02,03,16,155,,08,33,230,,0*6A
$GNRMC,070126.00,A,3727.0188797,N,12639.1147567,E,0.003,,191125,,,R,V*08
$GNVTG,,T,,M,0.003,N,0.005,K,D*3E
$GNGGA,070126.00,3727.0188797,N,12639.1147567,E,4,12,0.56,16.968,M,17.833,M,1.0,4095*5D
$GNGSA,A,3,26,27,31,16,04,09,28,08,,,,,1.07,0.56,0.92,1*04
$GNGSA,A,3,85,72,75,76,65,84,,,,,,,1.07,0.56,0.92,2*08
$GNGSA,A,3,23,16,06,05,09,04,31,,,,,,1.07,0.56,0.92,3*07
$GNGSA,A,3,06,11,32,34,25,09,16,39,23,,,,1.07,0.56,0.92,4*08
$GNGSA,A,3,02,07,,,,,,,,,,,1.07,0.56,0.92,5*0E
$GPGSV,3,1,11,04,49,281,46,08,19,210,38,09,21,314,37,16,68,309,45,1*64
$GPGSV,3,2,11,26,58,045,46,27,48,196,46,28,27,119,42,31,57,105,49,1*63
$GPGSV,3,3,11,41,27,238,40,42,33,230,40,50,47,179,36,1*56
$GPGSV,2,1,08,04,49,281,26,08,19,210,32,09,21,314,36,18,19,083,28,6*65
$GPGSV,2,2,08,26,58,045,36,27,48,196,34,28,27,119,41,31,57,105,39,6*6B
$GPGSV,1,1,02,29,02,037,,40,07,260,,0*6D
$GLGSV,2,1,08,65,39,266,48,72,20,207,42,74,34,060,39,75,53,344,47,1*7C
$GLGSV,2,2,08,76,16,288,42,84,34,063,43,85,35,127,47,,,,42,1*41
$GLGSV,2,1,06,65,39,266,12,72,20,207,32,75,53,344,41,76,16,288,21,3*71
$GLGSV,2,2,06,84,34,063,31,85,35,127,34,3*78
$GLGSV,1,1,02,66,22,323,,83,04,020,,0*74
$GAGSV,2,1,08,04,26,172,40,05,34,309,42,06,47,191,41,09,61,231,37,2*70
$GAGSV,2,2,08,16,19,256,42,18,66,107,39,23,23,058,37,31,69,015,41,2*76
$GAGSV,3,1,09,04,26,172,38,05,34,309,42,06,47,191,45,09,61,231,47,7*79
$GAGSV,3,2,09,16,19,256,31,18,66,107,47,23,23,058,38,31,69,015,46,7*76
$GAGSV,3,3,09,33,14,108,41,7*43
$GAGSV,1,1,02,12,00,156,,26,12,059,,0*7C
$GBGSV,2,1,08,09,56,317,44,11,43,089,44,16,75,351,46,23,67,340,49,1*7E
$GBGSV,2,2,08,25,44,078,43,32,28,257,41,34,32,060,42,39,79,039,47,1*74
$GBGSV,2,1,06,06,72,336,35,07,39,208,39,09,56,317,41,10,26,213,36,B*04
$GBGSV,2,2,06,11,43,089,46,16,75,351,34,B*02
$GQGSV,1,1,02,02,79,103,46,07,47,179,34,1*67
$GQGSV,1,1,03,02,79,103,33,04,27,184,37,07,47,179,41,6*59
$GQGSV,1,1,02,03,16,155,,08,33,230,,0*6A
$GNRMC,070127.00,A,3727.0188793,N,12639.1147567,E,0.004,,191125,,,R,V*0A
$GNVTG,,T,,M,0.004,N,0.008,K,D*34
$GNGGA,070127.00,3727.0188793,N,12639.1147567,E,4,12,0.56,16.970,M,17.833,M,1.0,4095*51
$GNGSA,A,3,26,27,31,16,04,09,28,08,,,,,1.07,0.56,0.92,1*04
$GNGSA,A,3,85,72,75,76,65,84,,,,,,,1.07,0.56,0.92,2*08
$GNGSA,A,3,23,16,06,05,09,04,31,,,,,,1.07,0.56,0.92,3*07
$GNGSA,A,3,06,11,32,34,25,09,16,39,23,,,,1.07,0.56,0.92,4*08
$GNGSA,A,3,02,07,,,,,,,,,,,1.07,0.56,0.92,5*0E
$GPGSV,3,1,11,04,49,281,46,08,19,210,38,09,21,314,37,16,68,309,45,1*64
$GPGSV,3,2,11,26,58,045,46,27,48,196,46,28,27,119,42,31,57,105,49,1*63
$GPGSV,3,3,11,41,27,238,39,42,33,230,40,50,47,179,36,1*58
$GPGSV,2,1,08,04,49,281,25,08,19,210,31,09,21,314,35,18,19,083,28,6*66
$GPGSV,2,2,08,26,58,045,35,27,48,196,32,28,27,119,40,31,57,105,38,6*6E
$GPGSV,1,1,02,29,02,037,,40,07,260,,0*6D
$GLGSV,2,1,08,65,39,266,48,72,20,207,42,74,34,060,39,75,53,344,48,1*73
$GLGSV,2,2,08,76,16,288,42,84,34,063,43,85,35,127,47,,,,42,1*41
$GLGSV,2,1,06,65,39,266,09,72,20,207,30,75,53,344,38,76,16,288,19,3*7C
$GLGSV,2,2,06,84,34,063,30,85,35,127,30,3*7D
$GLGSV,1,1,02,66,22,323,,83,04,020,,0*74
$GAGSV,2,1,08,04,26,172,40,05,34,309,41,06,47,191,41,09,61,231,37,2*73
$GAGSV,2,2,08,16,19,256,41,18,66,107,38,23,23,058,37,31,69,015,40,2*75
$GAGSV,3,1,09,04,26,172,38,05,34,309,42,06,47,191,45,09,61,231,48,7*76
$GAGSV,3,2,09,16,19,256,31,18,66,107,47,23,23,058,37,31,69,015,46,7*79
$GAGSV,3,3,09,33,14,108,41,7*43
$GAGSV,1,1,02,12,00,156,,26,12,059,,0*7C
$GBGSV,2,1,08,09,56,317,44,11,43,089,45,16,75,351,46,23,67,341,49,1*7E
$GBGSV,2,2,08,25,44,078,43,32,28,257,41,34,32,060,42,39,79,039,47,1*74
$GBGSV,2,1,06,06,72,336,35,07,39,208,38,09,56,317,40,10,26,213,35,B*07
$GBGSV,2,2,06,11,43,089,46,16,75,351,34,B*02
$GQGSV,1,1,02,02,79,103,45,07,47,179,34,1*64
$GQGSV,1,1,03,02,79,103,33,04,27,184,36,07,47,179,40,6*59
$GQGSV,1,1,02,03,16,155,,08,33,230,,0*6A
$GNRMC,070128.00,A,3727.0188796,N,12639.1147565,E,0.012,,191125,,,R,V*05
$GNVTG,,T,,M,0.012,N,0.022,K,D*3B
$GNGGA,070128.00,3727.0188796,N,12639.1147565,E,4,12,0.56,16.977,M,17.833,M,1.0,4095*5E
$GNGSA,A,3,26,27,31,16,04,09,28,08,,,,,1.07,0.56,0.92,1*04
$GNGSA,A,3,85,72,75,76,65,84,,,,,,,1.07,0.56,0.92,2*08
$GNGSA,A,3,23,16,06,05,09,04,31,,,,,,1.07,0.56,0.92,3*07
$GNGSA,A,3,06,11,32,34,25,09,16,39,23,,,,1.07,0.56,0.92,4*08
$GNGSA,A,3,02,07,,,,,,,,,,,1.07,0.56,0.92,5*0E
$GPGSV,3,1,11,04,49,281,46,08,19,210,38,09,21,314,37,16,68,309,45,1*64
$GPGSV,3,2,11,26,58,045,46,27,48,196,46,28,27,119,42,31,57,105,49,1*63
$GPGSV,3,3,11,41,27,238,39,42,33,230,40,50,47,179,37,1*59
$GPGSV,2,1,08,04,49,281,26,08,19,210,31,09,21,314,35,18,19,083,27,6*6A
$GPGSV,2,2,08,26,58,045,34,27,48,196,32,28,27,119,39,31,57,105,38,6*61
$GPGSV,1,1,02,29,02,037,,40,07,260,,0*6D
$GLGSV,2,1,08,65,39,266,47,72,20,207,43,74,34,060,39,75,53,344,47,1*72
$GLGSV,2,2,08,76,16,288,42,84,34,063,42,85,35,127,48,,,,42,1*4F
$GLGSV,2,1,06,65,39,266,07,72,20,207,32,75,53,344,40,76,16,288,19,3*7F
$GLGSV,2,2,06,84,34,063,30,85,35,127,32,3*7F
$GLGSV,1,1,02,66,22,323,,83,04,020,,0*74
$GAGSV,2,1,08,04,26,172,41,05,34,309,41,06,47,191,41,09,61,231,36,2*73
$GAGSV,2,2,08,16,19,256,41,18,66,107,39,23,23,058,38,31,69,015,41,2*7A
$GAGSV,3,1,09,04,26,172,38,05,34,309,42,06,47,191,45,09,61,231,47,7*79
$GAGSV,3,2,09,16,19,256,32,18,66,107,47,23,23,058,37,31,69,015,46,7*7A
$GAGSV,3,3,09,33,14,108,41,7*43
$GAGSV,1,1,02,12,00,156,,26,12,059,,0*7C
$GBGSV,2,1,08,09,56,317,44,11,43,089,45,16,75,351,46,23,67,341,49,1*7E
$GBGSV,2,2,08,25,43,078,43,32,28,257,41,34,32,060,42,39,79,039,47,1*73
$GBGSV,2,1,06,06,72,336,33,07,39,208,38,09,56,317,41,10,26,213,37,B*02
$GBGSV,2,2,06,11,43,089,46,16,75,351,33,B*05
$GQGSV,1,1,02,02,79,103,45,07,47,179,34,1*64
$GQGSV,1,1,03,02,79,103,32,04,27,184,36,07,47,179,40,6*58
$GQGSV,1,1,02,03,16,155,,08,33,230,,0*6A
$GNRMC,070129.00,A,3727.0188789,N,12639.1147551,E,0.010,,191125,,,R,V*0F
$GNVTG,,T,,M,0.010,N,0.018,K,D*30
$GNGGA,070129.00,3727.0188789,N,12639.1147551,E,4,12,0.56,16.975,M,17.833,M,1.0,4095*54
$GNGSA,A,3,26,27,31,16,04,09,28,08,,,,,1.07,0.56,0.92,1*04
$GNGSA,A,3,85,72,75,76,65,84,,,,,,,1.07,0.56,0.92,2*08
$GNGSA,A,3,23,16,06,05,09,04,31,,,,,,1.07,0.56,0.92,3*07
$GNGSA,A,3,06,11,32,34,25,09,16,39,23,,,,1.07,0.56,0.92,4*08
$GNGSA,A,3,02,07,,,,,,,,,,,1.07,0.56,0.92,5*0E
$GPGSV,3,1,11,04,49,281,45,08,19,210,38,09,21,314,38,16,68,309,45,1*68
$GPGSV,3,2,11,26,58,045,46,27,48,196,46,28,27,119,41,31,57,105,49,1*60
$GPGSV,3,3,11,41,27,238,39,42,33,230,40,50,47,179,37,1*59
$GPGSV,2,1,08,04,49,281,27,08,19,210,32,09,21,314,35,18,19,083,27,6*68
$GPGSV,2,2,08,26,58,045,36,27,48,196,32,28,27,119,41,31,57,105,40,6*63
$GPGSV,1,1,02,29,02,037,,40,07,260,,0*6D
$GLGSV,2,1,08,65,39,266,47,72,20,207,43,74,34,060,38,75,53,344,47,1*73
$GLGSV,2,2,08,76,16,288,42,84,34,063,42,85,35,127,48,,,,42,1*4F
$GLGSV,2,1,06,65,39,266,07,72,20,207,32,75,53,344,40,76,16,288,20,3*75
$GLGSV,2,2,06,84,34,063,30,85,35,127,31,3*7C
$GLGSV,1,1,02,66,22,323,,83,04,020,,0*74
$GAGSV,2,1,08,04,26,172,40,05,34,309,41,06,47,191,40,09,61,231,37,2*72
$GAGSV,2,2,08,16,19,256,42,18,66,107,39,23,23,058,37,31,69,015,41,2*76
$GAGSV,3,1,09,04,26,172,38,05,34,309,42,06,47,191,45,09,61,231,48,7*76
$GAGSV,3,2,09,16,19,256,33,18,66,107,47,23,23,058,37,31,69,015,45,7*78
$GAGSV,3,3,09,33,14,108,41,7*43
$GAGSV,1,1,02,12,00,156,,26,12,059,,0*7C
$GBGSV,2,1,08,09,56,317,44,11,43,089,44,16,75,351,46,23,67,341,49,1*7F
$GBGSV,2,2,08,25,43,078,43,32,28,256,41,34,32,060,42,39,79,039,47,1*72
$GBGSV,2,1,06,06,72,336,32,07,39,208,38,09,56,317,42,10,26,213,36,B*01
$GBGSV,2,2,06,11,43,089,46,16,75,351,31,B*07
$GQGSV,1,1,02,02,79,103,45,07,47,179,34,1*64
$GQGSV,1,1,03,02,79,103,34,04,27,184,37,07,47,179,41,6*5E
$GQGSV,1,1,02,03,16,155,,08,33,230,,0*6A
$GNRMC,070130.00,A,3727.0188791,N,12639.1147549,E,0.008,,191125,,,R,V*0E
$GNVTG,,T,,M,0.008,N,0.015,K,D*34
$GNGGA,070130.00,3727.0188791,N,12639.1147549,E,4,12,0.56,16.972,M,17.833,M,1.0,4095*5B
$GNGSA,A,3,26,27,31,16,04,09,28,08,,,,,1.07,0.56,0.92,1*04
$GNGSA,A,3,85,72,75,76,65,84,,,,,,,1.07,0.56,0.92,2*08
$GNGSA,A,3,23,16,06,05,09,04,31,,,,,,1.07,0.56,0.92,3*07
$GNGSA,A,3,06,11,32,34,25,09,16,39,23,,,,1.07,0.56,0.92,4*08
$GNGSA,A,3,02,07,,,,,,,,,,,1.07,0.56,0.92,5*0E
$GPGSV,3,1,11,04,49,281,45,08,19,210,38,09,21,314,38,16,68,309,45,1*68
$GPGSV,3,2,11,26,58,045,46,27,48,196,46,28,27,119,41,31,57,105,49,1*60
$GPGSV,3,3,11,41,27,238,39,42,33,230,40,50,47,179,37,1*59
$GPGSV,2,1,08,04,49,281,28,08,19,210,32,09,21,314,34,18,19,083,27,6*66
$GPGSV,2,2,08,26,58,045,36,27,48,196,32,28,27,119,41,31,57,105,39,6*6D
$GPGSV,1,1,02,29,02,037,,40,07,260,,0*6D
$GLGSV,2,1,08,65,39,266,48,72,20,207,42,74,34,060,39,75,53,344,47,1*7C
$GLGSV,2,2,08,76,16,288,42,84,34,063,42,85,35,127,47,,,,42,1*40
$GLGSV,2,1,06,65,39,266,07,72,20,207,31,75,53,344,40,76,16,288,21,3*77
$GLGSV,2,2,06,84,34,063,30,85,35,127,32,3*7F
$GLGSV,1,1,02,66,22,323,,83,04,020,,0*74
$GAGSV,2,1,08,04,26,172,40,05,34,309,41,06,47,191,40,09,61,231,38,2*7D
$GAGSV,2,2,08,16,19,256,42,18,66,107,39,23,23,058,36,31,69,015,41,2*77
$GAGSV,3,1,09,04,26,172,38,05,34,309,42,06,47,191,45,09,61,231,47,7*79
$GAGSV,3,2,09,16,19,256,33,18,66,107,47,23,23,058,37,31,69,015,45,7*78
$GAGSV,3,3,09,33,14,108,39,7*4C
$GAGSV,1,1,02,12,00,156,,26,12,059,,0*7C
$GBGSV,2,1,08,09,56,317,44,11,43,089,44,16,75,351,46,23,67,341,49,1*7F
$GBGSV,2,2,08,25,43,078,44,32,28,256,41,34,32,060,42,39,79,039,47,1*75
$GBGSV,2,1,06,06,72,336,31,07,39,208,39,09,56,317,42,10,26,213,36,B*03
$GBGSV,2,2,06,11,43,089,46,16,75,351,30,B*06
$GQGSV,1,1,02,02,79,103,45,07,47,179,34,1*64
$GQGSV,1,1,03,02,79,103,34,04,27,184,38,07,47,179,41,6*51
$GQGSV,1,1,02,03,16,155,,08,33,230,,0*6A
$GNRMC,070131.00,A,3727.0188788,N,12639.1147565,E,0.011,,191125,,,R,V*01
$GNVTG,,T,,M,0.011,N,0.020,K,D*3A
$GNGGA,070131.00,3727.0188788,N,12639.1147565,E,4,12,0.56,16.971,M,17.833,M,1.0,4095*5F
$GNGSA,A,3,26,27,31,16,04,09,28,08,,,,,1.07,0.56,0.92,1*04
$GNGSA,A,3,85,72,75,76,65,84,,,,,,,1.07,0.56,0.92,2*08
$GNGSA,A,3,23,16,06,05,09,04,31,,,,,,1.07,0.56,0.92,3*07
$GNGSA,A,3,06,11,32,34,25,09,16,39,23,,,,1.07,0.56,0.92,4*08
$GNGSA,A,3,02,07,,,,,,,,,,,1.07,0.56,0.92,5*0E
$GPGSV,3,1,11,04,49,281,46,08,19,210,38,09,21,314,37,16,68,309,45,1*64
$GPGSV,3,2,11,26,58,045,46,27,48,196,46,28,27,119,41,31,57,105,49,1*60
$GPGSV,3,3,11,41,27,238,39,42,33,230,39,50,47,179,36,1*56
$GPGSV,2,1,08,04,49,281,31,08,19,210,30,09,21,314,32,18,19,083,28,6*65
$GPGSV,2,2,08,26,58,045,37,27,48,196,33,28,27,119,42,31,57,105,40,6*60
$GPGSV,1,1,02,29,02,037,,40,07,260,,0*6D
$GLGSV,2,1,08,65,39,266,48,72,20,207,43,74,34,060,39,75,53,344,47,1*7D
$GLGSV,2,2,08,76,16,288,42,84,34,063,42,85,35,127,47,,,,44,1*46
$GLGSV,2,1,06,65,39,266,08,72,20,207,30,75,53,344,42,76,16,288,29,3*73
$GLGSV,2,2,06,84,34,063,31,85,35,127,34,3*78
$GLGSV,1,1,02,66,22,323,,83,04,020,,0*74
$GAGSV,2,1,08,04,26,172,42,05,34,309,41,06,47,191,40,09,61,231,38,2*7F
$GAGSV,2,2,08,16,19,256,41,18,66,107,40,23,23,058,37,31,69,015,41,2*7B
$GAGSV,3,1,09,04,26,172,37,05,34,309,42,06,47,191,45,09,61,231,48,7*79
$GAGSV,3,2,09,16,19,256,32,18,66,107,47,23,23,058,37,31,69,015,45,7*79
$GAGSV,3,3,09,33,14,108,41,7*43
$GAGSV,1,1,02,12,00,156,,26,12,059,,0*7C
$GBGSV,2,1,08,09,56,317,44,11,43,089,44,16,75,351,46,23,67,341,49,1*7F
$GBGSV,2,2,08,25,43,078,44,32,28,256,41,34,32,060,42,39,80,040,47,1*7D
$GBGSV,2,1,06,06,72,336,34,07,39,208,40,09,56,317,44,10,26,213,38,B*00
$GBGSV,2,2,06,11,43,089,47,16,75,351,33,B*04
$GQGSV,1,1,02,02,79,103,46,07,47,179,34,1*67
$GQGSV,1,1,03,02,79,103,34,04,27,184,39,07,47,179,42,6*53
$GQGSV,1,1,02,03,16,155,,08,33,230,,0*6A
$GNRMC,070132.00,A,3727.0188782,N,12639.1147572,E,0.008,,191125,,,R,V*06
$GNVTG,,T,,M,0.008,N,0.014,K,D*35
$GNGGA,070132.00,3727.0188782,N,12639.1147572,E,4,12,0.56,16.975,M,17.833,M,1.0,4095*54
$GNGSA,A,3,26,27,31,16,04,09,28,08,,,,,1.08,0.56,0.92,1*0B
$GNGSA,A,3,85,72,75,76,65,84,,,,,,,1.08,0.56,0.92,2*07
$GNGSA,A,3,23,16,06,05,09,04,31,,,,,,1.08,0.56,0.92,3*08
$GNGSA,A,3,06,11,32,34,25,09,16,39,23,,,,1.08,0.56,0.92,4*07
$GNGSA,A,3,02,07,,,,,,,,,,,1.08,0.56,0.92,5*01
$GPGSV,3,1,11,04,49,281,46,08,19,210,39,09,21,314,37,16,68,309,45,1*65
$GPGSV,3,2,11,26,58,045,46,27,48,196,46,28,27,119,42,31,57,105,49,1*63
$GPGSV,3,3,11,41,27,238,39,42,33,230,40,50,47,179,36,1*58
$GPGSV,2,1,08,04,49,281,31,08,19,210,32,09,21,314,33,18,19,083,29,6*67
$GPGSV,2,2,08,26,58,045,37,27,48,196,33,28,27,119,41,31,57,105,39,6*6D
$GPGSV,1,1,02,29,02,037,,40,07,260,,0*6D
$GLGSV,2,1,08,65,39,266,48,72,20,207,43,74,34,060,38,75,53,344,47,1*7C
$GLGSV,2,2,08,76,16,288,42,84,34,063,42,85,35,127,48,,,,43,1*4E
$GLGSV,2,1,06,65,39,266,08,72,20,207,31,75,53,344,41,76,16,288,27,3*7F
$GLGSV,2,2,06,84,34,063,29,85,35,127,32,3*77
$GLGSV,1,1,02,66,22,323,,83,04,020,,0*74
$GAGSV,2,1,08,04,26,172,40,05,34,309,41,06,47,191,41,09,61,231,38,2*7C
$GAGSV,2,2,08,16,19,256,42,18,66,107,40,23,23,058,37,31,69,015,41,2*78
$GAGSV,3,1,09,04,26,172,37,05,34,309,42,06,47,191,45,09,61,231,48,7*79
$GAGSV,3,2,09,16,19,256,32,18,66,107,47,23,23,058,38,31,69,015,45,7*76
$GAGSV,3,3,09,33,14,108,41,7*43
$GAGSV,1,1,02,12,00,156,,26,12,059,,0*7C
$GBGSV,2,1,08,09,56,317,44,11,43,089,43,16,75,351,46,23,67,341,49,1*78
$GBGSV,2,2,08,25,43,078,44,32,28,256,41,34,32,060,43,39,80,040,47,1*7C
$GBGSV,2,1,06,06,72,336,33,07,39,208,39,09,56,317,43,10,26,213,39,B*0F
$GBGSV,2,2,06,11,43,089,47,16,75,351,33,B*04
$GQGSV,1,1,02,02,79,103,46,07,47,179,33,1*60
$GQGSV,1,1,03,02,79,103,34,04,27,184,39,07,47,179,41,6*50
$GQGSV,1,1,02,03,16,155,,08,33,230,,0*6A
$GNRMC,070133.00,A,3727.0188775,N,12639.1147560,E,0.008,,191125,,,R,V*0C
$GNVTG,,T,,M,0.008,N,0.014,K,D*35
$GNGGA,070133.00,3727.0188775,N,12639.1147560,E,4,12,0.56,16.978,M,17.833,M,1.0,4095*53
$GNGSA,A,3,26,27,31,16,04,09,28,08,,,,,1.08,0.56,0.92,1*0B
$GNGSA,A,3,85,72,75,76,65,84,,,,,,,1.08,0.56,0.92,2*07
$GNGSA,A,3,23,16,06,05,09,04,31,,,,,,1.08,0.56,0.92,3*08
$GNGSA,A,3,06,11,32,34,25,09,16,39,23,,,,1.08,0.56,0.92,4*07
$GNGSA,A,3,02,07,,,,,,,,,,,1.08,0.56,0.92,5*01
$GPGSV,3,1,11,04,49,281,46,08,19,210,39,09,21,314,36,16,68,309,45,1*64
$GPGSV,3,2,11,26,58,045,46,27,48,196,46,28,27,119,40,31,57,105,49,1*61
$GPGSV,3,3,11,41,27,238,38,42,33,230,40,50,47,179,36,1*59
$GPGSV,2,1,08,04,49,281,31,08,19,210,32,09,21,314,33,18,19,083,29,6*67
$GPGSV,2,2,08,26,58,045,37,27,48,196,33,28,27,119,43,31,57,105,39,6*6F
$GPGSV,1,1,02,29,02,037,,40,07,260,,0*6D
$GLGSV,2,1,08,65,39,266,48,72,20,207,44,74,34,060,38,75,53,344,48,1*74
$GLGSV,2,2,08,76,16,288,41,84,34,063,42,85,35,127,47,,,,43,1*42
$GLGSV,2,1,06,65,39,266,07,72,20,207,31,75,53,344,40,76,16,288,27,3*71
$GLGSV,2,2,06,84,34,063,29,85,35,127,34,3*71
$GLGSV,1,1,02,66,22,323,,83,04,020,,0*74
$GAGSV,2,1,08,04,26,172,41,05,34,309,42,06,47,191,41,09,61,231,38,2*7E
$GAGSV,2,2,08,16,19,256,42,18,66,107,40,23,23,058,39,31,69,015,40,2*77
$GAGSV,3,1,09,04,26,172,37,05,34,309,42,06,47,191,45,09,61,231,48,7*79
$GAGSV,3,2,09,16,19,256,33,18,66,107,47,23,23,058,38,31,69,015,45,7*77
$GAGSV,3,3,09,33,14,108,39,7*4C
$GAGSV,1,1,02,12,00,156,,26,12,059,,0*7C
$GBGSV,2,1,08,09,56,317,44,11,43,089,44,16,75,351,46,23,67,341,49,1*7F
$GBGSV,2,2,08,25,43,078,44,32,28,256,41,34,32,060,43,39,80,040,47,1*7C
$GBGSV,2,1,06,06,72,336,33,07,39,208,39,09,56,317,43,10,26,213,38,B*0E
$GBGSV,2,2,06,11,43,089,47,16,75,351,31,B*06
$GQGSV,1,1,02,02,79,103,45,07,47,179,34,1*64
$GQGSV,1,1,03,02,79,103,34,04,27,184,39,07,47,179,40,6*51
$GQGSV,1,1,02,03,16,155,,08,33,230,,0*6A
$GNRMC,070134.00,A,3727.0188790,N,12639.1147567,E,0.010,,191125,,,R,V*0E
$GNVTG,,T,,M,0.010,N,0.019,K,D*31
$GNGGA,070134.00,3727.0188790,N,12639.1147567,E,4,12,0.56,16.978,M,17.833,M,1.0,4095*58
$GNGSA,A,3,26,27,31,16,04,09,28,08,,,,,1.08,0.56,0.92,1*0B
$GNGSA,A,3,85,72,75,76,65,84,,,,,,,1.08,0.56,0.92,2*07
$GNGSA,A,3,23,16,06,05,09,04,31,,,,,,1.08,0.56,0.92,3*08
$GNGSA,A,3,06,11,32,34,25,09,16,39,23,,,,1.08,0.56,0.92,4*07
$GNGSA,A,3,02,07,,,,,,,,,,,1.08,0.56,0.92,5*01
$GPGSV,3,1,11,04,49,281,46,08,19,210,38,09,21,314,37,16,68,309,45,1*64
$GPGSV,3,2,11,26,58,045,46,27,48,196,46,28,27,119,41,31,57,105,48,1*61
$GPGSV,3,3,11,41,27,238,39,42,33,230,40,50,47,179,37,1*59
$GPGSV,2,1,08,04,49,281,32,08,19,210,32,09,21,314,34,18,19,083,29,6*63
$GPGSV,2,2,08,26,58,045,37,27,48,196,33,28,27,119,43,31,57,105,39,6*6F
$GPGSV,1,1,02,29,02,037,,40,07,260,,0*6D
$GLGSV,2,1,08,65,39,266,48,72,20,207,43,74,34,060,38,75,53,344,48,1*73
$GLGSV,2,2,08,76,16,288,41,84,34,063,42,85,35,127,48,,,,43,1*4D
$GLGSV,2,1,06,65,39,266,08,72,20,207,31,75,53,344,40,76,16,288,28,3*71
$GLGSV,2,2,06,84,34,063,29,85,35,127,34,3*71
$GLGSV,1,1,02,66,22,323,,83,04,020,,0*74
$GAGSV,2,1,08,04,26,172,40,05,34,309,42,06,47,191,39,09,61,231,39,2*71
$GAGSV,2,2,08,16,19,256,42,18,66,107,40,23,23,058,38,31,69,015,41,2*77
$GAGSV,3,1,09,04,26,172,38,05,34,309,42,06,47,191,44,09,61,231,48,7*77
$GAGSV,3,2,09,16,19,256,34,18,66,107,47,23,23,058,38,31,69,015,45,7*70
$GAGSV,3,3,09,33,14,108,38,7*4D
$GAGSV,1,1,02,12,00,156,,26,12,059,,0*7C
$GBGSV,2,1,08,09,56,317,44,11,43,089,44,16,75,351,46,23,67,341,49,1*7F
$GBGSV,2,2,08,25,43,078,44,32,28,256,42,34,32,060,43,39,80,040,47,1*7F
$GBGSV,2,1,06,06,72,336,34,07,39,208,39,09,56,317,43,10,26,213,38,B*09
$GBGSV,2,2,06,11,43,089,47,16,75,351,29,B*0F
$GQGSV,1,1,02,02,79,103,45,07,47,179,34,1*64
$GQGSV,1,1,03,02,79,103,35,04,27,184,38,07,47,179,39,6*5F
$GQGSV,1,1,02,03,16,155,,08,33,230,,0*6A
$GNRMC,070135.00,A,3727.0188773,N,12639.1147584,E,0.005,,191125,,,R,V*0B
$GNVTG,,T,,M,0.005,N,0.009,K,D*34
$GNGGA,070135.00,3727.0188773,N,12639.1147584,E,4,12,0.56,16.975,M,17.833,M,1.0,4095*54
$GNGSA,A,3,26,27,31,16,04,09,28,08,,,,,1.08,0.56,0.92,1*0B
$GNGSA,A,3,85,72,75,76,65,84,,,,,,,1.08,0.56,0.92,2*07
$GNGSA,A,3,23,16,06,05,09,04,31,,,,,,1.08,0.56,0.92,3*08
$GNGSA,A,3,06,11,32,34,25,09,16,39,23,,,,1.08,0.56,0.92,4*07
$GNGSA,A,3,02,07,,,,,,,,,,,1.08,0.56,0.92,5*01
$GPGSV,3,1,11,04,49,281,46,08,19,210,38,09,21,314,37,16,68,309,45,1*64
$GPGSV,3,2,11,26,58,045,46,27,48,196,46,28,27,119,40,31,57,105,48,1*60
$GPGSV,3,3,11,41,27,238,39,42,33,230,40,50,47,179,37,1*59
$GPGSV,2,1,08,04,49,281,33,08,19,210,32,09,21,314,33,18,19,083,29,6*65
$GPGSV,2,2,08,26,58,045,37,27,48,196,34,28,27,119,43,31,57,105,39,6*68
$GPGSV,1,1,02,29,02,037,,40,07,260,,0*6D
$GLGSV,2,1,08,65,39,266,47,72,20,207,44,74,34,060,38,75,53,344,48,1*7B
$GLGSV,2,2,08,76,16,288,41,84,34,063,41,85,35,127,47,,,,44,1*46
$GLGSV,2,1,06,65,39,266,07,72,20,207,31,75,53,344,40,76,16,288,28,3*7E
$GLGSV,2,2,06,84,34,063,29,85,35,127,33,3*76
$GLGSV,1,1,02,66,22,323,,83,04,020,,0*74
$GAGSV,2,1,08,04,26,172,40,05,34,309,42,06,47,191,39,09,61,231,38,2*70
$GAGSV,2,2,08,16,19,256,42,18,66,107,40,23,23,058,37,31,69,015,41,2*78
$GAGSV,3,1,09,04,26,172,37,05,34,309,42,06,47,191,44,09,61,231,48,7*78
$GAGSV,3,2,09,16,19,256,34,18,66,107,47,23,23,058,39,31,69,015,45,7*71
$GAGSV,3,3,09,33,14,108,38,7*4D
$GAGSV,1,1,02,12,00,156,,26,12,059,,0*7C
$GBGSV,2,1,08,09,56,317,44,11,43,089,44,16,75,351,46,23,67,341,49,1*7F
$GBGSV,2,2,08,25,43,078,44,32,28,256,42,34,32,060,43,39,80,040,47,1*7F
$GBGSV,2,1,06,06,72,336,35,07,39,208,39,09,56,317,43,10,26,213,38,B*08
$GBGSV,2,2,06,11,43,089,47,16,75,351,31,B*06
$GQGSV,1,1,02,02,79,103,45,07,47,179,35,1*65
$GQGSV,1,1,03,02,79,103,35,04,27,184,38,07,47,179,39,6*5F
$GQGSV,1,1,02,03,16,155,,08,33,230,,0*6A
$GNRMC,070136.00,A,3727.0188784,N,12639.1147577,E,0.008,,191125,,,R,V*01
$GNVTG,,T,,M,0.008,N,0.014,K,D*35
$GNGGA,070136.00,3727.0188784,N,12639.1147577,E,4,12,0.56,16.972,M,17.833,M,1.0,4095*54
$GNGSA,A,3,26,27,31,16,04,09,28,08,,,,,1.08,0.56,0.92,1*0B
$GNGSA,A,3,85,72,75,76,65,84,,,,,,,1.08,0.56,0.92,2*07
$GNGSA,A,3,23,16,06,05,09,04,31,,,,,,1.08,0.56,0.92,3*08
$GNGSA,A,3,06,11,32,34,25,09,16,39,23,,,,1.08,0.56,0.92,4*07
$GNGSA,A,3,02,07,,,,,,,,,,,1.08,0.56,0.92,5*01
$GPGSV,3,1,11,04,49,281,46,08,19,210,39,09,21,314,38,16,68,309,45,1*6A
$GPGSV,3,2,11,26,58,045,46,27,48,196,46,28,27,119,40,31,57,105,48,1*60
$GPGSV,3,3,11,41,27,238,38,42,33,230,40,50,47,179,37,1*58
$GPGSV,2,1,08,04,49,281,36,08,19,210,32,09,21,314,33,18,19,083,29,6*60
$GPGSV,2,2,08,26,58,045,36,27,48,196,34,28,27,119,42,31,57,105,39,6*68
$GPGSV,1,1,02,29,02,037,,40,07,260,,0*6D
$GLGSV,2,1,08,65,39,266,47,72,20,207,43,74,34,060,38,75,53,344,48,1*7C
$GLGSV,2,2,08,76,16,288,40,84,34,063,41,85,35,127,47,,,,44,1*47
$GLGSV,2,1,05,72,20,207,32,75,53,344,40,76,16,288,28,84,34,063,29,3*77
$GLGSV,2,2,05,85,35,127,33,3*40
$GLGSV,1,1,02,66,22,323,,83,04,020,,0*74
$GAGSV,2,1,08,04,26,172,40,05,34,309,42,06,47,191,38,09,61,231,39,2*70
$GAGSV,2,2,08,16,19,256,42,18,66,107,40,23,23,058,37,31,69,015,41,2*78
$GAGSV,3,1,09,04,26,172,37,05,34,309,42,06,47,191,44,09,61,231,47,7*77
$GAGSV,3,2,09,16,19,256,34,18,66,107,47,23,23,058,39,31,69,015,45,7*71
$GAGSV,3,3,09,33,14,108,38,7*4D
$GAGSV,1,1,02,12,00,156,,26,12,059,,0*7C
$GBGSV,2,1,08,09,56,317,44,11,43,089,44,16,75,351,46,23,67,341,49,1*7F
$GBGSV,2,2,08,25,43,078,44,32,28,256,42,34,32,060,43,39,80,040,47,1*7F
$GBGSV,2,1,06,06,72,336,35,07,39,208,38,09,56,317,43,10,26,213,38,B*09
$GBGSV,2,2,06,11,43,089,47,16,75,351,31,B*06
$GQGSV,1,1,02,02,79,103,45,07,47,179,34,1*64
$GQGSV,1,1,03,02,79,103,34,04,27,184,38,07,47,179,40,6*50
$GQGSV,1,1,02,03,16,155,,08,33,230,,0*6A
$GNRMC,070137.00,A,3727.0188780,N,12639.1147577,E,0.006,,191125,,,R,V*0A
$GNVTG,,T,,M,0.006,N,0.011,K,D*3E
$GNGGA,070137.00,3727.0188780,N,12639.1147577,E,4,12,0.56,16.972,M,17.833,M,1.0,4095*51
$GNGSA,A,3,26,27,31,16,04,09,28,08,,,,,1.08,0.56,0.92,1*0B
$GNGSA,A,3,85,72,75,76,65,84,,,,,,,1.08,0.56,0.92,2*07
$GNGSA,A,3,23,16,06,05,09,04,31,,,,,,1.08,0.56,0.92,3*08
$GNGSA,A,3,06,11,32,34,25,09,16,39,23,,,,1.08,0.56,0.92,4*07
$GNGSA,A,3,02,07,,,,,,,,,,,1.08,0.56,0.92,5*01
$GPGSV,3,1,11,04,49,281,46,08,19,210,38,09,21,314,37,16,68,309,46,1*67
$GPGSV,3,2,11,26,58,045,46,27,48,196,46,28,27,119,40,31,57,106,48,1*63
$GPGSV,3,3,11,41,27,238,38,42,33,230,40,50,47,179,37,1*58
$GPGSV,2,1,08,04,49,281,35,08,19,210,33,09,21,314,32,18,19,083,28,6*62
$GPGSV,2,2,08,26,58,045,36,27,48,196,33,28,27,119,41,31,57,106,38,6*6E
$GPGSV,1,1,02,29,02,037,,40,07,260,,0*6D
$GLGSV,2,1,08,65,39,266,48,72,20,207,42,74,34,060,38,75,53,344,48,1*72
$GLGSV,2,2,08,76,16,288,39,84,34,063,41,85,35,127,47,,,,44,1*49
$GLGSV,2,1,05,72,20,207,33,75,53,344,40,76,16,288,28,84,34,063,30,3*7E
$GLGSV,2,2,05,85,35,127,33,3*40
$GLGSV,1,1,02,66,22,323,,83,04,020,,0*74
$GAGSV,2,1,08,04,26,172,39,05,34,309,42,06,47,191,38,09,61,231,39,2*7E
$GAGSV,2,2,08,16,19,256,42,18,66,107,40,23,23,058,37,31,69,015,41,2*78
$GAGSV,3,1,09,04,26,172,38,05,34,309,42,06,47,191,44,09,61,231,47,7*78
$GAGSV,3,2,09,16,19,256,34,18,66,107,47,23,23,058,39,31,69,015,45,7*71
$GAGSV,3,3,09,33,14,108,38,7*4D
$GAGSV,1,1,02,12,00,156,,26,12,059,,0*7C
$GBGSV,2,1,08,09,56,317,44,11,43,089,44,16,75,351,47,23,67,341,49,1*7E
$GBGSV,2,2,08,25,43,078,44,32,28,256,41,34,32,060,42,39,80,040,47,1*7D
$GBGSV,2,1,06,06,72,336,35,07,39,208,38,09,56,317,43,10,26,213,38,B*09
$GBGSV,2,2,06,11,43,089,46,16,75,351,31,B*07
$GQGSV,1,1,02,02,79,103,45,07,47,179,34,1*64
$GQGSV,1,1,03,02,79,103,34,04,27,184,37,07,47,179,39,6*51
$GQGSV,1,1,02,03,16,155,,08,33,230,,0*6A
$GNRMC,070138.00,A,3727.0188773,N,12639.1147578,E,0.002,,191125,,,R,V*02
$GNVTG,,T,,M,0.002,N,0.004,K,D*3E
$GNGGA,070138.00,3727.0188773,N,12639.1147578,E,4,12,0.56,16.971,M,17.833,M,1.0,4095*5E
$GNGSA,A,3,26,27,31,16,04,09,28,08,,,,,1.08,0.56,0.92,1*0B
$GNGSA,A,3,85,72,75,76,65,84,,,,,,,1.08,0.56,0.92,2*07
$GNGSA,A,3,23,16,06,05,09,04,31,,,,,,1.08,0.56,0.92,3*08
$GNGSA,A,3,06,11,32,34,25,09,16,39,23,,,,1.08,0.56,0.92,4*07
$GNGSA,A,3,02,07,,,,,,,,,,,1.08,0.56,0.92,5*01
$GPGSV,3,1,11,04,49,281,46,08,19,210,38,09,21,314,37,16,68,309,45,1*64
$GPGSV,3,2,11,26,58,045,46,27,48,196,46,28,27,119,40,31,57,106,48,1*63
$GPGSV,3,3,11,41,27,238,39,42,33,230,40,50,47,179,38,1*56
$GPGSV,2,1,08,04,49,281,35,08,19,210,33,09,21,314,30,18,19,083,28,6*60
$GPGSV,2,2,08,26,58,045,35,27,48,196,32,28,27,119,41,31,57,106,38,6*6C
$GPGSV,1,1,02,29,02,037,,40,07,260,,0*6D
$GLGSV,2,1,08,65,39,266,48,72,20,207,44,74,34,060,38,75,53,344,49,1*75
$GLGSV,2,2,08,76,16,288,38,84,34,063,40,85,35,127,47,,,,43,1*4E
