$GPGSV,3,1,12,04,49,280,43,08,20,210,36,09,22,314,37,16,68,311,45,1*6D
$GPGSV,3,2,12,18,19,082,33,26,57,046,44,27,49,196,45,28,27,119,42,1*6E
$GPGSV,3,3,12,31,56,106,48,41,27,238,40,42,33,230,41,50,47,179,42,1*6D
$GPGSV,2,1,07,04,49,280,38,08,20,210,35,09,22,314,38,26,57,046,31,6*62
$GPGSV,2,2,07,27,49,196,38,28,27,119,38,31,56,106,33,6*52
$GPGSV,1,1,02,29,01,037,,40,07,259,,0*64
$GLGSV,2,1,08,65,38,265,43,72,18,207,47,74,33,061,40,75,53,347,47,1*70
$GLGSV,2,2,08,76,17,289,43,84,34,061,45,85,36,125,50,,,,37,1*41
$GLGSV,2,1,06,65,38,265,08,72,18,207,31,75,53,347,35,76,17,289,32,3*72
$GLGSV,2,2,06,84,34,061,37,85,36,125,32,3*7B
$GLGSV,1,1,03,66,23,321,,83,03,019,,86,00,172,,0*41
$GAGSV,3,1,09,04,26,172,41,05,34,308,39,06,47,191,33,09,61,230,45,2*7D
$GAGSV,3,2,09,16,19,257,40,18,66,105,44,23,23,058,39,31,68,016,39,2*7E
$GAGSV,3,3,09,33,15,107,39,2*47
$GAGSV,3,1,09,04,26,172,38,05,34,308,41,06,47,191,45,09,61,230,48,7*75
$GAGSV,3,2,09,16,19,257,31,18,66,105,48,23,23,058,37,31,68,016,43,7*72
$GAGSV,3,3,09,33,15,107,41,7*4D
$GAGSV,1,1,02,12,00,155,,26,12,059,,0*7F
$GBGSV,2,1,08,09,56,317,43,11,43,088,44,16,75,352,46,23,67,342,48,1*78
$GBGSV,2,2,08,25,43,079,47,32,28,256,40,34,32,059,43,39,80,041,45,1*76
$GBGSV,2,1,06,06,72,337,38,07,40,208,40,09,56,317,40,11,43,088,43,B*09
$GBGSV,2,2,06,16,75,352,33,32,28,256,08,B*00
$GBGSV,1,1,01,10,26,214,,0*44
$GQGSV,1,1,02,02,79,102,42,07,47,179,39,1*6F
$GQGSV,1,1,03,02,79,102,38,04,27,184,39,07,47,179,31,6*5A
$GQGSV,1,1,02,03,16,154,,08,33,230,,0*6B
$GNRMC,070346.00,A,3727.0224150,N,12639.1054727,E,0.009,,191125,,,R,V*0B
$GNVTG,,T,,M,0.009,N,0.016,K,D*36
$GNGGA,070346.00,3727.0224150,N,12639.1054727,E,4,12,0.54,16.985,M,17.832,M,1.0,4095*54
$GNGSA,A,3,09,31,27,16,04,26,08,28,,,,,1.03,0.54,0.87,1*06
$GNGSA,A,3,72,84,75,76,85,,,,,,,,1.03,0.54,0.87,2*09
$GNGSA,A,3,23,33,06,16,05,09,04,31,,,,,1.03,0.54,0.87,3*05
$GNGSA,A,3,34,11,06,25,16,09,07,23,39,,,,1.03,0.54,0.87,4*0C
$GNGSA,A,3,07,02,,,,,,,,,,,1.03,0.54,0.87,5*0C
$GPGSV,3,1,12,04,49,280,43,08,20,210,36,09,22,314,37,16,68,311,45,1*6D
$GPGSV,3,2,12,18,19,082,33,26,57,046,44,27,49,196,45,28,27,119,42,1*6E
$GPGSV,3,3,12,31,56,106,48,41,27,238,40,42,33,230,41,50,47,179,42,1*6D
$GPGSV,2,1,07,04,49,280,37,08,20,210,35,09,22,314,39,26,57,046,32,6*6F
$GPGSV,2,2,07,27,49,196,38,28,27,119,37,31,56,106,34,6*5A
$GPGSV,1,1,02,29,01,037,,40,07,259,,0*64
$GLGSV,2,1,08,65,38,265,43,72,18,207,47,74,33,061,39,75,53,347,47,1*7E
$GLGSV,2,2,08,76,17,289,44,84,34,061,44,85,36,125,50,,,,36,1*46
$GLGSV,2,1,05,72,18,207,31,75,53,347,36,76,17,289,33,84,34,061,37,3*7A
$GLGSV,2,2,05,85,36,125,32,3*40
$GLGSV,1,1,03,66,23,321,,83,03,019,,86,00,172,,0*41
$GAGSV,3,1,09,04,26,172,41,05,34,308,38,06,47,191,32,09,61,230,45,2*7D
$GAGSV,3,2,09,16,19,257,40,18,66,105,44,23,23,058,38,31,68,016,39,2*7F
$GAGSV,3,3,09,33,15,107,39,2*47
$GAGSV,3,1,09,04,26,172,38,05,34,308,41,06,47,191,45,09,61,230,48,7*75
$GAGSV,3,2,09,16,19,257,31,18,66,105,48,23,23,058,36,31,68,016,43,7*73
$GAGSV,3,3,09,33,15,107,41,7*4D
$GAGSV,1,1,02,12,00,155,,26,12,059,,0*7F
$GBGSV,2,1,08,09,56,317,43,11,43,088,44,16,75,352,45,23,67,342,48,1*7B
$GBGSV,2,2,08,25,43,079,47,32,28,256,40,34,32,059,43,39,80,041,45,1*76
$GBGSV,2,1,06,06,72,337,37,07,40,208,40,09,56,317,40,11,43,088,43,B*06
$GBGSV,2,2,06,16,75,352,33,32,28,256,08,B*00
$GBGSV,1,1,01,10,26,214,,0*44
$GQGSV,1,1,02,02,79,102,42,07,47,179,39,1*6F
$GQGSV,1,1,03,02,79,102,38,04,27,184,40,07,47,179,31,6*54
$GQGSV,1,1,02,03,16,154,,08,33,230,,0*6B
$GNRMC,070347.00,A,3727.0224159,N,12639.1054727,E,0.004,,191125,,,R,V*0E
$GNVTG,,T,,M,0.004,N,0.007,K,D*3B
$GNGGA,070347.00,3727.0224159,N,12639.1054727,E,4,12,0.54,16.990,M,17.832,M,1.0,4095*58
$GNGSA,A,3,09,31,27,16,04,26,08,28,,,,,1.03,0.54,0.87,1*06
$GNGSA,A,3,72,84,75,76,85,,,,,,,,1.03,0.54,0.87,2*09
$GNGSA,A,3,23,33,06,16,05,09,04,31,,,,,1.03,0.54,0.87,3*05
$GNGSA,A,3,34,11,06,25,16,09,07,23,39,,,,1.03,0.54,0.87,4*0C
$GNGSA,A,3,07,02,,,,,,,,,,,1.03,0.54,0.87,5*0C
$GPGSV,3,1,12,04,49,280,43,08,20,210,35,09,22,314,36,16,68,311,45,1*6F
$GPGSV,3,2,12,18,19,082,33,26,57,046,44,27,49,196,45,28,27,119,42,1*6E
$GPGSV,3,3,12,31,56,106,49,41,27,238,39,42,33,230,41,50,47,179,42,1*62
$GPGSV,2,1,07,04,49,280,37,08,20,210,35,09,22,314,39,26,57,046,32,6*6F
$GPGSV,2,2,07,27,49,196,38,28,27,119,37,31,56,106,34,6*5A
$GPGSV,1,1,02,29,01,037,,40,07,259,,0*64
$GLGSV,2,1,08,65,38,265,44,72,18,207,48,74,33,061,40,75,53,347,48,1*77
$GLGSV,2,2,08,76,17,289,45,84,34,061,44,85,36,125,50,,,,36,1*47
$GLGSV,2,1,05,72,18,207,32,75,53,347,36,76,17,289,34,84,34,061,37,3*7E
$GLGSV,2,2,05,85,36,125,30,3*42
$GLGSV,1,1,03,66,23,321,,83,03,019,,86,00,172,,0*41
$GAGSV,3,1,09,04,26,172,41,05,34,308,38,06,47,191,32,09,61,230,45,2*7D
$GAGSV,3,2,09,16,19,257,39,18,66,105,44,23,23,058,38,31,68,016,39,2*71
$GAGSV,3,3,09,33,15,107,39,2*47
$GAGSV,3,1,09,04,26,172,38,05,34,308,41,06,47,191,45,09,61,230,48,7*75
$GAGSV,3,2,09,16,19,257,31,18,66,105,48,23,23,058,36,31,68,016,43,7*73
$GAGSV,3,3,09,33,15,107,41,7*4D
$GAGSV,1,1,02,12,00,155,,26,12,059,,0*7F
$GBGSV,2,1,08,09,56,317,42,11,43,088,45,16,75,352,45,23,67,342,48,1*7B
$GBGSV,2,2,08,25,43,079,46,32,28,256,41,34,32,059,44,39,80,041,45,1*71
$GBGSV,2,1,06,06,72,337,37,07,40,208,40,09,56,317,40,11,43,088,43,B*06
$GBGSV,2,2,06,16,75,352,33,32,28,256,08,B*00
$GBGSV,1,1,01,10,26,214,,0*44
$GQGSV,1,1,02,02,79,102,42,07,47,179,39,1*6F
$GQGSV,1,1,03,02,79,102,38,04,27,184,39,07,47,179,31,6*5A
$GQGSV,1,1,02,03,16,154,,08,33,230,,0*6B
$GNRMC,070348.00,A,3727.0224142,N,12639.1054726,E,0.003,,191125,,,R,V*0D
$GNVTG,,T,,M,0.003,N,0.006,K,D*3D
$GNGGA,070348.00,3727.0224142,N,12639.1054726,E,4,12,0.54,16.990,M,17.832,M,1.0,4095*5C
$GNGSA,A,3,09,31,27,16,04,26,08,28,,,,,1.03,0.54,0.87,1*06
$GNGSA,A,3,72,84,75,76,85,,,,,,,,1.03,0.54,0.87,2*09
$GNGSA,A,3,23,33,06,16,05,09,04,31,,,,,1.03,0.54,0.87,3*05
$GNGSA,A,3,34,11,06,25,16,09,07,23,39,,,,1.03,0.54,0.87,4*0C
$GNGSA,A,3,07,02,,,,,,,,,,,1.03,0.54,0.87,5*0C
$GPGSV,3,1,12,04,49,280,43,08,20,210,35,09,22,314,36,16,68,311,44,1*6E
$GPGSV,3,2,12,18,19,082,32,26,57,046,44,27,49,196,44,28,27,119,42,1*6E
$GPGSV,3,3,12,31,56,106,48,41,27,238,39,42,33,230,40,50,47,179,42,1*62
$GPGSV,2,1,07,04,49,280,37,08,20,210,36,09,22,314,39,26,57,046,33,6*6D
$GPGSV,2,2,07,27,49,196,38,28,27,119,37,31,56,106,34,6*5A
$GPGSV,1,1,02,29,01,037,,40,07,259,,0*64
$GLGSV,2,1,08,65,38,265,44,72,18,207,47,74,33,061,39,75,53,347,47,1*79
$GLGSV,2,2,08,76,17,289,44,84,34,061,44,85,36,125,50,,,,35,1*45
$GLGSV,2,1,05,72,18,207,33,75,53,347,36,76,17,289,35,84,34,061,38,3*71
$GLGSV,2,2,05,85,36,125,32,3*40
$GLGSV,1,1,03,66,23,321,,83,03,019,,86,00,172,,0*41
$GAGSV,3,1,09,04,26,172,41,05,34,308,38,06,47,191,32,09,61,230,45,2*7D
$GAGSV,3,2,09,16,19,257,39,18,66,105,44,23,23,058,38,31,68,016,38,2*70
$GAGSV,3,3,09,33,15,107,39,2*47
$GAGSV,3,1,09,04,26,172,37,05,34,308,41,06,47,191,44,09,61,230,47,7*74
$GAGSV,3,2,09,16,19,257,31,18,66,105,47,23,23,058,36,31,68,016,43,7*7C
$GAGSV,3,3,09,33,15,107,41,7*4D
$GAGSV,1,1,02,12,00,155,,26,12,059,,0*7F
$GBGSV,2,1,08,09,56,317,42,11,43,088,44,16,75,352,45,23,67,342,47,1*75
$GBGSV,2,2,08,25,43,079,46,32,28,256,41,34,32,059,43,39,80,041,44,1*77
$GBGSV,2,1,06,06,72,337,37,07,40,208,40,09,56,317,39,11,43,088,43,B*08
$GBGSV,2,2,06,16,75,352,32,32,28,256,08,B*01
$GBGSV,1,1,01,10,26,214,,0*44
$GQGSV,1,1,02,02,79,102,42,07,47,179,39,1*6F
$GQGSV,1,1,03,02,79,102,36,04,27,184,40,07,47,179,32,6*59
$GQGSV,1,1,02,03,16,154,,08,33,230,,0*6B
$GNRMC,070349.00,A,3727.0224133,N,12639.1054725,E,0.009,,191125,,,R,V*03
$GNVTG,,T,,M,0.009,N,0.018,K,D*38
$GNGGA,070349.00,3727.0224133,N,12639.1054725,E,4,12,0.54,16.984,M,17.832,M,1.0,4095*5D
$GNGSA,A,3,09,31,27,16,04,26,08,28,,,,,1.03,0.54,0.87,1*06
$GNGSA,A,3,72,84,75,76,85,,,,,,,,1.03,0.54,0.87,2*09
$GNGSA,A,3,23,33,06,16,05,09,04,31,,,,,1.03,0.54,0.87,3*05
$GNGSA,A,3,34,11,06,25,16,09,07,23,39,,,,1.03,0.54,0.87,4*0C
$GNGSA,A,3,07,02,,,,,,,,,,,1.03,0.54,0.87,5*0C
$GPGSV,3,1,12,04,49,280,43,08,20,210,34,09,22,314,36,16,68,311,44,1*6F
$GPGSV,3,2,12,18,20,081,32,26,57,046,44,27,49,196,45,28,27,119,42,1*66
$GPGSV,3,3,12,31,56,106,48,41,27,238,40,42,33,230,40,50,47,179,42,1*6C
$GPGSV,2,1,07,04,49,280,37,08,20,210,36,09,22,314,38,26,57,046,32,6*6D
$GPGSV,2,2,07,27,49,196,38,28,27,119,37,31,56,106,34,6*5A
$GPGSV,1,1,02,29,01,037,,40,07,259,,0*64
$GLGSV,2,1,08,65,38,265,44,72,18,207,48,74,33,061,38,75,53,347,47,1*77
$GLGSV,2,2,08,76,17,289,44,84,34,061,43,85,36,125,50,,,,36,1*41
$GLGSV,2,1,05,72,18,207,32,75,53,347,36,76,17,289,34,84,34,061,37,3*7E
$GLGSV,2,2,05,85,36,125,32,3*40
$GLGSV,1,1,03,66,23,321,,83,03,019,,86,00,172,,0*41
$GAGSV,3,1,09,04,26,172,41,05,34,308,38,06,47,191,32,09,61,230,45,2*7D
$GAGSV,3,2,09,16,19,257,38,18,66,105,43,23,23,058,38,31,68,016,38,2*76
$GAGSV,3,3,09,33,15,107,39,2*47
$GAGSV,3,1,09,04,26,172,37,05,34,308,41,06,47,191,44,09,61,230,47,7*74
$GAGSV,3,2,09,16,19,257,32,18,66,105,47,23,23,058,36,31,68,016,43,7*7F
$GAGSV,3,3,09,33,15,107,41,7*4D
$GAGSV,1,1,02,12,00,155,,26,12,059,,0*7F
$GBGSV,2,1,08,09,56,317,43,11,43,088,45,16,75,352,45,23,67,342,48,1*7A
$GBGSV,2,2,08,25,43,079,47,32,28,256,42,34,32,059,43,39,80,041,45,1*74
$GBGSV,2,1,06,06,72,337,37,07,40,208,40,09,56,317,39,11,43,088,43,B*08
$GBGSV,2,2,06,16,75,352,31,32,28,256,08,B*02
$GBGSV,1,1,01,10,26,214,,0*44
$GQGSV,1,1,03,02,79,102,42,07,47,179,39,08,33,230,22,1*57
$GQGSV,1,1,03,02,79,102,38,04,27,184,39,07,47,179,31,6*5A
$GQGSV,1,1,01,03,16,154,,0*51
$GNRMC,070350.00,A,3727.0224141,N,12639.1054723,E,0.007,,191125,,,R,V*06
$GNVTG,,T,,M,0.007,N,0.012,K,D*3C
$GNGGA,070350.00,3727.0224141,N,12639.1054723,E,4,12,0.54,16.978,M,17.832,M,1.0,4095*55
$GNGSA,A,3,09,31,27,16,04,26,08,28,18,,,,1.03,0.54,0.87,1*0F
$GNGSA,A,3,72,84,75,76,85,,,,,,,,1.03,0.54,0.87,2*09
$GNGSA,A,3,23,33,06,16,05,09,04,31,,,,,1.03,0.54,0.87,3*05
$GNGSA,A,3,39,34,11,06,25,16,09,07,23,,,,1.03,0.54,0.87,4*0C
$GNGSA,A,3,02,,,,,,,,,,,,1.03,0.54,0.87,5*0B
$GPGSV,3,1,12,04,49,280,43,08,20,210,34,09,22,314,36,16,68,311,44,1*6F
$GPGSV,3,2,12,18,20,081,33,26,57,046,44,27,49,196,45,28,27,119,42,1*67
$GPGSV,3,3,12,31,56,106,48,41,27,238,40,42,33,230,41,50,47,179,41,1*6E
$GPGSV,2,1,07,04,49,280,36,08,20,210,36,09,22,314,39,26,57,046,32,6*6D
$GPGSV,2,2,07,27,49,196,37,28,27,119,37,31,56,106,34,6*55
$GPGSV,1,1,02,29,01,037,,40,07,259,,0*64
$GLGSV,2,1,08,65,38,265,44,72,18,207,48,74,33,061,39,75,53,347,47,1*76
$GLGSV,2,2,08,76,17,289,44,84,34,061,43,85,36,125,50,,,,36,1*41
$GLGSV,2,1,05,72,18,207,31,75,53,347,35,76,17,289,35,84,34,061,37,3*7F
$GLGSV,2,2,05,85,36,125,32,3*40
$GLGSV,1,1,03,66,23,321,,83,03,019,,86,00,172,,0*41
$GAGSV,3,1,09,04,26,172,42,05,34,308,38,06,47,191,32,09,61,230,44,2*7F
$GAGSV,3,2,09,16,19,257,38,18,66,105,43,23,23,058,38,31,68,016,37,2*79
$GAGSV,3,3,09,33,15,107,37,2*49
$GAGSV,3,1,09,04,26,172,37,05,34,308,41,06,47,191,44,09,61,230,47,7*74
$GAGSV,3,2,09,16,19,257,33,18,66,105,47,23,23,058,36,31,68,016,43,7*7E
$GAGSV,3,3,09,33,15,107,41,7*4D
$GAGSV,1,1,02,12,00,155,,26,12,059,,0*7F
$GBGSV,2,1,08,09,56,317,43,11,43,088,45,16,75,352,45,23,67,342,48,1*7A
$GBGSV,2,2,08,25,43,079,47,32,28,256,42,34,32,059,43,39,80,041,45,1*74
$GBGSV,2,1,05,06,72,337,37,07,40,208,39,09,56,317,38,11,43,088,43,B*04
$GBGSV,2,2,05,16,75,352,31,B*33
$GBGSV,1,1,01,10,26,214,,0*44
$GQGSV,1,1,03,02,79,102,42,07,47,179,39,08,33,230,22,1*57
$GQGSV,1,1,03,02,79,102,38,04,27,184,39,07,47,179,30,6*5B
$GQGSV,1,1,01,03,16,154,,0*51
$GNRMC,070351.00,A,3727.0224156,N,12639.1054725,E,0.004,,191125,,,R,V*04
$GNVTG,,T,,M,0.004,N,0.007,K,D*3B
$GNGGA,070351.00,3727.0224156,N,12639.1054725,E,4,12,0.53,16.974,M,17.832,M,1.0,4095*5F
$GNGSA,A,3,09,31,27,16,04,26,08,28,18,,,,1.00,0.53,0.84,1*08
$GNGSA,A,3,72,84,75,76,85,,,,,,,,1.00,0.53,0.84,2*0E
$GNGSA,A,3,23,33,06,16,05,09,04,31,,,,,1.00,0.53,0.84,3*02
$GNGSA,A,3,39,34,11,06,25,16,09,07,23,,,,1.00,0.53,0.84,4*0B
$GNGSA,A,3,02,,,,,,,,,,,,1.00,0.53,0.84,5*0C
$GPGSV,3,1,12,04,49,280,44,08,20,210,35,09,22,314,36,16,68,311,45,1*68
$GPGSV,3,2,12,18,20,081,34,26,57,046,45,27,49,196,45,28,27,119,43,1*60
$GPGSV,3,3,12,31,56,106,49,41,27,238,40,42,33,230,41,50,47,179,42,1*6C
$GPGSV,2,1,07,04,49,280,35,08,20,210,34,09,22,314,39,26,57,046,32,6*6C
$GPGSV,2,2,07,27,49,196,37,28,27,119,37,31,56,106,33,6*52
$GPGSV,1,1,02,29,01,037,,40,07,259,,0*64
$GLGSV,2,1,08,65,38,265,44,72,18,207,48,74,33,061,38,75,53,347,47,1*77
$GLGSV,2,2,08,76,17,289,45,84,34,061,43,85,36,125,50,,,,37,1*41
$GLGSV,2,1,05,72,18,207,29,75,53,347,35,76,17,289,36,84,34,061,36,3*74
$GLGSV,2,2,05,85,36,125,32,3*40
$GLGSV,1,1,03,66,23,321,,83,03,019,,86,00,172,,0*41
$GAGSV,3,1,09,04,26,172,42,05,34,308,39,06,47,191,32,09,61,230,44,2*7E
$GAGSV,3,2,09,16,19,257,37,18,66,105,43,23,23,058,38,31,68,016,36,2*77
$GAGSV,3,3,09,33,15,107,40,2*49
$GAGSV,3,1,09,04,26,172,36,05,34,308,41,06,47,191,44,09,61,230,47,7*75
$GAGSV,3,2,09,16,19,257,33,18,66,105,47,23,23,058,36,31,68,016,43,7*7E
$GAGSV,3,3,09,33,15,107,41,7*4D
$GAGSV,1,1,02,12,00,155,,26,12,059,,0*7F
$GBGSV,2,1,08,09,56,317,43,11,43,088,45,16,75,352,45,23,67,342,48,1*7A
$GBGSV,2,2,08,25,43,079,47,32,28,256,41,34,32,059,43,39,80,041,45,1*77
$GBGSV,2,1,05,06,72,337,38,07,40,208,39,09,56,317,39,11,43,088,43,B*0A
$GBGSV,2,2,05,16,75,352,31,B*33
$GBGSV,1,1,01,10,26,214,,0*44
$GQGSV,1,1,03,02,79,102,43,07,47,179,39,08,33,230,23,1*57
$GQGSV,1,1,03,02,79,102,38,04,27,184,39,07,47,179,30,6*5B
$GQGSV,1,1,01,03,16,154,,0*51
$GNRMC,070352.00,A,3727.0224174,N,12639.1054736,E,0.007,,191125,,,R,V*06
$GNVTG,,T,,M,0.007,N,0.013,K,D*3D
$GNGGA,070352.00,3727.0224174,N,12639.1054736,E,4,12,0.53,16.968,M,17.832,M,1.0,4095*53
$GNGSA,A,3,09,31,27,16,04,26,08,28,18,,,,1.00,0.53,0.84,1*08
$GNGSA,A,3,72,84,75,76,85,,,,,,,,1.00,0.53,0.84,2*0E
$GNGSA,A,3,23,33,06,16,05,09,04,31,,,,,1.00,0.53,0.84,3*02
$GNGSA,A,3,39,34,11,06,25,16,09,07,23,,,,1.00,0.53,0.84,4*0B
$GNGSA,A,3,02,,,,,,,,,,,,1.00,0.53,0.84,5*0C
$GPGSV,3,1,12,04,49,279,44,08,20,210,36,09,22,314,36,16,68,311,45,1*6D
$GPGSV,3,2,12,18,20,081,34,26,57,046,45,27,49,196,45,28,27,119,43,1*60
$GPGSV,3,3,12,31,56,106,49,41,27,238,40,42,33,230,41,50,47,179,42,1*6C
$GPGSV,2,1,07,04,49,279,36,08,20,210,34,09,22,314,39,26,57,046,32,6*69
$GPGSV,2,2,07,27,49,196,38,28,27,119,37,31,56,106,34,6*5A
$GPGSV,1,1,02,29,01,037,,40,07,259,,0*64
$GLGSV,2,1,08,65,38,265,44,72,18,207,48,74,33,061,38,75,53,347,47,1*77
$GLGSV,2,2,08,76,17,289,45,84,34,061,43,85,36,125,50,,,,37,1*41
$GLGSV,2,1,05,72,18,207,28,75,53,347,34,76,17,289,35,84,34,061,37,3*76
$GLGSV,2,2,05,85,36,125,31,3*43
$GLGSV,1,1,03,66,23,321,,83,03,019,,86,00,172,,0*41
$GAGSV,3,1,09,04,26,172,42,05,34,308,40,06,47,191,33,09,61,230,44,2*71
$GAGSV,3,2,09,16,19,257,37,18,66,105,42,23,23,058,39,31,68,016,36,2*77
$GAGSV,3,3,09,33,15,107,39,2*47
$GAGSV,3,1,09,04,26,172,37,05,34,308,41,06,47,191,44,09,61,230,47,7*74
$GAGSV,3,2,09,16,19,257,33,18,66,105,47,23,23,058,38,31,68,016,43,7*70
$GAGSV,3,3,09,33,15,107,41,7*4D
$GAGSV,1,1,02,12,00,155,,26,12,059,,0*7F
$GBGSV,2,1,08,09,56,317,43,11,43,088,44,16,75,352,45,23,67,342,48,1*7B
$GBGSV,2,2,08,25,43,079,47,32,28,256,41,34,32,059,43,39,80,041,45,1*77
$GBGSV,2,1,05,06,72,337,37,07,40,208,39,09,56,317,38,11,43,088,42,B*05
$GBGSV,2,2,05,16,75,352,29,B*3A
$GBGSV,1,1,01,10,26,214,,0*44
$GQGSV,1,1,03,02,79,102,43,07,47,179,39,08,33,230,20,1*54
$GQGSV,1,1,03,02,79,102,38,04,27,184,39,07,47,179,30,6*5B
$GQGSV,1,1,01,03,16,154,,0*51
$GNRMC,070353.00,A,3727.0224152,N,12639.1054716,E,0.008,,191125,,,R,V*0E
$GNVTG,,T,,M,0.008,N,0.014,K,D*35
$GNGGA,070353.00,3727.0224152,N,12639.1054716,E,4,12,0.53,16.974,M,17.832,M,1.0,4095*59
$GNGSA,A,3,09,31,27,16,04,26,08,28,18,,,,1.00,0.53,0.84,1*08
$GNGSA,A,3,72,84,75,76,85,,,,,,,,1.00,0.53,0.84,2*0E
$GNGSA,A,3,23,33,06,16,05,09,04,31,,,,,1.00,0.53,0.84,3*02
$GNGSA,A,3,39,34,11,06,25,16,09,07,23,,,,1.00,0.53,0.84,4*0B
$GNGSA,A,3,02,,,,,,,,,,,,1.00,0.53,0.84,5*0C
$GPGSV,3,1,12,04,49,279,44,08,20,210,37,09,22,314,36,16,68,311,45,1*6C
$GPGSV,3,2,12,18,20,081,34,26,57,046,45,27,49,196,45,28,27,119,43,1*60
$GPGSV,3,3,12,31,56,106,49,41,27,238,40,42,33,230,41,50,47,179,42,1*6C
$GPGSV,2,1,07,04,49,279,37,08,20,210,35,09,22,314,40,26,57,046,33,6*66
$GPGSV,2,2,07,27,49,196,39,28,27,119,39,31,56,106,35,6*54
$GPGSV,1,1,02,29,01,037,,40,07,259,,0*64
$GLGSV,2,1,08,65,38,265,44,72,18,207,47,74,33,061,38,75,53,347,47,1*78
$GLGSV,2,2,08,76,17,289,45,84,34,061,43,85,36,125,49,,,,37,1*49
$GLGSV,2,1,05,72,18,207,28,75,53,347,36,76,17,289,37,84,34,061,39,3*78
$GLGSV,2,2,05,85,36,125,35,3*47
$GLGSV,1,1,03,66,23,321,,83,03,019,,86,00,172,,0*41
$GAGSV,3,1,09,04,26,172,41,05,34,308,40,06,47,191,34,09,61,230,44,2*75
$GAGSV,3,2,09,16,19,257,38,18,66,105,43,23,23,058,39,31,68,016,37,2*78
$GAGSV,3,3,09,33,15,107,41,2*48
$GAGSV,3,1,09,04,26,172,36,05,34,308,41,06,47,191,44,09,61,230,47,7*75
$GAGSV,3,2,09,16,19,257,33,18,66,105,47,23,23,058,37,31,68,016,43,7*7F
$GAGSV,3,3,09,33,15,107,41,7*4D
$GAGSV,1,1,02,12,00,155,,26,12,059,,0*7F
$GBGSV,2,1,08,09,56,317,43,11,43,088,45,16,75,352,45,23,67,342,48,1*7A
$GBGSV,2,2,08,25,43,079,47,32,28,256,41,34,32,059,43,39,80,041,45,1*77
$GBGSV,2,1,06,06,72,337,39,07,40,208,41,09,56,317,40,11,43,088,43,B*09
$GBGSV,2,2,06,16,75,352,31,34,32,059,17,B*0C
$GBGSV,1,1,01,10,26,214,,0*44
$GQGSV,1,1,03,02,79,102,43,07,47,179,39,08,33,230,18,1*5F
$GQGSV,1,1,03,02,79,102,39,04,27,184,40,07,47,179,29,6*5C
$GQGSV,1,1,01,03,16,154,,0*51
$GNRMC,070354.00,A,3727.0224142,N,12639.1054720,E,0.008,,191125,,,R,V*0D
$GNVTG,,T,,M,0.008,N,0.014,K,D*35
$GNGGA,070354.00,3727.0224142,N,12639.1054720,E,4,12,0.53,16.976,M,17.832,M,2.0,4095*5B
$GNGSA,A,3,09,31,27,16,04,26,08,28,18,,,,1.00,0.53,0.84,1*08
$GNGSA,A,3,72,84,75,76,85,,,,,,,,1.00,0.53,0.84,2*0E
$GNGSA,A,3,23,33,06,16,05,09,04,31,,,,,1.00,0.53,0.84,3*02
$GNGSA,A,3,39,34,11,06,25,16,09,07,23,,,,1.00,0.53,0.84,4*0B
$GNGSA,A,3,02,,,,,,,,,,,,1.00,0.53,0.84,5*0C
$GPGSV,3,1,12,04,49,279,44,08,20,210,37,09,22,314,36,16,68,311,45,1*6C
$GPGSV,3,2,12,18,20,081,34,26,57,046,45,27,49,196,45,28,27,119,43,1*60
$GPGSV,3,3,12,31,56,106,49,41,27,238,40,42,33,230,41,50,47,179,42,1*6C
$GPGSV,1,1,01,16,68,311,14,5*5E
$GPGSV,2,1,07,04,49,279,38,08,20,210,35,09,22,314,40,26,57,046,33,6*69
$GPGSV,2,2,07,27,49,196,39,28,27,119,38,31,56,106,35,6*55
$GPGSV,1,1,02,29,01,037,,40,07,259,,0*64
$GLGSV,2,1,08,65,38,265,44,72,18,207,47,74,33,061,38,75,53,347,47,1*78
$GLGSV,2,2,08,76,17,289,45,84,34,061,43,85,36,125,49,,,,37,1*49
$GLGSV,2,1,05,72,18,207,30,75,53,347,36,76,17,289,37,84,34,061,38,3*70
$GLGSV,2,2,05,85,36,125,34,3*46
$GLGSV,1,1,03,66,23,321,,83,03,019,,86,00,172,,0*41
$GAGSV,3,1,09,04,26,172,41,05,34,308,39,06,47,191,35,09,61,230,44,2*7A
$GAGSV,3,2,09,16,19,257,38,18,66,105,43,23,23,058,38,31,68,016,37,2*79
$GAGSV,3,3,09,33,15,107,40,2*49
$GAGSV,3,1,09,04,26,172,37,05,34,308,42,06,47,191,44,09,61,230,47,7*77
$GAGSV,3,2,09,16,19,257,33,18,66,105,47,23,23,058,37,31,68,016,43,7*7F
$GAGSV,3,3,09,33,15,107,41,7*4D
$GAGSV,1,1,02,12,00,155,,26,12,059,,0*7F
$GBGSV,2,1,08,09,56,317,43,11,43,088,44,16,75,352,45,23,67,342,48,1*7B
$GBGSV,2,2,08,25,43,079,47,32,28,256,42,34,32,059,43,39,80,041,45,1*74
$GBGSV,2,1,06,06,72,337,38,07,40,208,40,09,56,317,39,11,43,088,43,B*07
$GBGSV,2,2,06,16,75,352,31,34,32,059,13,B*08
$GBGSV,1,1,01,10,26,214,,0*44
$GQGSV,1,1,02,02,79,102,42,07,47,179,39,1*6F
$GQGSV,1,1,03,02,79,102,38,04,27,184,40,07,47,179,31,6*54
$GQGSV,1,1,02,03,16,154,,08,33,230,,0*6B
$GNRMC,070355.00,A,3727.0224151,N,12639.1054728,E,0.006,,191125,,,R,V*08
$GNVTG,,T,,M,0.006,N,0.011,K,D*3E
$GNGGA,070355.00,3727.0224151,N,12639.1054728,E,4,12,0.53,16.973,M,17.832,M,1.0,4095*56
$GNGSA,A,3,09,31,27,16,04,26,08,28,18,,,,1.00,0.53,0.84,1*08
$GNGSA,A,3,72,84,75,76,85,,,,,,,,1.00,0.53,0.84,2*0E
$GNGSA,A,3,23,33,06,16,05,09,04,31,,,,,1.00,0.53,0.84,3*02
$GNGSA,A,3,39,34,11,06,25,16,09,07,23,,,,1.00,0.53,0.84,4*0B
$GNGSA,A,3,02,,,,,,,,,,,,1.00,0.53,0.84,5*0C
$GPGSV,3,1,12,04,49,279,44,08,20,210,37,09,22,314,36,16,68,311,45,1*6C
$GPGSV,3,2,12,18,20,081,34,26,57,046,44,27,49,196,45,28,27,119,43,1*61
$GPGSV,3,3,12,31,56,106,49,41,27,238,40,42,33,230,41,50,47,179,42,1*6C
$GPGSV,2,1,08,04,49,279,37,08,20,210,35,09,22,314,39,16,68,311,13,6*6B
$GPGSV,2,2,08,26,57,046,33,27,49,196,39,28,27,119,38,31,56,106,33,6*68
$GPGSV,1,1,02,29,01,037,,40,07,259,,0*64
$GLGSV,2,1,08,65,38,265,44,72,18,207,47,74,33,061,37,75,53,347,47,1*77
$GLGSV,2,2,08,76,17,289,45,84,34,061,42,85,36,125,50,,,,36,1*41
$GLGSV,2,1,05,72,18,207,29,75,53,347,36,76,17,289,36,84,34,061,38,3*79
$GLGSV,2,2,05,85,36,125,33,3*41
$GLGSV,1,1,03,66,23,321,,83,03,019,,86,00,172,,0*41
$GAGSV,3,1,09,04,26,172,42,05,34,308,39,06,47,191,35,09,61,230,45,2*78
$GAGSV,3,2,09,16,19,257,38,18,66,105,43,23,23,058,38,31,68,016,37,2*79
$GAGSV,3,3,09,33,15,107,40,2*49
$GAGSV,3,1,09,04,26,172,37,05,34,308,42,06,47,191,44,09,61,230,47,7*77
$GAGSV,3,2,09,16,19,257,32,18,66,105,47,23,23,058,37,31,68,016,43,7*7E
$GAGSV,3,3,09,33,15,107,41,7*4D
$GAGSV,1,1,02,12,00,155,,26,12,059,,0*7F
$GBGSV,2,1,08,09,56,317,43,11,43,088,44,16,75,352,45,23,67,342,48,1*7B
$GBGSV,2,2,08,25,43,079,47,32,28,256,42,34,32,059,43,39,80,041,45,1*74
$GBGSV,2,1,06,06,72,337,38,07,40,208,40,09,56,317,39,11,43,088,44,B*00
$GBGSV,2,2,06,16,75,352,31,34,32,059,10,B*0B
$GBGSV,1,1,01,10,26,214,,0*44
$GQGSV,1,1,02,02,79,102,42,07,47,179,39,1*6F
$GQGSV,1,1,03,02,79,102,38,04,27,184,39,07,47,179,30,6*5B
$GQGSV,1,1,02,03,16,154,,08,33,230,,0*6B
$GNRMC,070356.00,A,3727.0224152,N,12639.1054726,E,0.001,,191125,,,R,V*01
$GNVTG,,T,,M,0.001,N,0.002,K,D*3B
$GNGGA,070356.00,3727.0224152,N,12639.1054726,E,4,12,0.53,16.972,M,17.832,M,1.0,4095*59
$GNGSA,A,3,09,31,27,16,04,26,08,28,18,,,,1.00,0.53,0.84,1*08
$GNGSA,A,3,72,84,75,76,85,,,,,,,,1.00,0.53,0.84,2*0E
$GNGSA,A,3,23,33,06,16,05,09,04,31,,,,,1.00,0.53,0.84,3*02
$GNGSA,A,3,39,34,11,06,25,16,09,07,23,,,,1.00,0.53,0.84,4*0B
$GNGSA,A,3,02,,,,,,,,,,,,1.00,0.53,0.84,5*0C
$GPGSV,3,1,12,04,49,279,43,08,20,210,37,09,22,314,37,16,68,311,45,1*6A
$GPGSV,3,2,12,18,20,081,35,26,57,046,44,27,49,196,45,28,27,119,43,1*60
$GPGSV,3,3,12,31,56,106,49,41,27,238,40,42,33,230,41,50,47,179,42,1*6C
$GPGSV,2,1,08,04,49,279,38,08,20,210,35,09,22,314,41,16,68,311,10,6*68
$GPGSV,2,2,08,26,57,046,36,27,49,196,41,28,27,119,39,31,56,106,33,6*63
$GPGSV,1,1,02,29,01,037,,40,07,259,,0*64
$GLGSV,2,1,08,65,38,265,44,72,18,207,46,74,33,061,37,75,53,347,46,1*77
$GLGSV,2,2,08,76,17,289,44,84,34,061,42,85,36,125,49,,,,36,1*48
$GLGSV,2,1,05,72,18,207,29,75,53,347,38,76,17,289,36,84,34,061,40,3*78
$GLGSV,2,2,05,85,36,125,33,3*41
$GLGSV,1,1,03,66,23,321,,83,03,019,,86,00,172,,0*41
$GAGSV,3,1,09,04,26,172,43,05,34,308,40,06,47,191,35,09,61,230,46,2*74
$GAGSV,3,2,09,16,19,257,39,18,66,105,44,23,23,058,38,31,68,016,37,2*7F
$GAGSV,3,3,09,33,15,107,42,2*4B
$GAGSV,3,1,09,04,26,172,37,05,34,308,41,06,47,191,44,09,61,230,47,7*74
$GAGSV,3,2,09,16,19,257,32,18,66,105,47,23,23,058,37,31,68,016,43,7*7E
$GAGSV,3,3,09,33,15,107,41,7*4D
$GAGSV,1,1,02,12,00,155,,26,12,059,,0*7F
$GBGSV,2,1,08,09,56,317,43,11,43,088,44,16,75,352,45,23,67,342,48,1*7B
$GBGSV,2,2,08,25,43,079,47,32,28,256,41,34,32,059,43,39,80,041,45,1*77
$GBGSV,2,1,06,06,72,337,40,07,40,208,41,09,56,317,41,11,43,088,46,B*03
$GBGSV,2,2,06,16,75,352,31,34,32,059,08,B*02
$GBGSV,1,1,01,10,26,214,,0*44
$GQGSV,1,1,02,02,79,102,42,07,47,179,39,1*6F
$GQGSV,1,1,04,02,79,102,39,04,27,184,41,07,47,179,31,08,33,230,11,6*6A
$GQGSV,1,1,01,03,16,154,,0*51
$GNRMC,070357.00,A,3727.0224164,N,12639.1054736,E,0.005,,191125,,,R,V*00
$GNVTG,,T,,M,0.005,N,0.009,K,D*34
$GNGGA,070357.00,3727.0224164,N,12639.1054736,E,4,12,0.53,16.973,M,17.832,M,2.0,4095*5E
$GNGSA,A,3,09,31,27,16,04,26,08,28,18,,,,1.00,0.53,0.84,1*08
$GNGSA,A,3,72,84,75,76,85,,,,,,,,1.00,0.53,0.84,2*0E
$GNGSA,A,3,23,33,06,16,05,09,04,31,,,,,1.00,0.53,0.84,3*02
$GNGSA,A,3,39,34,11,06,25,16,09,07,23,,,,1.00,0.53,0.84,4*0B
$GNGSA,A,3,02,,,,,,,,,,,,1.00,0.53,0.84,5*0C
$GPGSV,3,1,12,04,49,279,43,08,20,210,37,09,22,313,36,16,68,311,45,1*6C
$GPGSV,3,2,12,18,20,081,35,26,57,046,44,27,49,196,45,28,27,119,41,1*62
$GPGSV,3,3,12,31,56,106,49,41,27,238,40,42,33,230,41,50,47,179,42,1*6C
$GPGSV,2,1,08,04,49,279,37,08,20,210,35,09,22,313,38,16,68,311,09,6*66
$GPGSV,2,2,08,26,57,046,35,27,49,196,39,28,27,119,38,31,56,106,33,6*6E
$GPGSV,1,1,02,29,01,037,,40,07,259,,0*64
$GLGSV,2,1,08,65,38,265,44,72,18,207,46,74,33,061,37,75,53,347,46,1*77
$GLGSV,2,2,08,76,17,289,44,84,34,061,42,85,36,125,49,,,,36,1*48
$GLGSV,2,1,06,65,38,265,13,72,18,207,28,75,53,347,37,76,17,289,36,3*76
$GLGSV,2,2,06,84,34,061,39,85,36,125,35,3*72
$GLGSV,1,1,03,66,23,321,,83,03,019,,86,00,172,,0*41
$GAGSV,3,1,09,04,26,172,42,05,34,308,35,06,47,191,34,09,61,230,44,2*74
$GAGSV,3,2,09,16,19,257,39,18,66,105,43,23,23,058,37,31,68,016,38,2*78
$GAGSV,3,3,09,33,15,107,41,2*48
$GAGSV,3,1,09,04,26,172,37,05,34,308,41,06,47,191,44,09,61,230,47,7*74
$GAGSV,3,2,09,16,19,257,33,18,66,105,47,23,23,058,37,31,68,016,43,7*7F
$GAGSV,3,3,09,33,15,107,42,7*4E
$GAGSV,1,1,02,12,00,155,,26,12,059,,0*7F
$GBGSV,2,1,08,09,56,317,43,11,43,088,45,16,75,352,45,23,67,342,48,1*7A
$GBGSV,2,2,08,25,43,079,47,32,28,256,41,34,32,059,43,39,80,041,45,1*77
$GBGSV,2,1,06,06,72,337,37,07,40,208,39,09,56,317,38,11,43,088,45,B*01
$GBGSV,2,2,06,16,75,352,30,34,32,059,08,B*03
$GBGSV,1,1,01,10,26,214,,0*44
$GQGSV,1,1,03,02,79,102,42,07,47,179,39,08,33,230,23,1*56
$GQGSV,1,1,04,02,79,102,38,04,27,184,40,07,47,179,30,08,33,230,08,6*63
$GQGSV,1,1,01,03,16,154,,0*51
$GNRMC,070358.00,A,3727.0224147,N,12639.1054721,E,0.015,,191125,,,R,V*09
$GNVTG,,T,,M,0.015,N,0.028,K,D*36
$GNGGA,070358.00,3727.0224147,N,12639.1054721,E,4,12,0.53,16.975,M,17.832,M,1.0,4095*53
$GNGSA,A,3,09,31,27,16,04,26,08,28,18,,,,1.00,0.53,0.84,1*08
$GNGSA,A,3,72,84,75,76,85,,,,,,,,1.00,0.53,0.84,2*0E
$GNGSA,A,3,23,33,06,16,05,09,04,31,,,,,1.00,0.53,0.84,3*02
$GNGSA,A,3,39,34,11,06,25,16,09,07,23,,,,1.00,0.53,0.84,4*0B
$GNGSA,A,3,02,,,,,,,,,,,,1.00,0.53,0.84,5*0C
$GPGSV,3,1,12,04,49,279,43,08,20,210,36,09,22,313,37,16,68,311,45,1*6C
$GPGSV,3,2,12,18,20,081,35,26,57,046,44,27,49,196,45,28,27,119,41,1*62
$GPGSV,3,3,12,31,56,106,49,41,27,238,40,42,33,230,41,50,47,179,42,1*6C
$GPGSV,2,1,08,04,49,279,37,08,20,210,35,09,22,313,38,16,68,311,09,6*66
$GPGSV,2,2,08,26,57,046,35,27,49,196,39,28,27,119,38,31,56,106,33,6*6E
$GPGSV,1,1,02,29,01,037,,40,07,259,,0*64
$GLGSV,2,1,08,65,38,265,43,72,18,207,46,74,33,061,36,75,53,347,46,1*71
$GLGSV,2,2,08,76,17,289,44,84,34,061,41,85,36,125,49,,,,36,1*4B
$GLGSV,2,1,06,65,38,265,12,72,18,207,28,75,53,347,36,76,17,289,35,3*75
$GLGSV,2,2,06,84,34,061,38,85,36,125,35,3*73
$GLGSV,1,1,03,66,23,321,,83,03,019,,86,00,172,,0*41
$GAGSV,3,1,09,04,26,172,42,05,34,308,39,06,47,191,34,09,61,230,45,2*79
$GAGSV,3,2,09,16,19,257,39,18,66,105,43,23,23,058,38,31,68,016,36,2*79
$GAGSV,3,3,09,33,15,107,41,2*48
$GAGSV,3,1,09,04,26,172,37,05,34,308,41,06,47,191,44,09,61,230,47,7*74
$GAGSV,3,2,09,16,19,257,33,18,66,105,47,23,23,058,37,31,68,016,43,7*7F
$GAGSV,3,3,09,33,15,107,42,7*4E
$GAGSV,1,1,02,12,00,155,,26,12,059,,0*7F
$GBGSV,2,1,08,09,56,317,43,11,43,088,45,16,75,352,45,23,67,342,48,1*7A
$GBGSV,2,2,08,25,43,079,46,32,28,256,41,34,32,059,43,39,80,041,45,1*76
$GBGSV,2,1,06,06,72,337,38,07,40,208,39,09,56,317,39,11,43,088,44,B*0E
$GBGSV,2,2,06,16,75,352,30,34,32,059,08,B*03
$GBGSV,1,1,01,10,26,214,,0*44
$GQGSV,1,1,03,02,79,102,42,07,47,179,39,08,33,230,21,1*54
$GQGSV,1,1,04,02,79,102,37,04,27,184,40,07,47,179,31,08,33,230,07,6*62
$GQGSV,1,1,01,03,16,154,,0*51
$GNRMC,070359.00,A,3727.0224158,N,12639.1054731,E,0.006,,191125,,,R,V*05
$GNVTG,,T,,M,0.006,N,0.011,K,D*3E
$GNGGA,070359.00,3727.0224158,N,12639.1054731,E,4,12,0.53,16.977,M,17.832,M,1.0,4095*5F
$GNGSA,A,3,09,31,27,16,04,26,08,28,18,,,,1.00,0.53,0.84,1*08
$GNGSA,A,3,72,84,75,76,85,,,,,,,,1.00,0.53,0.84,2*0E
$GNGSA,A,3,23,33,06,16,05,09,04,31,,,,,1.00,0.53,0.84,3*02
$GNGSA,A,3,39,34,11,06,25,16,09,07,23,,,,1.00,0.53,0.84,4*0B
$GNGSA,A,3,02,,,,,,,,,,,,1.00,0.53,0.84,5*0C
$GPGSV,3,1,12,04,49,279,43,08,20,210,36,09,22,313,37,16,68,311,45,1*6C
$GPGSV,3,2,12,18,20,081,35,26,57,046,44,27,49,196,44,28,27,119,41,1*63
$GPGSV,3,3,12,31,56,106,49,41,27,238,40,42,33,230,41,50,47,179,42,1*6C
$GPGSV,2,1,07,04,49,279,36,08,20,210,33,09,22,313,38,26,57,046,34,6*6E
$GPGSV,2,2,07,27,49,196,38,28,27,119,37,31,56,106,32,6*5C
$GPGSV,1,1,02,29,01,037,,40,07,259,,0*64
$GLGSV,2,1,08,65,38,265,43,72,18,207,46,74,33,061,37,75,53,347,47,1*71
$GLGSV,2,2,08,76,17,289,43,84,34,061,43,85,36,125,49,,,,39,1*41
$GLGSV,2,1,06,65,38,265,09,72,18,207,27,75,53,347,36,76,17,289,34,3*71
$GLGSV,2,2,06,84,34,061,38,85,36,125,35,3*73
$GLGSV,1,1,03,66,23,321,,83,03,019,,86,00,172,,0*41
$GAGSV,3,1,09,04,26,172,42,05,34,308,39,06,47,191,35,09,61,230,45,2*78
$GAGSV,3,2,09,16,19,257,39,18,66,105,44,23,23,058,39,31,68,016,37,2*7E
$GAGSV,3,3,09,33,15,107,41,2*48
$GAGSV,3,1,09,04,26,172,37,05,34,308,42,06,47,191,44,09,61,230,47,7*77
$GAGSV,3,2,09,16,19,257,33,18,66,105,47,23,23,058,37,31,68,016,43,7*7F
$GAGSV,3,3,09,33,15,107,42,7*4E
$GAGSV,1,1,02,12,00,155,,26,12,059,,0*7F
$GBGSV,2,1,08,09,56,317,43,11,43,088,45,16,75,352,45,23,67,342,48,1*7A
$GBGSV,2,2,08,25,43,079,46,32,28,256,41,34,32,059,43,39,80,041,45,1*76
$GBGSV,2,1,06,06,72,337,38,07,40,208,39,09,56,317,38,11,43,088,43,B*08
$GBGSV,2,2,06,16,75,352,30,34,32,059,07,B*0C
$GBGSV,1,1,01,10,26,214,,0*44
$GQGSV,1,1,03,02,79,102,42,07,47,179,39,08,33,230,19,1*5F
$GQGSV,1,1,04,02,79,102,36,04,27,184,39,07,47,179,30,08,33,230,07,6*6C
$GQGSV,1,1,01,03,16,154,,0*51
$GNRMC,070400.00,A,3727.0224147,N,12639.1054721,E,0.012,,191125,,,R,V*04
$GNVTG,,T,,M,0.012,N,0.023,K,D*3A
$GNGGA,070400.00,3727.0224147,N,12639.1054721,E,4,12,0.53,16.976,M,17.832,M,2.0,4095*59
$GNGSA,A,3,09,31,27,16,04,26,08,28,18,,,,1.00,0.53,0.84,1*08
$GNGSA,A,3,72,84,75,76,85,,,,,,,,1.00,0.53,0.84,2*0E
$GNGSA,A,3,23,33,06,16,05,09,04,31,,,,,1.00,0.53,0.84,3*02
$GNGSA,A,3,39,34,11,06,25,16,09,07,23,,,,1.00,0.53,0.84,4*0B
$GNGSA,A,3,02,,,,,,,,,,,,1.00,0.53,0.84,5*0C
$GPGSV,3,1,12,04,49,279,43,08,20,210,36,09,22,313,36,16,68,311,45,1*6D
$GPGSV,3,2,12,18,20,081,35,26,57,046,44,27,49,196,45,28,27,119,42,1*61
$GPGSV,3,3,12,31,56,106,49,41,27,238,40,42,33,230,41,50,47,179,42,1*6C
$GPGSV,2,1,07,04,49,279,36,08,20,210,32,09,22,313,37,26,57,046,34,6*60
$GPGSV,2,2,07,27,49,196,38,28,27,119,37,31,56,106,32,6*5C
$GPGSV,1,1,02,29,01,037,,40,07,259,,0*64
$GLGSV,2,1,08,65,38,265,44,72,18,207,46,74,33,061,36,75,53,347,47,1*77
$GLGSV,2,2,08,76,17,289,44,84,34,061,42,85,36,125,49,,,,38,1*46
$GLGSV,2,1,06,65,38,265,08,72,18,207,26,75,53,347,36,76,17,289,33,3*76
$GLGSV,2,2,06,84,34,061,38,85,36,125,33,3*75
$GLGSV,1,1,03,66,23,321,,83,03,019,,86,00,172,,0*41
$GAGSV,3,1,09,04,26,172,43,05,34,308,37,06,47,191,33,09,61,230,45,2*71
$GAGSV,3,2,09,16,19,257,39,18,66,105,44,23,23,058,39,31,68,016,37,2*7E
$GAGSV,3,3,09,33,15,107,40,2*49
$GAGSV,3,1,09,04,26,172,36,05,34,308,42,06,47,191,44,09,61,230,47,7*76
$GAGSV,3,2,09,16,19,257,33,18,66,105,47,23,23,058,37,31,68,016,43,7*7F
$GAGSV,3,3,09,33,15,107,42,7*4E
$GAGSV,1,1,02,12,00,155,,26,12,059,,0*7F
$GBGSV,2,1,08,09,56,317,43,11,43,088,44,16,75,352,45,23,67,342,48,1*7B
$GBGSV,2,2,08,25,43,079,46,32,28,256,41,34,32,059,44,39,80,041,45,1*71
$GBGSV,2,1,06,06,72,337,37,07,40,208,39,09,56,317,38,11,43,088,43,B*07
$GBGSV,2,2,06,16,75,352,30,34,32,059,07,B*0C
$GBGSV,1,1,01,10,26,214,,0*44
$GQGSV,1,1,03,02,79,102,42,07,47,179,39,08,33,230,18,1*5E
$GQGSV,1,1,03,02,79,102,36,04,27,184,39,07,47,179,30,6*55
$GQGSV,1,1,01,03,16,154,,0*51
$GNRMC,070401.00,A,3727.0224146,N,12639.1054731,E,0.006,,191125,,,R,V*00
$GNVTG,,T,,M,0.006,N,0.011,K,D*3E
$GNGGA,070401.00,3727.0224146,N,12639.1054731,E,4,12,0.53,16.978,M,17.832,M,1.0,4095*55
$GNGSA,A,3,09,31,27,16,04,26,08,28,18,,,,1.00,0.53,0.84,1*08
$GNGSA,A,3,72,84,75,76,85,,,,,,,,1.00,0.53,0.84,2*0E
$GNGSA,A,3,23,33,06,16,05,09,04,31,,,,,1.00,0.53,0.84,3*02
$GNGSA,A,3,39,34,11,06,25,16,09,07,23,,,,1.00,0.53,0.84,4*0B
$GNGSA,A,3,02,,,,,,,,,,,,1.00,0.53,0.84,5*0C
$GPGSV,3,1,12,04,49,279,43,08,20,210,36,09,22,313,36,16,68,311,45,1*6D
$GPGSV,3,2,12,18,20,081,35,26,57,046,44,27,49,196,45,28,27,119,42,1*61
$GPGSV,3,3,12,31,56,106,49,41,27,238,40,42,33,230,41,50,47,179,42,1*6C
$GPGSV,2,1,07,04,49,279,37,08,20,210,34,09,22,313,38,26,57,046,35,6*69
$GPGSV,2,2,07,27,49,196,39,28,27,119,37,31,56,106,32,6*5D
$GPGSV,1,1,02,29,01,037,,40,07,259,,0*64
$GLGSV,2,1,08,65,38,265,44,72,18,207,46,74,33,061,36,75,53,347,47,1*77
$GLGSV,2,2,08,76,17,289,44,84,34,061,41,85,36,125,49,,,,38,1*45
$GLGSV,2,1,06,65,38,265,10,72,18,207,26,75,53,347,36,76,17,289,32,3*7E
$GLGSV,2,2,06,84,34,061,38,85,36,125,31,3*77
$GLGSV,1,1,03,66,23,321,,83,03,019,,86,00,172,,0*41
$GAGSV,3,1,09,04,26,172,43,05,34,308,38,06,47,191,34,09,61,230,45,2*79
$GAGSV,3,2,09,16,19,257,39,18,66,105,43,23,23,058,39,31,68,016,37,2*79
$GAGSV,3,3,09,33,15,107,40,2*49
$GAGSV,3,1,09,04,26,172,36,05,34,308,41,06,47,191,44,09,61,230,47,7*75
$GAGSV,3,2,09,16,19,257,33,18,66,105,47,23,23,058,38,31,68,016,43,7*70
$GAGSV,3,3,09,33,15,107,42,7*4E
$GAGSV,1,1,02,12,00,155,,26,12,059,,0*7F
$GBGSV,2,1,08,09,56,317,43,11,43,088,45,16,75,352,45,23,67,342,48,1*7A
$GBGSV,2,2,08,25,43,079,46,32,28,256,41,34,32,059,44,39,80,041,45,1*71
$GBGSV,2,1,06,06,72,337,37,07,40,208,39,09,56,317,38,11,43,088,43,B*07
$GBGSV,2,2,06,16,75,352,30,34,32,059,07,B*0C
$GBGSV,1,1,01,10,26,214,,0*44
$GQGSV,1,1,03,02,79,102,42,07,47,179,39,08,33,230,21,1*54
$GQGSV,1,1,03,02,79,102,37,04,27,184,39,07,47,179,30,6*54
$GQGSV,1,1,01,03,16,154,,0*51
$GNRMC,070402.00,A,3727.0224139,N,12639.1054730,E,0.011,,191125,,,R,V*0C
$GNVTG,,T,,M,0.011,N,0.020,K,D*3A
$GNGGA,070402.00,3727.0224139,N,12639.1054730,E,4,12,0.53,16.977,M,17.832,M,1.0,4095*50
$GNGSA,A,3,09,31,27,16,04,26,08,28,18,,,,1.00,0.53,0.84,1*08
$GNGSA,A,3,72,84,75,76,85,,,,,,,,1.00,0.53,0.84,2*0E
$GNGSA,A,3,23,33,06,16,05,09,04,31,,,,,1.00,0.53,0.84,3*02
$GNGSA,A,3,39,34,11,06,25,16,09,07,23,,,,1.00,0.53,0.84,4*0B
$GNGSA,A,3,02,,,,,,,,,,,,1.00,0.53,0.84,5*0C
$GPGSV,3,1,12,04,49,279,43,08,20,210,36,09,22,313,36,16,68,314,45,1*68
$GPGSV,3,2,12,18,20,081,35,26,57,046,44,27,49,196,45,28,27,119,42,1*61
$GPGSV,3,3,12,31,56,106,49,41,27,238,40,42,33,230,41,50,47,179,42,1*6C
$GPGSV,2,1,07,04,49,279,35,08,20,210,33,09,22,313,36,26,57,046,35,6*62
$GPGSV,2,2,07,27,49,196,37,28,27,119,37,31,56,106,32,6*53
$GPGSV,1,1,02,29,01,037,,40,07,259,,0*64
$GLGSV,2,1,08,65,38,265,44,72,18,207,46,74,33,061,35,75,53,347,47,1*74
$GLGSV,2,2,08,76,17,289,44,84,34,061,41,85,36,125,49,,,,37,1*4A
$GLGSV,2,1,06,65,38,265,08,72,18,207,24,75,53,347,33,76,17,289,28,3*7B
$GLGSV,2,2,06,84,34,061,35,85,36,125,30,3*7B
$GLGSV,1,1,03,66,23,321,,83,03,019,,86,00,172,,0*41
$GAGSV,3,1,09,04,26,172,42,05,34,308,37,06,47,191,32,09,61,230,44,2*70
$GAGSV,3,2,09,16,19,257,38,18,66,105,44,23,23,058,38,31,68,016,36,2*7F
$GAGSV,3,3,09,33,15,107,40,2*49
$GAGSV,3,1,09,04,26,172,36,05,34,308,41,06,47,191,44,09,61,230,47,7*75
$GAGSV,3,2,09,16,19,257,33,18,66,105,47,23,23,058,37,31,68,016,43,7*7F
$GAGSV,3,3,09,33,15,107,42,7*4E
$GAGSV,1,1,02,12,00,155,,26,12,059,,0*7F
$GBGSV,2,1,08,09,56,317,43,11,43,088,45,16,75,352,45,23,67,342,48,1*7A
$GBGSV,2,2,08,25,43,079,47,32,28,256,41,34,32,059,44,39,80,041,45,1*70
$GBGSV,2,1,06,06,72,337,35,07,40,208,38,09,56,317,36,11,43,088,42,B*0B
$GBGSV,2,2,06,16,75,352,30,34,32,059,07,B*0C
$GBGSV,1,1,01,10,26,214,,0*44
$GQGSV,1,1,03,02,79,102,42,07,47,179,39,08,33,230,19,1*5F
$GQGSV,1,1,03,02,79,102,36,04,27,184,38,07,47,179,30,6*54
$GQGSV,1,1,01,03,16,154,,0*51
$GNRMC,070403.00,A,3727.0224134,N,12639.1054737,E,0.006,,191125,,,R,V*01
$GNVTG,,T,,M,0.006,N,0.011,K,D*3E
$GNGGA,070403.00,3727.0224134,N,12639.1054737,E,4,12,0.53,16.979,M,17.832,M,1.0,4095*55
$GNGSA,A,3,09,31,27,16,04,26,08,28,18,,,,1.00,0.53,0.84,1*08
$GNGSA,A,3,72,84,75,76,85,,,,,,,,1.00,0.53,0.84,2*0E
$GNGSA,A,3,23,33,06,16,05,09,04,31,,,,,1.00,0.53,0.84,3*02
$GNGSA,A,3,39,34,11,06,25,16,09,07,23,,,,1.00,0.53,0.84,4*0B
$GNGSA,A,3,02,,,,,,,,,,,,1.00,0.53,0.84,5*0C
$GPGSV,3,1,12,04,49,279,43,08,20,210,36,09,22,313,36,16,68,314,45,1*68
$GPGSV,3,2,12,18,20,081,35,26,57,046,44,27,49,196,44,28,27,119,42,1*60
$GPGSV,3,3,12,31,56,106,49,41,27,238,40,42,33,230,41,50,47,179,42,1*6C
$GPGSV,2,1,07,04,49,279,37,08,20,210,33,09,22,313,38,26,57,046,35,6*6E
$GPGSV,2,2,07,27,49,196,38,28,27,119,38,31,56,106,33,6*52
$GPGSV,1,1,02,29,01,037,,40,07,259,,0*64
$GLGSV,2,1,08,65,38,265,44,72,18,207,46,74,33,061,36,75,53,347,47,1*77
$GLGSV,2,2,08,76,17,289,43,84,34,061,41,85,36,125,49,,,,37,1*4D
$GLGSV,2,1,06,65,38,265,08,72,18,207,24,75,53,347,34,76,17,289,30,3*75
$GLGSV,2,2,06,84,34,061,35,85,36,125,31,3*7A
$GLGSV,1,1,03,66,23,321,,83,03,019,,86,00,172,,0*41
$GAGSV,3,1,09,04,26,172,43,05,34,308,39,06,47,191,33,09,61,230,45,2*7F
$GAGSV,3,2,09,16,19,257,39,18,66,105,44,23,23,058,40,31,68,016,37,2*70
$GAGSV,3,3,09,33,15,107,42,2*4B
$GAGSV,3,1,09,04,26,172,36,05,34,308,41,06,47,191,44,09,61,230,47,7*75
$GAGSV,3,2,09,16,19,257,32,18,66,105,47,23,23,058,37,31,68,016,43,7*7E
$GAGSV,3,3,09,33,15,107,42,7*4E
$GAGSV,1,1,02,12,00,155,,26,12,059,,0*7F
$GBGSV,2,1,08,09,56,317,43,11,43,088,45,16,75,352,45,23,67,342,48,1*7A
$GBGSV,2,2,08,25,43,079,46,32,28,256,41,34,32,059,44,39,80,041,45,1*71
$GBGSV,2,1,06,06,72,337,37,07,40,208,39,09,56,317,38,11,43,088,44,B*00
$GBGSV,2,2,06,16,75,352,30,34,32,059,08,B*03
$GBGSV,1,1,01,10,26,214,,0*44
$GQGSV,1,1,03,02,79,102,42,07,47,179,39,08,33,230,19,1*5F
$GQGSV,1,1,03,02,79,102,37,04,27,184,39,07,47,179,30,6*54
$GQGSV,1,1,01,03,16,154,,0*51
$GNRMC,070404.00,A,3727.0224152,N,12639.1054729,E,0.008,,191125,,,R,V*07
$GNVTG,,T,,M,0.008,N,0.015,K,D*34
$GNGGA,070404.00,3727.0224152,N,12639.1054729,E,4,12,0.53,16.977,M,17.832,M,2.0,4095*50
$GNGSA,A,3,09,31,27,16,04,26,08,28,18,,,,1.00,0.53,0.84,1*08
$GNGSA,A,3,72,84,75,76,85,,,,,,,,1.00,0.53,0.84,2*0E
$GNGSA,A,3,23,33,06,16,05,09,04,31,,,,,1.00,0.53,0.84,3*02
$GNGSA,A,3,39,34,11,06,25,16,09,07,23,,,,1.00,0.53,0.84,4*0B
$GNGSA,A,3,02,,,,,,,,,,,,1.00,0.53,0.84,5*0C
$GPGSV,3,1,12,04,49,279,43,08,20,210,37,09,22,313,36,16,68,314,45,1*69
$GPGSV,3,2,12,18,20,081,36,26,57,046,44,27,49,196,45,28,27,119,41,1*61
$GPGSV,3,3,12,31,56,106,49,41,27,238,40,42,33,230,41,50,47,179,42,1*6C
$GPGSV,2,1,07,04,49,279,37,08,20,210,33,09,22,313,38,26,57,046,35,6*6E
$GPGSV,2,2,07,27,49,196,38,28,27,119,37,31,56,106,33,6*5D
$GPGSV,1,1,02,29,01,037,,40,07,259,,0*64
$GLGSV,2,1,08,65,38,265,44,72,18,207,46,74,33,061,36,75,53,347,47,1*77
$GLGSV,2,2,08,76,17,289,43,84,34,061,41,85,36,125,49,,,,38,1*42
$GLGSV,2,1,06,65,38,265,07,72,18,207,26,75,53,347,35,76,17,289,31,3*78
$GLGSV,2,2,06,84,34,061,36,85,36,125,32,3*7A
$GLGSV,1,1,03,66,23,321,,83,03,019,,86,00,172,,0*41
$GAGSV,3,1,09,04,26,172,42,05,34,308,39,06,47,191,33,09,61,230,45,2*7E
$GAGSV,3,2,09,16,19,257,39,18,66,105,44,23,23,058,40,31,68,016,38,2*7F
$GAGSV,3,3,09,33,15,107,42,2*4B
$GAGSV,3,1,09,04,26,172,36,05,34,308,41,06,47,191,44,09,61,230,47,7*75
$GAGSV,3,2,09,16,19,257,32,18,66,105,47,23,23,058,38,31,68,016,43,7*71
$GAGSV,3,3,09,33,15,107,42,7*4E
$GAGSV,1,1,02,12,00,155,,26,12,059,,0*7F
$GBGSV,2,1,08,09,56,317,43,11,43,088,44,16,75,352,45,23,67,342,48,1*7B
$GBGSV,2,2,08,25,43,079,46,32,28,256,41,34,32,059,44,39,80,041,45,1*71
$GBGSV,2,1,05,06,72,337,37,07,40,208,39,09,56,317,38,11,43,088,43,B*04
$GBGSV,2,2,05,16,75,352,30,B*32
$GBGSV,1,1,01,10,26,214,,0*44
$GQGSV,1,1,03,02,79,102,42,07,47,179,39,08,33,230,18,1*5E
$GQGSV,1,1,03,02,79,102,36,04,27,184,39,07,47,179,30,6*55
$GQGSV,1,1,01,03,16,154,,0*51
$GNRMC,070405.00,A,3727.0224149,N,12639.1054728,E,0.008,,191125,,,R,V*0D
$GNVTG,,T,,M,0.008,N,0.014,K,D*35
$GNGGA,070405.00,3727.0224149,N,12639.1054728,E,4,12,0.53,16.976,M,17.832,M,1.0,4095*58
$GNGSA,A,3,09,31,27,16,04,26,08,28,18,,,,1.00,0.53,0.84,1*08
$GNGSA,A,3,72,84,75,76,85,,,,,,,,1.00,0.53,0.84,2*0E
$GNGSA,A,3,23,33,06,16,05,09,04,31,,,,,1.00,0.53,0.84,3*02
$GNGSA,A,3,39,34,11,06,25,16,09,07,23,,,,1.00,0.53,0.84,4*0B
$GNGSA,A,3,02,,,,,,,,,,,,1.00,0.53,0.84,5*0C
$GPGSV,3,1,12,04,49,279,43,08,20,210,37,09,22,313,36,16,68,314,45,1*69
$GPGSV,3,2,12,18,20,081,35,26,57,046,44,27,49,196,45,28,27,119,41,1*62
$GPGSV,3,3,12,31,56,106,48,41,27,238,40,42,33,230,41,50,47,179,42,1*6D
$GPGSV,2,1,07,04,49,279,37,08,20,210,33,09,22,313,38,26,57,046,35,6*6E
$GPGSV,2,2,07,27,49,196,38,28,27,119,38,31,56,106,33,6*52
$GPGSV,1,1,02,29,01,037,,40,07,259,,0*64
$GLGSV,2,1,08,65,38,265,44,72,18,207,46,74,33,061,37,75,53,347,46,1*77
$GLGSV,2,2,08,76,17,289,44,84,34,061,42,85,36,125,49,,,,37,1*49
$GLGSV,2,1,06,65,38,265,07,72,18,207,28,75,53,347,35,76,17,289,32,3*75
$GLGSV,2,2,06,84,34,061,37,85,36,125,33,3*7A
$GLGSV,1,1,03,66,23,321,,83,03,019,,86,00,172,,0*41
$GAGSV,3,1,09,04,26,172,42,05,34,308,38,06,47,191,32,09,61,230,45,2*7E
$GAGSV,3,2,09,16,19,257,39,18,66,105,44,23,23,058,40,31,68,016,38,2*7F
$GAGSV,3,3,09,33,15,107,41,2*48
$GAGSV,3,1,09,04,26,172,36,05,34,308,41,06,47,191,45,09,61,230,47,7*74
$GAGSV,3,2,09,16,19,257,32,18,66,105,47,23,23,058,38,31,68,016,43,7*71
$GAGSV,3,3,09,33,15,107,42,7*4E
$GAGSV,1,1,02,12,00,155,,26,12,059,,0*7F
$GBGSV,2,1,08,09,56,317,43,11,43,088,44,16,75,352,45,23,67,342,48,1*7B
$GBGSV,2,2,08,25,43,079,46,32,28,256,41,34,32,059,44,39,80,041,45,1*71
$GBGSV,2,1,05,06,72,337,37,07,40,208,39,09,56,317,38,11,43,088,44,B*03
$GBGSV,2,2,05,16,75,352,30,B*32
$GBGSV,1,1,01,10,26,214,,0*44
$GQGSV,1,1,02,02,79,102,42,07,47,179,39,1*6F
$GQGSV,1,1,03,02,79,102,36,04,27,184,39,07,47,179,31,6*54
$GQGSV,1,1,02,03,16,154,,08,33,230,,0*6B
$GNRMC,070406.00,A,3727.0224155,N,12639.1054738,E,0.010,,191125,,,R,V*0B
$GNVTG,,T,,M,0.010,N,0.018,K,D*30
$GNGGA,070406.00,3727.0224155,N,12639.1054738,E,4,12,0.53,16.983,M,17.832,M,2.0,4095*5E
$GNGSA,A,3,09,31,27,16,04,26,08,28,18,,,,1.00,0.53,0.84,1*08
$GNGSA,A,3,72,84,75,76,85,,,,,,,,1.00,0.53,0.84,2*0E
$GNGSA,A,3,23,33,06,16,05,09,04,31,,,,,1.00,0.53,0.84,3*02
$GNGSA,A,3,39,34,11,06,25,16,09,07,23,,,,1.00,0.53,0.84,4*0B
$GNGSA,A,3,02,,,,,,,,,,,,1.00,0.53,0.84,5*0C
$GPGSV,3,1,12,04,49,279,42,08,20,210,36,09,22,313,37,16,68,314,45,1*68
$GPGSV,3,2,12,18,20,081,35,26,57,046,44,27,49,196,45,28,27,119,41,1*62
$GPGSV,3,3,12,31,56,106,49,41,27,238,40,42,33,230,41,50,47,179,42,1*6C
$GPGSV,2,1,07,04,49,279,38,08,20,210,36,09,22,313,40,26,57,046,37,6*69
$GPGSV,2,2,07,27,49,196,40,28,27,119,38,31,56,106,33,6*5D
$GPGSV,1,1,02,29,01,037,,40,07,259,,0*64
$GLGSV,2,1,08,65,38,265,44,72,18,207,45,74,33,061,37,75,53,347,47,1*75
$GLGSV,2,2,08,76,17,289,44,84,34,061,42,85,36,125,49,,,,36,1*48
$GLGSV,2,1,06,65,38,265,07,72,18,207,31,75,53,347,36,76,17,289,32,3*7E
$GLGSV,2,2,06,84,34,061,37,85,36,125,33,3*7A
$GLGSV,1,1,03,66,23,321,,83,03,019,,86,00,172,,0*41
$GAGSV,3,1,09,04,26,172,43,05,34,308,38,06,47,191,32,09,61,230,45,2*7F
$GAGSV,3,2,09,16,19,257,40,18,66,105,44,23,23,058,40,31,68,016,38,2*71
$GAGSV,3,3,09,33,15,107,40,2*49
$GAGSV,3,1,09,04,26,172,36,05,34,308,41,06,47,191,45,09,61,230,48,7*7B
$GAGSV,3,2,09,16,19,257,32,18,66,105,47,23,23,058,38,31,68,016,43,7*71
$GAGSV,3,3,09,33,15,107,42,7*4E
$GAGSV,1,1,02,12,00,155,,26,12,059,,0*7F
$GBGSV,2,1,08,09,56,317,43,11,43,088,44,16,75,352,45,23,67,342,48,1*7B
$GBGSV,2,2,08,25,43,079,46,32,28,256,41,34,32,059,44,39,80,041,45,1*71
$GBGSV,2,1,06,06,72,337,37,07,40,208,39,09,56,317,38,10,26,214,44,B*05
$GBGSV,2,2,06,11,43,088,44,16,75,352,30,B*06
$GQGSV,1,1,02,02,79,102,42,07,47,179,39,1*6F
$GQGSV,1,1,03,02,79,102,38,04,27,184,40,07,47,179,33,6*56
$GQGSV,1,1,02,03,16,154,,08,33,230,,0*6B
$GNRMC,070407.00,A,3727.0224152,N,12639.1054732,E,0.006,,191125,,,R,V*00
$GNVTG,,T,,M,0.006,N,0.011,K,D*3E
$GNGGA,070407.00,3727.0224152,N,12639.1054732,E,4,12,0.53,16.979,M,17.832,M,1.0,4095*54
$GNGSA,A,3,09,31,27,16,04,26,08,28,18,,,,1.00,0.53,0.84,1*08
$GNGSA,A,3,72,84,75,76,85,,,,,,,,1.00,0.53,0.84,2*0E
$GNGSA,A,3,23,33,06,16,05,09,04,31,,,,,1.00,0.53,0.84,3*02
$GNGSA,A,3,39,34,11,06,25,16,09,07,23,,,,1.00,0.53,0.84,4*0B
$GNGSA,A,3,02,,,,,,,,,,,,1.00,0.53,0.84,5*0C
$GPGSV,3,1,12,04,49,279,43,08,20,210,37,09,22,313,37,16,68,314,45,1*68
$GPGSV,3,2,12,18,20,081,36,26,57,046,44,27,49,196,45,28,27,119,41,1*61
$GPGSV,3,3,12,31,56,106,48,41,27,238,40,42,33,230,41,50,47,179,42,1*6D
$GPGSV,2,1,07,04,49,279,38,08,20,210,34,09,22,313,39,26,57,046,36,6*64
$GPGSV,2,2,07,27,49,196,40,28,27,119,38,31,56,106,34,6*5A
$GPGSV,1,1,02,29,01,037,,40,07,259,,0*64
$GLGSV,2,1,08,65,38,265,43,72,18,207,45,74,33,061,36,75,53,347,47,1*73
$GLGSV,2,2,08,76,17,289,44,84,34,061,42,85,36,125,49,,,,36,1*48
$GLGSV,2,1,06,65,38,265,08,72,18,207,32,75,53,347,36,76,17,289,32,3*72
$GLGSV,2,2,06,84,34,061,38,85,36,125,33,3*75
$GLGSV,1,1,03,66,23,321,,83,03,019,,86,00,172,,0*41
$GAGSV,3,1,09,04,26,172,42,05,34,308,39,06,47,191,35,09,61,230,45,2*78
$GAGSV,3,2,09,16,19,257,40,18,66,105,43,23,23,058,38,31,68,016,38,2*79
$GAGSV,3,3,09,33,15,107,41,2*48
$GAGSV,3,1,09,04,26,172,36,05,34,308,41,06,47,191,44,09,61,230,48,7*7A
$GAGSV,3,2,09,16,19,257,32,18,66,105,47,23,23,058,38,31,68,016,43,7*71
$GAGSV,3,3,09,33,15,107,43,7*4F
$GAGSV,1,1,02,12,00,155,,26,12,059,,0*7F
$GBGSV,2,1,08,09,56,317,43,11,43,088,44,16,75,352,46,23,67,342,48,1*78
$GBGSV,2,2,08,25,43,079,46,32,28,256,40,34,32,059,44,39,80,041,45,1*70
$GBGSV,2,1,06,06,72,337,37,07,40,208,40,09,56,317,39,10,26,214,42,B*0C
$GBGSV,2,2,06,11,43,088,45,16,75,352,31,B*06
$GQGSV,1,1,02,02,79,102,42,07,47,179,39,1*6F
$GQGSV,1,1,03,02,79,102,37,04,27,184,40,07,47,179,32,6*58
$GQGSV,1,1,02,03,16,154,,08,33,230,,0*6B
$GNRMC,070408.00,A,3727.0224144,N,12639.1054745,E,0.006,,191125,,,R,V*08
$GNVTG,,T,,M,0.006,N,0.010,K,D*3F
$GNGGA,070408.00,3727.0224144,N,12639.1054745,E,4,12,0.53,16.977,M,17.832,M,2.0,4095*51
$GNGSA,A,3,09,31,27,16,04,26,08,28,18,,,,1.00,0.53,0.84,1*08
$GNGSA,A,3,72,84,75,76,85,,,,,,,,1.00,0.53,0.84,2*0E
$GNGSA,A,3,23,33,06,16,05,09,04,31,,,,,1.00,0.53,0.84,3*02
$GNGSA,A,3,39,34,11,06,25,16,09,07,23,,,,1.00,0.53,0.84,4*0B
$GNGSA,A,3,02,,,,,,,,,,,,1.00,0.53,0.84,5*0C
$GPGSV,3,1,12,04,49,279,43,08,20,210,36,09,22,313,36,16,68,314,44,1*69
$GPGSV,3,2,12,18,20,081,36,26,57,046,44,27,49,196,45,28,27,119,41,1*61
$GPGSV,3,3,12,31,56,106,48,41,27,238,40,42,33,230,41,50,47,179,42,1*6D
$GPGSV,2,1,07,04,49,279,39,08,20,210,33,09,22,313,40,26,57,046,36,6*6C
$GPGSV,2,2,07,27,49,196,40,28,27,119,38,31,56,106,36,6*58
$GPGSV,1,1,02,29,01,037,,40,07,259,,0*64
$GLGSV,2,1,08,65,38,265,43,72,18,207,45,74,33,061,36,75,53,347,46,1*72
$GLGSV,2,2,08,76,17,289,44,84,34,061,42,85,36,125,49,,,,37,1*49
$GLGSV,2,1,06,65,38,265,10,72,18,207,27,75,53,347,36,76,17,289,35,3*78
$GLGSV,2,2,06,84,34,061,40,85,36,125,33,3*7A
$GLGSV,1,1,03,66,23,321,,83,03,019,,86,00,172,,0*41
$GAGSV,3,1,09,04,26,172,42,05,34,308,38,06,47,191,34,09,61,230,45,2*78
$GAGSV,3,2,09,16,19,257,40,18,66,105,43,23,23,058,39,31,68,016,39,2*79
$GAGSV,3,3,09,33,15,107,42,2*4B
$GAGSV,3,1,09,04,26,172,36,05,34,308,41,06,47,191,44,09,61,230,48,7*7A
$GAGSV,3,2,09,16,19,257,32,18,66,105,47,23,23,058,38,31,68,016,43,7*71
$GAGSV,3,3,09,33,15,107,43,7*4F
$GAGSV,1,1,02,12,00,155,,26,12,059,,0*7F
$GBGSV,2,1,08,09,56,317,43,11,43,088,44,16,75,352,46,23,67,342,48,1*78
$GBGSV,2,2,08,25,43,079,46,32,28,256,41,34,32,059,44,39,80,041,45,1*71
$GBGSV,2,1,06,06,72,337,38,07,40,208,40,09,56,317,39,10,26,214,43,B*02
$GBGSV,2,2,06,11,43,088,45,16,75,352,30,B*07
$GQGSV,1,1,02,02,79,102,42,07,47,179,39,1*6F
$GQGSV,1,1,03,02,79,102,37,04,27,184,41,07,47,179,32,6*59
$GQGSV,1,1,02,03,16,154,,08,33,230,,0*6B
$GNRMC,070409.00,A,3727.0224160,N,12639.1054740,E,0.005,,191125,,,R,V*09
$GNVTG,,T,,M,0.005,N,0.010,K,D*3C
$GNGGA,070409.00,3727.0224160,N,12639.1054740,E,4,12,0.53,16.978,M,17.832,M,1.0,4095*5F
$GNGSA,A,3,09,31,27,16,04,26,08,28,18,,,,1.00,0.53,0.84,1*08
$GNGSA,A,3,72,84,75,76,85,,,,,,,,1.00,0.53,0.84,2*0E
$GNGSA,A,3,23,33,06,16,05,09,04,31,,,,,1.00,0.53,0.84,3*02
$GNGSA,A,3,39,34,11,06,25,16,09,07,23,,,,1.00,0.53,0.84,4*0B
$GNGSA,A,3,02,,,,,,,,,,,,1.00,0.53,0.84,5*0C
$GPGSV,3,1,12,04,49,279,43,08,20,210,36,09,22,313,36,16,68,314,45,1*68
$GPGSV,3,2,12,18,20,081,35,26,57,046,44,27,49,196,45,28,27,119,41,1*62
$GPGSV,3,3,12,31,56,106,48,41,27,238,40,42,33,230,41,50,47,179,42,1*6D
$GPGSV,2,1,07,04,49,279,38,08,20,210,33,09,22,313,39,26,57,046,35,6*60
$GPGSV,2,2,07,27,49,196,40,28,27,119,38,31,56,106,35,6*5B
$GPGSV,1,1,02,29,01,037,,40,07,259,,0*64
$GLGSV,2,1,07,65,38,265,43,72,18,207,46,74,33,061,36,75,53,347,46,1*7E
$GLGSV,2,2,07,76,17,289,45,84,34,061,42,85,36,125,49,1*43
$GLGSV,2,1,07,65,38,265,10,72,18,207,31,74,33,061,15,75,53,347,36,3*7C
$GLGSV,2,2,07,76,17,289,33,84,34,061,39,85,36,125,32,3*40
$GLGSV,1,1,03,66,23,321,,83,03,019,,86,00,172,,0*41
$GAGSV,3,1,09,04,26,172,43,05,34,308,38,06,47,191,33,09,61,230,45,2*7E
$GAGSV,3,2,09,16,19,257,41,18,66,105,43,23,23,058,39,31,68,016,38,2*79
$GAGSV,3,3,09,33,15,107,42,2*4B
$GAGSV,3,1,09,04,26,172,36,05,34,308,41,06,47,191,44,09,61,230,48,7*7A
$GAGSV,3,2,09,16,19,257,31,18,66,105,47,23,23,058,38,31,68,016,43,7*72
$GAGSV,3,3,09,33,15,107,43,7*4F
$GAGSV,1,1,02,12,00,155,,26,12,059,,0*7F
$GBGSV,2,1,08,09,56,317,43,11,43,088,44,16,75,352,45,23,67,342,48,1*7B
$GBGSV,2,2,08,25,43,079,46,32,28,256,41,34,32,059,43,39,80,041,45,1*76
$GBGSV,2,1,07,06,72,337,37,07,40,208,39,09,56,317,38,10,26,214,43,B*03
$GBGSV,2,2,07,11,43,088,44,16,75,352,30,32,28,256,18,B*34
$GQGSV,1,1,02,02,79,102,42,07,47,179,39,1*6F
$GQGSV,1,1,03,02,79,102,37,04,27,184,40,07,47,179,31,6*5B
$GQGSV,1,1,02,03,16,154,,08,33,230,,0*6B
$GNRMC,070410.00,A,3727.0224148,N,12639.1054734,E,0.015,,191125,,,R,V*09
$GNVTG,,T,,M,0.015,N,0.027,K,D*39
$GNGGA,070410.00,3727.0224148,N,12639.1054734,E,4,12,0.53,16.974,M,17.832,M,2.0,4095*51
$GNGSA,A,3,09,31,27,16,04,26,08,28,18,,,,1.00,0.53,0.84,1*08
$GNGSA,A,3,72,84,75,76,85,,,,,,,,1.00,0.53,0.84,2*0E
$GNGSA,A,3,23,33,06,16,05,09,04,31,,,,,1.00,0.53,0.84,3*02
$GNGSA,A,3,39,34,11,06,25,16,09,07,23,,,,1.00,0.53,0.84,4*0B
$GNGSA,A,3,02,,,,,,,,,,,,1.00,0.53,0.84,5*0C
$GPGSV,3,1,12,04,49,279,43,08,20,210,36,09,22,313,37,16,68,314,45,1*69
$GPGSV,3,2,12,18,20,081,36,26,57,046,44,27,49,196,45,28,27,119,41,1*61
$GPGSV,3,3,12,31,56,106,48,41,27,238,40,42,33,230,41,50,47,179,42,1*6D
$GPGSV,2,1,07,04,49,279,34,08,20,210,35,09,22,313,37,26,57,046,35,6*64
$GPGSV,2,2,07,27,49,196,36,28,27,119,37,31,56,106,34,6*54
$GPGSV,1,1,02,29,01,037,,40,07,259,,0*64
$GLGSV,2,1,07,65,38,265,43,72,18,207,46,74,33,061,36,75,53,347,47,1*7F
$GLGSV,2,2,07,76,17,289,44,84,34,061,42,85,36,125,50,1*4A
$GLGSV,2,1,07,65,38,265,09,72,18,207,32,74,33,061,12,75,53,347,35,3*73
$GLGSV,2,2,07,76,17,289,31,84,34,061,37,85,36,125,30,3*4E
$GLGSV,1,1,03,66,23,321,,83,03,019,,86,00,172,,0*41
$GAGSV,3,1,09,04,26,172,41,05,34,308,37,06,47,191,34,09,61,230,43,2*72
$GAGSV,3,2,09,16,19,257,39,18,66,105,42,23,23,058,38,31,68,016,38,2*76
$GAGSV,3,3,09,33,15,107,41,2*48
$GAGSV,3,1,09,04,26,172,36,05,34,308,41,06,47,191,45,09,61,230,48,7*7B
$GAGSV,3,2,09,16,19,257,31,18,66,105,47,23,23,058,38,31,68,016,43,7*72
$GAGSV,3,3,09,33,15,107,43,7*4F
$GAGSV,1,1,02,12,00,155,,26,12,059,,0*7F
$GBGSV,2,1,08,09,56,317,43,11,43,088,44,16,75,352,45,23,67,342,48,1*7B
$GBGSV,2,2,08,25,43,079,47,32,28,256,41,34,32,059,44,39,80,041,45,1*70
$GBGSV,2,1,07,06,72,337,36,07,40,208,37,09,56,317,36,10,26,214,43,B*02
$GBGSV,2,2,07,11,43,088,43,16,75,352,30,32,28,256,15,B*3E
$GQGSV,1,1,02,02,79,102,42,07,47,179,39,1*6F
$GQGSV,1,1,03,02,79,102,35,04,27,184,38,07,47,179,31,6*56
$GQGSV,1,1,02,03,16,154,,08,33,230,,0*6B
$GNRMC,070411.00,A,3727.0224165,N,12639.1054758,E,0.004,,191125,,,R,V*0D
$GNVTG,,T,,M,0.004,N,0.008,K,D*34
$GNGGA,070411.00,3727.0224165,N,12639.1054758,E,4,12,0.53,16.976,M,17.832,M,1.0,4095*54
$GNGSA,A,3,09,31,27,16,04,26,08,28,18,,,,1.00,0.53,0.84,1*08
$GNGSA,A,3,72,84,75,76,85,,,,,,,,1.00,0.53,0.84,2*0E
$GNGSA,A,3,23,33,06,16,05,09,04,31,,,,,1.00,0.53,0.84,3*02
$GNGSA,A,3,39,34,11,06,25,16,09,07,23,,,,1.00,0.53,0.84,4*0B
$GNGSA,A,3,02,,,,,,,,,,,,1.00,0.53,0.84,5*0C
$GPGSV,3,1,12,04,49,279,43,08,20,210,36,09,22,313,37,16,68,314,45,1*69
$GPGSV,3,2,12,18,20,081,35,26,57,046,45,27,49,196,45,28,27,119,41,1*63
$GPGSV,3,3,12,31,56,106,48,41,27,238,40,42,33,230,41,50,47,179,42,1*6D
$GPGSV,2,1,07,04,49,279,36,08,20,210,35,09,22,313,38,26,57,046,33,6*6F
$GPGSV,2,2,07,27,49,196,38,28,27,119,37,31,56,106,34,6*5A
$GPGSV,1,1,02,29,01,037,,40,07,259,,0*64
$GLGSV,2,1,07,65,38,265,43,72,18,207,45,74,33,061,35,75,53,347,47,1*7F
$GLGSV,2,2,07,76,17,289,44,84,34,061,42,85,36,125,50,1*4A
$GLGSV,2,1,06,72,18,207,31,74,33,061,09,75,53,347,33,76,17,289,31,3*7B
$GLGSV,2,2,06,84,34,061,37,85,36,125,29,3*71
$GLGSV,1,1,03,66,23,321,,83,03,019,,86,00,172,,0*41
$GAGSV,3,1,09,04,26,172,44,05,34,308,38,06,47,191,33,09,61,230,45,2*79
$GAGSV,3,2,09,16,19,257,40,18,66,105,44,23,23,058,39,31,68,016,39,2*7E
$GAGSV,3,3,09,33,15,107,43,2*4A
$GAGSV,3,1,09,04,26,172,36,05,34,308,41,06,47,191,45,09,61,230,48,7*7B
$GAGSV,3,2,09,16,19,257,32,18,66,105,47,23,23,058,39,31,68,016,43,7*70
$GAGSV,3,3,09,33,15,107,43,7*4F
$GAGSV,1,1,02,12,00,155,,26,12,059,,0*7F
$GBGSV,2,1,08,09,56,317,43,11,43,088,44,16,75,352,45,23,67,342,48,1*7B
$GBGSV,2,2,08,25,43,079,47,32,28,256,42,34,32,059,43,39,80,041,45,1*74
$GBGSV,2,1,07,06,72,337,36,07,40,208,38,09,56,317,37,10,26,214,44,B*0B
$GBGSV,2,2,07,11,43,088,44,16,75,352,29,32,28,256,10,B*34
$GQGSV,1,1,02,02,79,102,42,07,47,179,39,1*6F
$GQGSV,1,1,03,02,79,102,36,04,27,184,39,07,47,179,32,6*57
$GQGSV,1,1,02,03,16,154,,08,33,230,,0*6B
$GNRMC,070412.00,A,3727.0224151,N,12639.1054751,E,0.007,,191125,,,R,V*03
$GNVTG,,T,,M,0.007,N,0.013,K,D*3D
$GNGGA,070412.00,3727.0224151,N,12639.1054751,E,4,12,0.53,16.975,M,17.832,M,2.0,4095*59
$GNGSA,A,3,09,31,27,16,04,26,08,28,18,,,,1.00,0.53,0.84,1*08
$GNGSA,A,3,72,84,75,76,85,,,,,,,,1.00,0.53,0.84,2*0E
$GNGSA,A,3,23,33,06,16,05,09,04,31,,,,,1.00,0.53,0.84,3*02
$GNGSA,A,3,39,34,11,06,25,16,09,07,23,,,,1.00,0.53,0.84,4*0B
$GNGSA,A,3,02,,,,,,,,,,,,1.00,0.53,0.84,5*0C
$GPGSV,3,1,12,04,49,279,43,08,20,210,36,09,22,313,37,16,68,314,45,1*69
$GPGSV,3,2,12,18,20,081,35,26,56,047,45,27,49,196,45,28,27,119,42,1*60
$GPGSV,3,3,12,31,56,106,48,41,27,238,40,42,33,230,41,50,47,179,42,1*6D
$GPGSV,2,1,07,04,49,279,36,08,20,210,33,09,22,313,38,26,56,047,34,6*6E
$GPGSV,2,2,07,27,49,196,39,28,27,119,37,31,56,106,34,6*5B
$GPGSV,1,1,02,29,01,037,,40,07,259,,0*64
$GLGSV,2,1,07,65,38,265,43,72,18,207,46,74,33,061,35,75,53,347,47,1*7C
$GLGSV,2,2,07,76,17,289,44,84,34,061,42,85,36,125,50,1*4A
$GLGSV,2,1,06,72,18,207,31,74,33,061,08,75,53,347,33,76,17,289,33,3*78
$GLGSV,2,2,06,84,34,061,37,85,36,125,28,3*70
$GLGSV,1,1,03,66,23,321,,83,03,019,,86,00,172,,0*41
$GAGSV,3,1,09,04,26,172,43,05,34,308,37,06,47,191,33,09,61,230,45,2*71
$GAGSV,3,2,09,16,19,257,40,18,66,105,44,23,23,058,38,31,68,016,38,2*7E
$GAGSV,3,3,09,33,15,107,42,2*4B
$GAGSV,3,1,09,04,26,172,36,05,34,308,40,06,47,191,44,09,61,230,48,7*7B
$GAGSV,3,2,09,16,19,257,32,18,66,105,47,23,23,058,39,31,68,016,43,7*70
$GAGSV,3,3,09,33,15,107,43,7*4F
$GAGSV,1,1,02,12,00,155,,26,12,059,,0*7F
$GBGSV,2,1,08,09,56,317,43,11,43,088,45,16,75,352,45,23,67,342,48,1*7A
$GBGSV,2,2,08,25,43,079,47,32,28,256,41,34,32,059,44,39,80,041,45,1*70
$GBGSV,2,1,07,06,72,337,37,07,40,208,40,09,56,317,38,10,26,214,44,B*0A
$GBGSV,2,2,07,11,43,088,43,16,75,352,29,32,28,256,08,B*3A
$GQGSV,1,1,02,02,79,102,42,07,47,179,39,1*6F
$GQGSV,1,1,03,02,79,102,36,04,27,184,39,07,47,179,31,6*54
$GQGSV,1,1,02,03,16,154,,08,33,230,,0*6B
$GNRMC,070413.00,A,3727.0224152,N,12639.1054744,E,0.008,,191125,,,R,V*0A
$GNVTG,,T,,M,0.008,N,0.014,K,D*35
$GNGGA,070413.00,3727.0224152,N,12639.1054744,E,4,12,0.53,16.978,M,17.832,M,1.0,4095*51
$GNGSA,A,3,09,31,27,16,04,26,08,28,18,,,,1.00,0.53,0.84,1*08
$GNGSA,A,3,72,84,75,76,85,,,,,,,,1.00,0.53,0.84,2*0E
$GNGSA,A,3,23,33,06,16,05,09,04,31,,,,,1.00,0.53,0.84,3*02
$GNGSA,A,3,39,34,11,06,25,16,09,07,23,,,,1.00,0.53,0.84,4*0B
$GNGSA,A,3,02,,,,,,,,,,,,1.00,0.53,0.84,5*0C
$GPGSV,3,1,12,04,49,279,43,08,20,210,36,09,22,313,37,16,68,314,45,1*69
$GPGSV,3,2,12,18,20,081,35,26,56,047,45,27,50,196,45,28,27,119,42,1*68
$GPGSV,3,3,12,31,56,106,49,41,27,238,40,42,33,230,41,50,47,179,42,1*6C
$GPGSV,2,1,07,04,49,279,36,08,20,210,34,09,22,313,38,26,56,047,34,6*69
$GPGSV,2,2,07,27,50,196,39,28,27,119,36,31,56,106,35,6*53
$GPGSV,1,1,02,29,01,037,,40,07,259,,0*64
$GLGSV,2,1,07,65,38,265,43,72,18,207,46,74,33,061,35,75,53,347,47,1*7C
$GLGSV,2,2,07,76,17,289,44,84,34,061,42,85,36,125,51,1*4B
$GLGSV,2,1,06,72,18,207,32,74,33,061,08,75,53,347,33,76,17,289,36,3*7E
$GLGSV,2,2,06,84,34,061,37,85,36,125,29,3*71
$GLGSV,1,1,03,66,23,321,,83,03,019,,86,00,172,,0*41
$GAGSV,3,1,09,04,26,172,43,05,34,308,38,06,47,191,34,09,61,230,45,2*79
$GAGSV,3,2,09,16,19,257,40,18,66,105,44,23,23,058,37,31,68,016,39,2*70
$GAGSV,3,3,09,33,15,107,43,2*4A
$GAGSV,3,1,09,04,26,172,37,05,34,308,40,06,47,191,44,09,61,230,48,7*7A
$GAGSV,3,2,09,16,19,257,32,18,66,105,47,23,23,058,38,31,68,016,43,7*71
$GAGSV,3,3,09,33,15,107,43,7*4F
$GAGSV,1,1,02,12,00,155,,26,12,059,,0*7F
$GBGSV,2,1,08,09,56,317,43,11,43,088,45,16,75,352,45,23,67,342,48,1*7A
$GBGSV,2,2,08,25,43,079,46,32,28,256,41,34,32,059,44,39,80,041,45,1*71
$GBGSV,2,1,07,06,72,337,37,07,40,208,40,09,56,317,38,10,26,214,44,B*0A
$GBGSV,2,2,07,11,43,088,43,16,75,352,29,32,28,256,08,B*3A
$GQGSV,1,1,02,02,79,102,42,07,47,179,39,1*6F
$GQGSV,1,1,03,02,79,102,37,04,27,184,40,07,47,179,31,6*5B
$GQGSV,1,1,02,03,16,154,,08,33,230,,0*6B
$GNRMC,070414.00,A,3727.0224162,N,12639.1054760,E,0.005,,191125,,,R,V*05
$GNVTG,,T,,M,0.005,N,0.009,K,D*34
$GNGGA,070414.00,3727.0224162,N,12639.1054760,E,4,12,0.53,16.978,M,17.832,M,1.0,4095*53
$GNGSA,A,3,09,31,27,16,04,26,08,28,18,,,,1.00,0.53,0.84,1*08
$GNGSA,A,3,72,84,75,76,85,,,,,,,,1.00,0.53,0.84,2*0E
$GNGSA,A,3,23,33,06,16,05,09,04,31,,,,,1.00,0.53,0.84,3*02
$GNGSA,A,3,39,34,11,06,25,16,09,07,23,,,,1.00,0.53,0.84,4*0B
$GNGSA,A,3,02,,,,,,,,,,,,1.00,0.53,0.84,5*0C
$GPGSV,3,1,12,04,49,279,43,08,20,210,35,09,22,313,36,16,68,314,44,1*6A
$GPGSV,3,2,12,18,20,081,36,26,56,047,45,27,50,196,46,28,26,120,42,1*63
$GPGSV,3,3,12,31,56,106,48,41,27,238,40,42,33,230,41,50,47,179,42,1*6D
$GPGSV,2,1,07,04,49,279,36,08,20,210,33,09,22,313,37,26,56,047,33,6*66
$GPGSV,2,2,07,27,50,196,39,28,26,120,35,31,56,106,35,6*5B
$GPGSV,1,1,02,29,01,037,,40,07,259,,0*64
$GLGSV,2,1,07,65,38,265,43,72,18,207,46,74,33,061,35,75,53,347,47,1*7C
$GLGSV,2,2,07,76,17,289,44,84,34,061,42,85,36,125,50,1*4A
$GLGSV,2,1,06,72,18,207,32,74,33,061,08,75,53,347,34,76,17,289,35,3*7A
$GLGSV,2,2,06,84,34,061,37,85,36,125,31,3*78
$GLGSV,1,1,03,66,23,321,,83,03,019,,86,00,172,,0*41
$GAGSV,3,1,09,04,26,172,42,05,34,308,38,06,47,191,34,09,61,230,45,2*78
$GAGSV,3,2,09,16,19,257,40,18,66,105,44,23,23,058,38,31,68,016,39,2*7F
$GAGSV,3,3,09,33,15,107,41,2*48
$GAGSV,3,1,09,04,26,172,36,05,34,308,40,06,47,191,44,09,61,230,48,7*7B
$GAGSV,3,2,09,16,19,257,32,18,66,105,47,23,23,058,39,31,68,016,42,7*71
$GAGSV,3,3,09,33,15,107,43,7*4F
$GAGSV,1,1,02,12,00,155,,26,12,059,,0*7F
$GBGSV,2,1,08,09,56,317,43,11,43,088,44,16,75,352,45,23,67,342,48,1*7B
$GBGSV,2,2,08,25,43,079,46,32,28,256,41,34,32,059,44,39,80,041,45,1*71
$GBGSV,2,1,07,06,72,337,37,07,40,208,40,09,56,317,36,10,26,214,43,B*03
$GBGSV,2,2,07,11,43,088,44,16,75,352,29,32,28,256,08,B*3D
$GQGSV,1,1,02,02,79,102,42,07,47,179,39,1*6F
$GQGSV,1,1,03,02,79,102,37,04,27,184,40,07,47,179,30,6*5A
$GQGSV,1,1,02,03,16,154,,08,33,230,,0*6B
$GNRMC,070415.00,A,3727.0224163,N,12639.1054751,E,0.010,,191125,,,R,V*03
$GNVTG,,T,,M,0.010,N,0.018,K,D*30
$GNGGA,070415.00,3727.0224163,N,12639.1054751,E,4,12,0.53,16.974,M,17.832,M,1.0,4095*5D
$GNGSA,A,3,09,31,27,16,04,26,08,28,18,,,,1.00,0.53,0.84,1*08
