$GNGGA,070627.00,3727.0359896,N,12639.1141599,E,4,12,0.53,16.942,M,17.832,M,1.0,4095*50
$GNGSA,A,3,08,31,04,09,27,18,26,28,16,,,,1.00,0.53,0.85,1*09
$GNGSA,A,3,75,76,84,72,85,,,,,,,,1.00,0.53,0.85,2*0F
$GNGSA,A,3,33,04,06,23,09,16,05,31,,,,,1.00,0.53,0.85,3*03
$GNGSA,A,3,06,34,11,25,16,10,32,23,39,,,,1.00,0.53,0.85,4*04
$GNGSA,A,3,02,,,,,,,,,,,,1.00,0.53,0.85,5*0D
$GPGSV,3,1,11,04,49,278,44,08,21,211,35,09,23,312,38,16,69,316,47,1*61
$GPGSV,3,2,11,18,20,080,29,26,56,048,45,27,51,197,42,28,26,121,36,1*66
$GPGSV,3,3,11,31,55,109,46,42,33,230,44,50,47,179,41,1*57
$GPGSV,2,1,08,04,49,278,38,08,21,211,32,09,23,312,41,18,20,080,28,6*6B
$GPGSV,2,2,08,26,56,048,34,27,51,197,40,28,26,121,41,31,55,109,37,6*6A
$GPGSV,1,1,03,29,00,037,,40,07,259,,41,27,238,,0*5D
$GLGSV,2,1,08,65,38,264,46,72,17,206,45,74,33,062,36,75,54,348,47,1*72
$GLGSV,2,2,08,76,17,290,33,84,34,059,43,85,37,125,45,,,,39,1*48
$GLGSV,2,1,06,72,17,206,35,75,54,348,32,76,17,290,39,84,34,059,36,3*77
$GLGSV,2,2,06,85,37,125,36,,,,39,3*4C
$GLGSV,1,1,03,66,23,320,,83,02,019,,86,01,172,,0*40
$GAGSV,3,1,09,04,24,172,44,05,35,307,43,06,45,191,43,09,60,229,44,2*74
$GAGSV,3,2,09,16,19,257,38,18,66,104,44,23,22,059,25,31,68,017,41,2*73
$GAGSV,3,3,09,33,15,107,36,2*48
$GAGSV,3,1,09,04,24,172,39,05,35,307,44,06,45,191,43,09,60,229,46,7*7E
$GAGSV,3,2,09,16,19,257,31,18,66,104,44,23,22,059,31,31,68,017,46,7*7D
$GAGSV,3,3,09,33,15,107,33,7*48
$GAGSV,1,1,02,12,01,155,,26,12,058,,0*7F
$GBGSV,2,1,08,09,56,317,42,11,44,087,43,16,75,352,47,23,67,344,49,1*70
$GBGSV,2,2,08,25,42,080,44,32,27,255,42,34,32,058,38,39,80,043,47,1*71
$GBGSV,2,1,06,06,72,337,34,07,40,208,38,10,26,214,36,11,44,087,38,B*02
$GBGSV,2,2,06,16,75,352,29,23,67,344,08,B*02
$GBGSV,1,1,01,12,13,038,,0*4C
$GQGSV,1,1,02,02,79,102,46,07,47,179,38,1*6A
$GQGSV,1,1,03,02,79,102,41,04,26,184,32,07,47,179,31,6*5E
$GQGSV,1,1,02,03,17,154,,08,33,230,,0*6A
$GNRMC,070628.00,A,3727.0359901,N,12639.1141602,E,0.005,,191125,,,R,V*0E
$GNVTG,,T,,M,0.005,N,0.009,K,D*34
$GNGGA,070628.00,3727.0359901,N,12639.1141602,E,4,12,0.53,16.941,M,17.832,M,1.0,4095*52
$GNGSA,A,3,08,31,04,09,27,18,26,28,16,,,,1.00,0.53,0.85,1*09
$GNGSA,A,3,75,76,84,72,85,,,,,,,,1.00,0.53,0.85,2*0F
$GNGSA,A,3,33,04,06,23,09,16,05,31,,,,,1.00,0.53,0.85,3*03
$GNGSA,A,3,06,34,11,25,16,10,32,23,39,,,,1.00,0.53,0.85,4*04
$GNGSA,A,3,02,,,,,,,,,,,,1.00,0.53,0.85,5*0D
$GPGSV,3,1,11,04,49,278,44,08,21,211,36,09,23,312,38,16,69,316,47,1*62
$GPGSV,3,2,11,18,20,080,30,26,56,048,45,27,51,197,42,28,26,121,34,1*6C
$GPGSV,3,3,11,31,55,109,46,42,33,230,44,50,47,179,41,1*57
$GPGSV,2,1,08,04,49,278,39,08,21,211,32,09,23,312,41,18,20,080,28,6*6A
$GPGSV,2,2,08,26,56,048,35,27,51,197,40,28,26,121,40,31,55,109,37,6*6A
$GPGSV,1,1,03,29,00,037,,40,07,259,,41,27,238,,0*5D
$GLGSV,2,1,08,65,38,264,46,72,17,206,45,74,33,062,37,75,54,348,48,1*7C
$GLGSV,2,2,08,76,17,290,34,84,34,059,43,85,37,125,46,,,,39,1*4C
$GLGSV,2,1,06,72,17,206,36,75,54,348,36,76,17,290,40,84,34,059,36,3*7E
$GLGSV,2,2,06,85,37,125,37,,,,40,3*43
$GLGSV,1,1,03,66,23,320,,83,02,019,,86,01,172,,0*40
$GAGSV,3,1,09,04,24,172,43,05,35,307,42,06,45,191,44,09,60,229,43,2*72
$GAGSV,3,2,09,16,19,257,39,18,66,104,44,23,22,059,23,31,68,017,39,2*7B
$GAGSV,3,3,09,33,15,107,36,2*48
$GAGSV,3,1,09,04,24,172,39,05,35,307,44,06,45,191,43,09,60,229,47,7*7F
$GAGSV,3,2,09,16,19,257,31,18,66,104,44,23,22,059,31,31,68,017,46,7*7D
$GAGSV,3,3,09,33,15,107,33,7*48
$GAGSV,1,1,02,12,01,155,,26,12,058,,0*7F
$GBGSV,2,1,08,09,56,317,42,11,44,087,43,16,75,352,47,23,67,344,49,1*70
$GBGSV,2,2,08,25,42,080,45,32,27,255,42,34,32,058,38,39,80,043,47,1*70
$GBGSV,2,1,05,06,72,337,35,07,40,208,39,10,26,214,37,11,44,087,39,B*01
$GBGSV,2,2,05,16,75,352,29,B*3A
$GBGSV,1,1,01,12,13,038,,0*4C
$GQGSV,1,1,02,02,79,102,46,07,47,179,38,1*6A
$GQGSV,1,1,03,02,79,102,42,04,26,184,33,07,47,179,31,6*5C
$GQGSV,1,1,02,03,17,154,,08,33,230,,0*6A
$GNRMC,070629.00,A,3727.0359904,N,12639.1141585,E,0.006,,191125,,,R,V*05
$GNVTG,,T,,M,0.006,N,0.011,K,D*3E
$GNGGA,070629.00,3727.0359904,N,12639.1141585,E,4,12,0.53,16.945,M,17.832,M,1.0,4095*5E
$GNGSA,A,3,08,31,04,09,27,18,26,28,16,,,,1.00,0.53,0.85,1*09
$GNGSA,A,3,75,76,84,72,85,,,,,,,,1.00,0.53,0.85,2*0F
$GNGSA,A,3,33,04,06,23,09,16,05,31,,,,,1.00,0.53,0.85,3*03
$GNGSA,A,3,06,34,11,25,16,10,32,23,39,,,,1.00,0.53,0.85,4*04
$GNGSA,A,3,02,,,,,,,,,,,,1.00,0.53,0.85,5*0D
$GPGSV,3,1,11,04,49,278,44,08,21,211,35,09,23,312,39,16,69,316,46,1*61
$GPGSV,3,2,11,18,20,080,29,26,56,048,45,27,51,197,42,28,26,121,36,1*66
$GPGSV,3,3,11,31,55,109,47,42,33,230,44,50,47,179,41,1*56
$GPGSV,2,1,08,04,49,278,41,08,21,211,34,09,23,312,43,18,20,080,28,6*61
$GPGSV,2,2,08,26,56,048,34,27,51,197,42,28,26,121,41,31,55,109,40,6*68
$GPGSV,1,1,03,29,00,037,,40,07,259,,41,27,238,,0*5D
$GLGSV,2,1,08,65,38,264,46,72,17,206,45,74,33,062,37,75,54,348,47,1*73
$GLGSV,2,2,08,76,17,290,33,84,34,059,43,85,37,125,46,,,,37,1*45
$GLGSV,2,1,08,65,38,264,18,72,17,206,40,74,33,062,18,75,54,348,38,3*7A
$GLGSV,2,2,08,76,17,290,42,84,34,059,39,85,37,125,40,,,,43,3*49
$GLGSV,1,1,03,66,23,320,,83,02,019,,86,01,172,,0*40
$GAGSV,3,1,09,04,24,172,45,05,35,307,43,06,45,191,44,09,59,228,44,2*79
$GAGSV,3,2,09,16,19,257,39,18,66,104,45,23,22,059,24,31,68,017,40,2*73
$GAGSV,3,3,09,33,15,107,37,2*49
$GAGSV,3,1,09,04,24,172,39,05,35,307,44,06,45,191,43,09,59,228,47,7*74
$GAGSV,3,2,09,16,19,257,32,18,66,104,44,23,22,059,31,31,68,017,46,7*7E
$GAGSV,3,3,09,33,15,107,34,7*4F
$GAGSV,1,1,02,12,01,155,,26,12,058,,0*7F
$GBGSV,2,1,08,09,56,317,42,11,44,087,43,16,75,352,47,23,67,344,49,1*70
$GBGSV,2,2,08,25,42,080,44,32,27,255,40,34,32,058,39,39,80,043,47,1*72
$GBGSV,2,1,06,06,72,337,36,07,40,208,41,10,26,214,36,11,44,087,42,B*03
$GBGSV,2,2,06,16,75,352,28,34,32,058,14,B*06
$GBGSV,1,1,01,12,13,038,,0*4C
$GQGSV,1,1,02,02,79,102,46,07,47,179,38,1*6A
$GQGSV,1,1,03,02,79,102,43,04,26,184,34,07,47,179,33,6*58
$GQGSV,1,1,02,03,17,154,,08,33,230,,0*6A
$GNRMC,070630.00,A,3727.0359902,N,12639.1141585,E,0.018,,191125,,,R,V*04
$GNVTG,,T,,M,0.018,N,0.034,K,D*36
$GNGGA,070630.00,3727.0359902,N,12639.1141585,E,4,12,0.53,16.947,M,17.832,M,1.0,4095*52
$GNGSA,A,3,08,31,04,09,27,18,26,28,16,,,,1.00,0.53,0.85,1*09
$GNGSA,A,3,75,76,84,72,85,,,,,,,,1.00,0.53,0.85,2*0F
$GNGSA,A,3,33,04,06,23,09,16,05,31,,,,,1.00,0.53,0.85,3*03
$GNGSA,A,3,06,34,11,25,16,10,32,23,39,,,,1.00,0.53,0.85,4*04
$GNGSA,A,3,02,,,,,,,,,,,,1.00,0.53,0.85,5*0D
$GPGSV,3,1,11,04,49,278,44,08,21,211,34,09,23,312,39,16,69,316,46,1*60
$GPGSV,3,2,11,18,20,080,29,26,56,048,45,27,51,197,42,28,26,121,34,1*64
$GPGSV,3,3,11,31,55,109,47,42,33,230,44,50,47,179,41,1*56
$GPGSV,1,1,01,16,69,316,15,5*59
$GPGSV,2,1,08,04,49,278,39,08,21,211,33,09,23,312,41,18,20,080,27,6*64
$GPGSV,2,2,08,26,56,048,34,27,51,197,41,28,26,121,41,31,55,109,39,6*65
$GPGSV,1,1,03,29,00,037,,40,07,259,,41,27,238,,0*5D
$GLGSV,2,1,08,65,38,264,46,72,17,206,46,74,33,062,38,75,54,348,47,1*7F
$GLGSV,2,2,08,76,17,290,31,84,34,059,43,85,37,125,45,,,,38,1*4B
$GLGSV,2,1,08,65,38,264,15,72,17,206,39,74,33,062,15,75,54,348,36,3*7A
$GLGSV,2,2,08,76,17,290,41,84,34,059,38,85,37,125,39,,,,41,3*47
$GLGSV,1,1,03,66,23,320,,83,02,019,,86,01,172,,0*40
$GAGSV,3,1,09,04,24,172,44,05,35,307,42,06,45,191,43,09,59,228,43,2*79
$GAGSV,3,2,09,16,19,257,38,18,66,104,44,23,22,059,25,31,68,017,39,2*7C
$GAGSV,3,3,09,33,15,107,36,2*48
$GAGSV,3,1,09,04,24,172,38,05,35,307,44,06,45,191,43,09,59,228,47,7*75
$GAGSV,3,2,09,16,19,257,31,18,66,104,44,23,22,059,31,31,68,017,46,7*7D
$GAGSV,3,3,09,33,15,107,33,7*48
$GAGSV,1,1,02,12,01,155,,26,12,058,,0*7F
$GBGSV,2,1,08,09,56,317,43,11,44,087,43,16,75,352,48,23,67,344,49,1*7E
$GBGSV,2,2,08,25,42,080,43,32,27,255,42,34,32,058,39,39,80,043,47,1*77
$GBGSV,2,1,07,06,72,337,35,07,40,208,38,10,26,214,36,11,44,087,41,B*0C
$GBGSV,2,2,07,16,75,352,28,34,32,058,10,39,80,043,11,B*36
$GBGSV,1,1,01,12,13,038,,0*4C
$GQGSV,1,1,02,02,79,102,46,07,47,179,38,1*6A
$GQGSV,1,1,03,02,79,102,42,04,26,184,34,07,47,179,33,6*59
$GQGSV,1,1,02,03,17,154,,08,33,230,,0*6A
$GNRMC,070631.00,A,3727.0359909,N,12639.1141587,E,0.014,,191125,,,R,V*00
$GNVTG,,T,,M,0.014,N,0.027,K,D*38
$GNGGA,070631.00,3727.0359909,N,12639.1141587,E,4,12,0.53,16.943,M,17.832,M,1.0,4095*5E
$GNGSA,A,3,08,31,04,09,27,18,26,28,16,,,,1.00,0.53,0.85,1*09
$GNGSA,A,3,75,76,84,72,85,,,,,,,,1.00,0.53,0.85,2*0F
$GNGSA,A,3,33,04,06,23,09,16,05,31,,,,,1.00,0.53,0.85,3*03
$GNGSA,A,3,06,34,11,25,16,10,32,23,39,,,,1.00,0.53,0.85,4*04
$GNGSA,A,3,02,,,,,,,,,,,,1.00,0.53,0.85,5*0D
$GPGSV,3,1,11,04,49,278,44,08,21,211,34,09,23,312,39,16,69,316,46,1*60
$GPGSV,3,2,11,18,20,080,30,26,56,048,45,27,51,197,42,28,26,121,35,1*6D
$GPGSV,3,3,11,31,55,109,47,42,33,230,44,50,47,179,41,1*56
$GPGSV,3,1,09,04,49,278,39,08,21,211,36,09,23,312,41,16,69,316,13,6*69
$GPGSV,3,2,09,18,20,080,28,26,56,048,35,27,51,197,41,28,26,121,41,6*6D
$GPGSV,3,3,09,31,55,109,38,6*5B
$GPGSV,1,1,03,29,00,037,,40,07,259,,41,27,238,,0*5D
$GLGSV,2,1,08,65,38,264,46,72,17,206,46,74,33,062,37,75,54,348,47,1*70
$GLGSV,2,2,08,76,17,290,35,84,34,059,43,85,37,125,45,,,,34,1*43
$GLGSV,2,1,08,65,38,264,13,72,17,206,39,74,33,062,10,75,54,348,36,3*79
$GLGSV,2,2,08,76,17,290,42,84,34,059,38,85,37,125,40,,,,41,3*4A
$GLGSV,1,1,03,66,23,320,,83,02,019,,86,01,172,,0*40
$GAGSV,3,1,09,04,24,172,44,05,35,307,42,06,45,191,43,09,59,228,43,2*79
$GAGSV,3,2,09,16,19,257,38,18,66,104,44,23,22,059,23,31,68,017,40,2*74
$GAGSV,3,3,09,33,15,107,36,2*48
$GAGSV,3,1,09,04,24,172,38,05,35,307,44,06,45,191,44,09,59,228,47,7*72
$GAGSV,3,2,09,16,19,257,31,18,66,104,44,23,22,059,32,31,68,017,46,7*7E
$GAGSV,3,3,09,33,15,107,34,7*4F
$GAGSV,1,1,02,12,01,155,,26,12,058,,0*7F
$GBGSV,2,1,08,09,56,317,43,11,44,087,43,16,75,352,48,23,67,344,49,1*7E
$GBGSV,2,2,08,25,42,080,44,32,27,255,42,34,32,058,39,39,80,043,47,1*70
$GBGSV,2,1,07,06,72,337,35,07,40,208,39,10,26,214,36,11,44,087,41,B*0D
$GBGSV,2,2,07,16,75,352,28,34,32,058,08,39,80,043,09,B*36
$GBGSV,1,1,01,12,13,038,,0*4C
$GQGSV,1,1,02,02,79,102,46,07,47,179,38,1*6A
$GQGSV,1,1,03,02,79,102,42,04,26,184,34,07,47,179,31,6*5B
$GQGSV,1,1,02,03,17,154,,08,33,230,,0*6A
$GNRMC,070632.00,A,3727.0359894,N,12639.1141608,E,0.013,,191125,,,R,V*05
$GNVTG,,T,,M,0.013,N,0.024,K,D*3C
$GNGGA,070632.00,3727.0359894,N,12639.1141608,E,4,12,0.53,16.937,M,17.832,M,1.0,4095*5F
$GNGSA,A,3,08,31,04,09,27,18,26,28,16,,,,1.00,0.53,0.85,1*09
$GNGSA,A,3,75,76,84,72,85,,,,,,,,1.00,0.53,0.85,2*0F
$GNGSA,A,3,33,04,06,23,09,16,05,31,,,,,1.00,0.53,0.85,3*03
$GNGSA,A,3,06,34,11,25,16,10,32,23,39,,,,1.00,0.53,0.85,4*04
$GNGSA,A,3,02,,,,,,,,,,,,1.00,0.53,0.85,5*0D
$GPGSV,3,1,11,04,49,278,44,08,21,211,35,09,23,312,39,16,69,316,46,1*61
$GPGSV,3,2,11,18,20,080,29,26,56,048,45,27,51,197,42,28,26,121,34,1*64
$GPGSV,3,3,11,31,55,109,46,42,33,230,44,50,47,179,41,1*57
$GPGSV,3,1,09,04,49,278,38,08,21,211,36,09,23,312,41,16,69,316,11,6*6A
$GPGSV,3,2,09,18,20,080,29,26,56,048,35,27,51,197,41,28,26,121,41,6*6C
$GPGSV,3,3,09,31,55,109,38,6*5B
$GPGSV,1,1,03,29,00,037,,40,07,259,,41,27,238,,0*5D
$GLGSV,2,1,08,65,38,264,46,72,17,206,46,74,33,062,37,75,54,348,46,1*71
$GLGSV,2,2,08,76,17,290,31,84,34,059,42,85,37,125,46,,,,37,1*46
$GLGSV,2,1,08,65,38,264,10,72,17,206,38,74,33,062,11,75,54,348,34,3*78
$GLGSV,2,2,08,76,17,290,41,84,34,059,37,85,37,125,40,,,,41,3*46
$GLGSV,1,1,03,66,23,320,,83,02,019,,86,01,172,,0*40
$GAGSV,3,1,09,04,24,172,44,05,35,307,42,06,45,191,43,09,59,228,43,2*79
$GAGSV,3,2,09,16,19,257,38,18,66,104,44,23,22,059,22,31,68,017,40,2*75
$GAGSV,3,3,09,33,15,107,36,2*48
$GAGSV,3,1,09,04,24,172,37,05,35,307,44,06,45,191,43,09,59,228,47,7*7A
$GAGSV,3,2,09,16,19,257,30,18,66,104,44,23,22,059,32,31,68,017,46,7*7F
$GAGSV,3,3,09,33,15,107,33,7*48
$GAGSV,1,1,02,12,01,155,,26,12,058,,0*7F
$GBGSV,2,1,08,09,56,317,43,11,44,087,43,16,75,352,47,23,67,344,49,1*71
$GBGSV,2,2,08,25,42,080,44,32,27,255,42,34,32,058,39,39,80,043,47,1*70
$GBGSV,2,1,07,06,72,337,35,07,40,208,39,10,26,214,36,11,44,087,41,B*0D
$GBGSV,2,2,07,16,75,352,29,34,32,058,07,39,80,043,09,B*38
$GBGSV,1,1,01,12,13,038,,0*4C
$GQGSV,1,1,02,02,79,102,46,07,47,179,38,1*6A
$GQGSV,1,1,03,02,79,102,42,04,26,184,35,07,47,179,30,6*5B
$GQGSV,1,1,02,03,17,154,,08,33,230,,0*6A
$GNRMC,070633.00,A,3727.0359890,N,12639.1141604,E,0.001,,191125,,,R,V*0F
$GNVTG,,T,,M,0.001,N,0.002,K,D*3B
$GNGGA,070633.00,3727.0359890,N,12639.1141604,E,4,12,0.53,16.938,M,17.832,M,1.0,4095*59
$GNGSA,A,3,08,31,04,09,27,18,26,28,16,,,,1.00,0.53,0.85,1*09
$GNGSA,A,3,75,76,84,72,85,,,,,,,,1.00,0.53,0.85,2*0F
$GNGSA,A,3,33,04,06,23,09,16,05,31,,,,,1.00,0.53,0.85,3*03
$GNGSA,A,3,06,34,11,25,16,10,32,23,39,,,,1.00,0.53,0.85,4*04
$GNGSA,A,3,02,,,,,,,,,,,,1.00,0.53,0.85,5*0D
$GPGSV,3,1,11,04,49,278,44,08,21,211,35,09,23,312,39,16,69,316,46,1*61
$GPGSV,3,2,11,18,20,080,29,26,56,048,45,27,51,197,41,28,26,121,35,1*66
$GPGSV,3,3,11,31,55,109,46,42,33,230,44,50,47,179,41,1*57
$GPGSV,2,1,08,04,49,278,38,08,21,211,36,09,23,312,41,18,20,080,30,6*66
$GPGSV,2,2,08,26,56,048,35,27,51,197,40,28,26,121,41,31,55,109,37,6*6B
$GPGSV,1,1,03,29,00,037,,40,07,259,,41,27,238,,0*5D
$GLGSV,2,1,08,65,38,264,46,72,17,206,46,74,33,062,37,75,54,348,47,1*70
$GLGSV,2,2,08,76,17,290,31,84,34,059,43,85,37,125,47,,,,34,1*45
$GLGSV,2,1,08,65,38,264,10,72,17,206,38,74,33,062,09,75,54,348,35,3*70
$GLGSV,2,2,08,76,17,290,41,84,34,059,36,85,37,125,39,,,,38,3*47
$GLGSV,1,1,03,66,23,320,,83,02,019,,86,01,172,,0*40
$GAGSV,3,1,09,04,24,172,44,05,35,307,43,06,45,191,43,09,59,228,43,2*78
$GAGSV,3,2,09,16,19,257,38,18,66,104,44,23,22,059,21,31,68,017,38,2*79
$GAGSV,3,3,09,33,15,107,37,2*49
$GAGSV,3,1,09,04,24,172,37,05,35,307,44,06,45,191,43,09,59,228,46,7*7B
$GAGSV,3,2,09,16,19,257,29,18,66,104,44,23,22,059,32,31,68,017,46,7*77
$GAGSV,3,3,09,33,15,107,34,7*4F
$GAGSV,1,1,02,12,01,155,,26,12,058,,0*7F
$GBGSV,2,1,08,09,56,317,42,11,44,087,43,16,75,352,47,23,67,344,49,1*70
$GBGSV,2,2,08,25,42,080,44,32,27,255,42,34,32,058,39,39,80,043,47,1*70
$GBGSV,2,1,07,06,72,337,33,07,40,208,40,10,26,214,36,11,44,087,42,B*06
$GBGSV,2,2,07,16,75,352,28,34,32,058,08,39,80,043,09,B*36
$GBGSV,1,1,01,12,13,038,,0*4C
$GQGSV,1,1,02,02,79,102,46,07,47,179,38,1*6A
$GQGSV,1,1,03,02,79,102,42,04,26,184,35,07,47,179,30,6*5B
$GQGSV,1,1,02,03,17,154,,08,33,230,,0*6A
$GNRMC,070634.00,A,3727.0359897,N,12639.1141607,E,0.011,,191125,,,R,V*0D
$GNVTG,,T,,M,0.011,N,0.021,K,D*3B
$GNGGA,070634.00,3727.0359897,N,12639.1141607,E,4,12,0.53,16.937,M,17.832,M,1.0,4095*55
$GNGSA,A,3,08,31,04,09,27,18,26,28,16,,,,1.00,0.53,0.85,1*09
$GNGSA,A,3,75,76,84,72,85,,,,,,,,1.00,0.53,0.85,2*0F
$GNGSA,A,3,33,04,06,23,09,16,05,31,,,,,1.00,0.53,0.85,3*03
$GNGSA,A,3,06,34,11,25,16,10,32,23,39,,,,1.00,0.53,0.85,4*04
$GNGSA,A,3,02,,,,,,,,,,,,1.00,0.53,0.85,5*0D
$GPGSV,3,1,11,04,49,278,44,08,21,211,35,09,23,312,39,16,69,316,46,1*61
$GPGSV,3,2,11,18,20,080,29,26,56,048,45,27,51,197,41,28,26,121,34,1*67
$GPGSV,3,3,11,31,55,109,46,42,33,230,44,50,47,179,42,1*54
$GPGSV,2,1,08,04,49,278,39,08,21,211,35,09,23,312,41,18,20,080,30,6*64
$GPGSV,2,2,08,26,56,048,36,27,51,197,40,28,26,121,41,31,55,109,36,6*69
$GPGSV,1,1,03,29,00,037,,40,07,259,,41,27,238,,0*5D
$GLGSV,2,1,08,65,38,264,46,72,17,206,46,74,33,062,37,75,54,348,47,1*70
$GLGSV,2,2,08,76,17,290,35,84,34,059,43,85,37,125,47,,,,37,1*42
$GLGSV,2,1,08,65,38,264,11,72,17,206,38,74,33,062,08,75,54,348,35,3*70
$GLGSV,2,2,08,76,17,290,41,84,34,059,36,85,37,125,40,,,,38,3*49
$GLGSV,1,1,03,66,23,320,,83,02,019,,86,01,172,,0*40
$GAGSV,3,1,09,04,24,172,45,05,35,307,42,06,45,191,44,09,59,228,43,2*7F
$GAGSV,3,2,09,16,19,257,38,18,66,104,44,23,22,059,21,31,68,017,38,2*79
$GAGSV,3,3,09,33,15,107,37,2*49
$GAGSV,3,1,09,04,24,172,37,05,35,307,44,06,45,191,42,09,59,228,46,7*7A
$GAGSV,3,2,09,16,19,257,29,18,66,104,44,23,22,059,32,31,68,017,46,7*77
$GAGSV,3,3,09,33,15,107,34,7*4F
$GAGSV,1,1,02,12,01,155,,26,12,058,,0*7F
$GBGSV,2,1,08,09,56,317,43,11,44,087,43,16,75,352,47,23,67,344,49,1*71
$GBGSV,2,2,08,25,42,080,44,32,27,255,40,34,32,058,39,39,80,043,47,1*72
$GBGSV,2,1,07,06,72,337,33,07,40,208,39,10,26,214,36,11,44,087,42,B*08
$GBGSV,2,2,07,16,75,352,27,34,32,058,07,39,80,043,08,B*37
$GBGSV,1,1,01,12,13,038,,0*4C
$GQGSV,1,1,02,02,79,102,46,07,47,179,38,1*6A
$GQGSV,1,1,03,02,79,102,42,04,26,184,34,07,47,179,33,6*59
$GQGSV,1,1,02,03,17,154,,08,33,230,,0*6A
$GNRMC,070635.00,A,3727.0359918,N,12639.1141591,E,0.010,,191125,,,R,V*07
$GNVTG,,T,,M,0.010,N,0.018,K,D*30
$GNGGA,070635.00,3727.0359918,N,12639.1141591,E,4,12,0.53,16.928,M,17.832,M,1.0,4095*50
$GNGSA,A,3,08,31,04,09,27,18,26,28,16,,,,1.00,0.53,0.85,1*09
$GNGSA,A,3,75,76,84,72,85,,,,,,,,1.00,0.53,0.85,2*0F
$GNGSA,A,3,33,04,06,23,09,16,05,31,,,,,1.00,0.53,0.85,3*03
$GNGSA,A,3,06,34,11,25,16,10,32,23,39,,,,1.00,0.53,0.85,4*04
$GNGSA,A,3,02,,,,,,,,,,,,1.00,0.53,0.85,5*0D
$GPGSV,3,1,11,04,49,278,44,08,21,211,35,09,23,312,39,16,69,316,46,1*61
$GPGSV,3,2,11,18,20,080,30,26,56,048,45,27,51,197,42,28,26,121,34,1*6C
$GPGSV,3,3,11,31,55,109,46,42,33,230,44,50,47,179,42,1*54
$GPGSV,2,1,08,04,49,278,40,08,21,211,35,09,23,312,41,18,20,080,30,6*6A
$GPGSV,2,2,08,26,56,048,35,27,51,197,40,28,26,121,40,31,55,109,37,6*6A
$GPGSV,1,1,03,29,00,037,,40,07,259,,41,27,238,,0*5D
$GLGSV,2,1,08,65,38,264,47,72,17,206,46,74,33,062,37,75,54,348,47,1*71
$GLGSV,2,2,08,76,17,290,35,84,34,059,43,85,37,125,47,,,,34,1*41
$GLGSV,2,1,08,65,38,264,10,72,17,206,37,74,33,062,08,75,54,348,36,3*7D
$GLGSV,2,2,08,76,17,290,41,84,34,059,36,85,37,125,40,,,,38,3*49
$GLGSV,1,1,03,66,23,320,,83,02,019,,86,01,172,,0*40
$GAGSV,3,1,09,04,24,172,45,05,35,307,42,06,45,191,44,09,59,228,43,2*7F
$GAGSV,3,2,09,16,20,258,38,18,66,104,44,23,22,059,22,31,68,017,39,2*7E
$GAGSV,3,3,09,33,15,107,37,2*49
$GAGSV,3,1,09,04,24,172,38,05,35,307,44,06,45,191,43,09,59,228,46,7*74
$GAGSV,3,2,09,16,20,258,28,18,66,104,44,23,22,059,32,31,68,017,46,7*73
$GAGSV,3,3,09,33,15,107,33,7*48
$GAGSV,1,1,02,12,01,155,,26,12,058,,0*7F
$GBGSV,2,1,08,09,56,317,42,11,44,087,43,16,75,352,47,23,67,344,49,1*70
$GBGSV,2,2,08,25,42,080,44,32,27,255,41,34,32,058,39,39,80,043,47,1*73
$GBGSV,2,1,08,06,72,337,32,07,40,208,39,09,56,317,39,10,26,214,36,B*0A
$GBGSV,2,2,08,11,44,087,42,16,75,352,26,34,32,058,07,39,80,043,08,B*00
$GBGSV,1,1,01,12,13,038,,0*4C
$GQGSV,1,1,02,02,79,102,46,07,47,179,39,1*6B
$GQGSV,1,1,03,02,79,102,42,04,26,184,34,07,47,179,32,6*58
$GQGSV,1,1,02,03,17,154,,08,33,230,,0*6A
$GNRMC,070636.00,A,3727.0359918,N,12639.1141590,E,0.010,,191125,,,R,V*05
$GNVTG,,T,,M,0.010,N,0.018,K,D*30
$GNGGA,070636.00,3727.0359918,N,12639.1141590,E,4,12,0.53,16.931,M,17.832,M,1.0,4095*5A
$GNGSA,A,3,08,31,04,09,27,18,26,28,16,,,,1.00,0.53,0.85,1*09
$GNGSA,A,3,75,76,84,72,85,,,,,,,,1.00,0.53,0.85,2*0F
$GNGSA,A,3,33,04,06,23,09,16,05,31,,,,,1.00,0.53,0.85,3*03
$GNGSA,A,3,06,34,11,25,16,10,32,23,39,,,,1.00,0.53,0.85,4*04
$GNGSA,A,3,02,,,,,,,,,,,,1.00,0.53,0.85,5*0D
$GPGSV,3,1,11,04,49,278,44,08,21,211,36,09,23,312,39,16,69,316,46,1*62
$GPGSV,3,2,11,18,20,080,30,26,56,048,45,27,51,197,41,28,26,121,34,1*6F
$GPGSV,3,3,11,31,55,109,46,42,33,230,44,50,47,179,42,1*54
$GPGSV,2,1,08,04,49,278,40,08,21,211,35,09,23,312,42,18,20,080,30,6*69
$GPGSV,2,2,08,26,56,048,35,27,51,197,40,28,26,121,40,31,55,109,36,6*6B
$GPGSV,1,1,03,29,00,037,,40,07,259,,41,27,238,,0*5D
$GLGSV,2,1,08,65,38,264,46,72,17,206,45,74,33,062,37,75,54,348,47,1*73
$GLGSV,2,2,08,76,17,290,35,84,34,059,43,85,37,125,47,,,,37,1*42
$GLGSV,2,1,08,65,38,264,08,72,17,206,38,74,33,062,07,75,54,348,36,3*74
$GLGSV,2,2,08,76,17,290,41,84,34,059,37,85,37,125,40,,,,37,3*47
$GLGSV,1,1,03,66,23,320,,83,02,019,,86,01,172,,0*40
$GAGSV,3,1,09,04,24,172,45,05,35,307,43,06,45,191,44,09,59,228,43,2*7E
$GAGSV,3,2,09,16,20,258,38,18,66,102,44,23,22,059,23,31,68,017,39,2*79
$GAGSV,3,3,09,33,15,107,36,2*48
$GAGSV,3,1,09,04,24,172,37,05,35,307,44,06,45,191,43,09,59,228,46,7*7B
$GAGSV,3,2,09,16,20,258,28,18,66,102,44,23,22,059,32,31,68,017,46,7*75
$GAGSV,3,3,09,33,15,107,34,7*4F
$GAGSV,1,1,02,12,01,155,,26,12,058,,0*7F
$GBGSV,2,1,08,09,56,317,42,11,44,087,43,16,75,352,47,23,67,344,49,1*70
$GBGSV,2,2,08,25,42,080,44,32,27,255,41,34,32,058,40,39,80,043,47,1*7D
$GBGSV,2,1,08,06,72,337,32,07,40,208,39,09,56,317,39,10,26,214,36,B*0A
$GBGSV,2,2,08,11,44,087,41,16,75,352,26,34,32,058,07,39,80,043,08,B*03
$GBGSV,1,1,01,12,13,038,,0*4C
$GQGSV,1,1,02,02,79,102,46,07,47,179,38,1*6A
$GQGSV,1,1,03,02,79,102,42,04,26,184,35,07,47,179,33,6*58
$GQGSV,1,1,02,03,17,154,,08,33,230,,0*6A
$GNRMC,070637.00,A,3727.0359906,N,12639.1141598,E,0.008,,191125,,,R,V*0A
$GNVTG,,T,,M,0.008,N,0.014,K,D*35
$GNGGA,070637.00,3727.0359906,N,12639.1141598,E,4,12,0.53,16.934,M,17.832,M,1.0,4095*59
$GNGSA,A,3,08,31,04,09,27,18,26,28,16,,,,1.00,0.53,0.85,1*09
$GNGSA,A,3,75,76,84,72,85,,,,,,,,1.00,0.53,0.85,2*0F
$GNGSA,A,3,33,04,06,23,09,16,05,31,,,,,1.00,0.53,0.85,3*03
$GNGSA,A,3,06,34,11,25,16,10,32,23,39,,,,1.00,0.53,0.85,4*04
$GNGSA,A,3,02,,,,,,,,,,,,1.00,0.53,0.85,5*0D
$GPGSV,3,1,11,04,49,278,44,08,21,211,36,09,23,312,39,16,69,316,46,1*62
$GPGSV,3,2,11,18,20,080,30,26,56,048,45,27,51,197,41,28,26,121,34,1*6F
$GPGSV,3,3,11,31,55,109,46,42,33,230,44,50,47,179,41,1*57
$GPGSV,2,1,08,04,49,278,39,08,21,211,35,09,23,312,41,18,20,080,30,6*64
$GPGSV,2,2,08,26,56,048,36,27,51,197,40,28,26,121,40,31,55,109,37,6*69
$GPGSV,1,1,03,29,00,037,,40,07,259,,41,27,238,,0*5D
$GLGSV,2,1,08,65,38,264,46,72,17,206,45,74,33,062,37,75,54,348,47,1*73
$GLGSV,2,2,08,76,17,290,36,84,34,059,44,85,37,125,47,,,,39,1*48
$GLGSV,2,1,08,65,38,264,08,72,17,206,37,74,33,062,07,75,54,348,35,3*78
$GLGSV,2,2,08,76,17,290,40,84,34,059,37,85,37,125,40,,,,35,3*44
$GLGSV,1,1,03,66,23,320,,83,02,019,,86,01,172,,0*40
$GAGSV,3,1,09,04,24,172,44,05,35,307,42,06,45,191,44,09,59,228,43,2*7E
$GAGSV,3,2,09,16,20,258,39,18,66,102,43,23,22,059,24,31,68,017,38,2*79
$GAGSV,3,3,09,33,15,107,36,2*48
$GAGSV,3,1,09,04,24,172,38,05,35,307,44,06,45,191,43,09,59,228,46,7*74
$GAGSV,3,2,09,16,20,258,28,18,66,102,45,23,22,059,31,31,68,017,46,7*77
$GAGSV,3,3,09,33,15,107,33,7*48
$GAGSV,1,1,02,12,01,155,,26,12,058,,0*7F
$GBGSV,2,1,08,09,56,317,42,11,44,087,43,16,75,352,47,23,67,344,49,1*70
$GBGSV,2,2,08,25,42,080,44,32,27,255,41,34,32,058,39,39,80,043,47,1*73
$GBGSV,2,1,08,06,72,337,30,07,40,208,38,09,56,317,39,10,26,214,36,B*09
$GBGSV,2,2,08,11,44,087,41,16,75,352,27,34,32,058,07,39,80,043,08,B*02
$GBGSV,1,1,01,12,13,038,,0*4C
$GQGSV,1,1,02,02,79,102,46,07,47,179,38,1*6A
$GQGSV,1,1,03,02,79,102,42,04,26,184,34,07,47,179,33,6*59
$GQGSV,1,1,02,03,17,154,,08,33,230,,0*6A
$GNRMC,070638.00,A,3727.0359907,N,12639.1141604,E,0.003,,191125,,,R,V*09
$GNVTG,,T,,M,0.003,N,0.006,K,D*3D
$GNGGA,070638.00,3727.0359907,N,12639.1141604,E,4,12,0.53,16.936,M,17.832,M,1.0,4095*53
$GNGSA,A,3,08,31,04,09,27,18,26,28,16,,,,1.00,0.53,0.85,1*09
$GNGSA,A,3,75,76,84,72,85,,,,,,,,1.00,0.53,0.85,2*0F
$GNGSA,A,3,33,04,06,23,09,16,05,31,,,,,1.00,0.53,0.85,3*03
$GNGSA,A,3,06,34,11,25,16,10,32,23,39,,,,1.00,0.53,0.85,4*04
$GNGSA,A,3,02,,,,,,,,,,,,1.00,0.53,0.85,5*0D
$GPGSV,3,1,11,04,49,278,44,08,21,211,36,09,23,312,39,16,69,316,46,1*62
$GPGSV,3,2,11,18,20,080,30,26,56,048,45,27,51,197,42,28,26,121,34,1*6C
$GPGSV,3,3,11,31,55,109,47,42,33,230,44,50,47,179,41,1*56
$GPGSV,2,1,08,04,49,278,38,08,21,211,35,09,23,312,42,18,20,080,30,6*66
$GPGSV,2,2,08,26,56,048,36,27,51,197,40,28,26,121,40,31,55,109,37,6*69
$GPGSV,1,1,03,29,00,037,,40,07,259,,41,27,238,,0*5D
$GLGSV,2,1,08,65,38,264,46,72,17,206,46,74,33,062,37,75,54,348,47,1*70
$GLGSV,2,2,08,76,17,290,37,84,34,059,43,85,37,125,47,,,,35,1*42
$GLGSV,2,1,08,65,38,264,08,72,17,206,37,74,33,062,08,75,54,348,35,3*77
$GLGSV,2,2,08,76,17,290,40,84,34,059,37,85,37,125,41,,,,35,3*45
$GLGSV,1,1,03,66,23,320,,83,02,019,,86,01,172,,0*40
$GAGSV,3,1,09,04,24,172,45,05,35,307,42,06,45,191,44,09,59,228,43,2*7F
$GAGSV,3,2,09,16,20,258,38,18,66,102,43,23,22,059,23,31,68,017,38,2*7F
$GAGSV,3,3,09,33,15,107,37,2*49
$GAGSV,3,1,09,04,24,172,38,05,35,307,44,06,45,191,43,09,59,228,46,7*74
$GAGSV,3,2,09,16,20,258,29,18,66,102,44,23,22,059,31,31,68,017,46,7*77
$GAGSV,3,3,09,33,15,107,33,7*48
$GAGSV,1,1,02,12,01,155,,26,12,058,,0*7F
$GBGSV,2,1,08,09,56,317,42,11,44,087,43,16,75,352,47,23,67,344,49,1*70
$GBGSV,2,2,08,25,42,080,44,32,27,255,40,34,32,058,39,39,80,043,47,1*72
$GBGSV,2,1,08,06,72,337,31,07,40,208,38,09,56,317,39,10,26,214,36,B*08
$GBGSV,2,2,08,11,44,087,41,16,75,352,26,34,32,058,07,39,80,043,07,B*0C
$GBGSV,1,1,01,12,13,038,,0*4C
$GQGSV,1,1,02,02,79,102,46,07,47,179,38,1*6A
$GQGSV,1,1,03,02,79,102,42,04,26,184,34,07,47,179,32,6*58
$GQGSV,1,1,02,03,17,154,,08,33,230,,0*6A
$GNRMC,070639.00,A,3727.0359881,N,12639.1141610,E,0.012,,191125,,,R,V*02
$GNVTG,,T,,M,0.012,N,0.023,K,D*3A
$GNGGA,070639.00,3727.0359881,N,12639.1141610,E,4,12,0.53,16.939,M,17.832,M,1.0,4095*57
$GNGSA,A,3,08,31,04,09,27,18,26,28,16,,,,1.00,0.53,0.85,1*09
$GNGSA,A,3,75,76,84,72,85,,,,,,,,1.00,0.53,0.85,2*0F
$GNGSA,A,3,33,04,06,23,09,16,05,31,,,,,1.00,0.53,0.85,3*03
$GNGSA,A,3,06,34,11,25,16,10,32,23,39,,,,1.00,0.53,0.85,4*04
$GNGSA,A,3,02,,,,,,,,,,,,1.00,0.53,0.85,5*0D
$GPGSV,3,1,11,04,49,278,44,08,21,211,36,09,23,312,39,16,69,316,46,1*62
$GPGSV,3,2,11,18,20,080,30,26,56,048,45,27,51,197,42,28,26,121,34,1*6C
$GPGSV,3,3,11,31,55,109,47,42,33,230,44,50,47,179,41,1*56
$GPGSV,2,1,08,04,49,278,38,08,21,211,35,09,23,312,41,18,20,080,31,6*64
$GPGSV,2,2,08,26,56,048,35,27,51,197,40,28,26,121,41,31,55,109,37,6*6B
$GPGSV,1,1,03,29,00,037,,40,07,259,,41,27,238,,0*5D
$GLGSV,2,1,07,65,38,264,46,72,17,206,45,74,33,062,37,75,54,348,47,1*7C
$GLGSV,2,2,07,76,17,290,37,84,34,059,43,85,37,125,47,1*4B
$GLGSV,2,1,07,65,38,264,08,72,17,206,36,74,33,062,08,75,54,348,33,3*7F
$GLGSV,2,2,07,76,17,290,39,84,34,059,35,85,37,125,39,3*4F
$GLGSV,1,1,03,66,23,320,,83,02,019,,86,01,172,,0*40
$GAGSV,3,1,09,04,24,172,44,05,35,307,42,06,45,191,44,09,59,228,43,2*7E
$GAGSV,3,2,09,16,20,258,39,18,66,102,44,23,22,059,22,31,68,017,38,2*78
$GAGSV,3,3,09,33,15,107,37,2*49
$GAGSV,3,1,09,04,24,172,36,05,35,307,44,06,45,191,43,09,59,228,46,7*7A
$GAGSV,3,2,09,16,20,258,30,18,66,102,44,23,22,059,31,31,68,017,46,7*7F
$GAGSV,3,3,09,33,15,107,33,7*48
$GAGSV,1,1,02,12,01,155,,26,12,058,,0*7F
$GBGSV,2,1,08,09,56,317,43,11,44,087,43,16,75,352,47,23,67,344,49,1*71
$GBGSV,2,2,08,25,42,080,44,32,27,255,40,34,32,058,39,39,80,043,47,1*72
$GBGSV,2,1,08,06,72,337,31,07,40,208,38,09,56,317,39,10,26,214,36,B*08
$GBGSV,2,2,08,11,44,087,41,16,75,352,25,34,32,058,07,39,80,043,07,B*0F
$GBGSV,1,1,01,12,13,038,,0*4C
$GQGSV,1,1,02,02,79,102,46,07,47,179,38,1*6A
$GQGSV,1,1,03,02,79,102,42,04,26,184,35,07,47,179,33,6*58
$GQGSV,1,1,02,03,17,154,,08,33,230,,0*6A
$GNRMC,070640.00,A,3727.0359905,N,12639.1141610,E,0.004,,191125,,,R,V*06
$GNVTG,,T,,M,0.004,N,0.007,K,D*3B
$GNGGA,070640.00,3727.0359905,N,12639.1141610,E,4,12,0.53,16.941,M,17.832,M,1.0,4095*5B
$GNGSA,A,3,08,31,04,09,27,18,26,28,16,,,,1.00,0.53,0.85,1*09
$GNGSA,A,3,75,76,84,72,85,,,,,,,,1.00,0.53,0.85,2*0F
$GNGSA,A,3,33,04,06,23,09,16,05,31,,,,,1.00,0.53,0.85,3*03
$GNGSA,A,3,06,34,11,25,16,10,32,23,39,,,,1.00,0.53,0.85,4*04
$GNGSA,A,3,02,,,,,,,,,,,,1.00,0.53,0.85,5*0D
$GPGSV,3,1,11,04,49,278,44,08,21,211,36,09,23,312,39,16,69,316,46,1*62
$GPGSV,3,2,11,18,20,080,31,26,56,048,45,27,51,197,42,28,26,121,34,1*6D
$GPGSV,3,3,11,31,55,109,46,42,33,230,44,50,47,179,41,1*57
$GPGSV,2,1,08,04,49,278,38,08,21,211,36,09,23,312,42,18,20,080,30,6*65
$GPGSV,2,2,08,26,56,048,35,27,51,197,40,28,26,121,41,31,55,109,37,6*6B
$GPGSV,1,1,03,29,00,037,,40,07,259,,41,27,238,,0*5D
$GLGSV,2,1,07,65,38,264,46,72,17,206,44,74,33,062,36,75,54,348,47,1*7C
$GLGSV,2,2,07,76,17,290,38,84,34,059,43,85,37,125,46,1*45
$GLGSV,2,1,06,65,38,264,07,72,17,206,37,75,54,348,33,76,17,290,39,3*79
$GLGSV,2,2,06,84,34,059,35,85,37,125,39,3*78
$GLGSV,1,1,03,66,23,320,,83,02,019,,86,01,172,,0*40
$GAGSV,3,1,09,04,24,172,44,05,35,307,42,06,45,191,44,09,59,228,43,2*7E
$GAGSV,3,2,09,16,20,258,39,18,66,102,44,23,22,059,22,31,68,017,38,2*78
$GAGSV,3,3,09,33,15,107,37,2*49
$GAGSV,3,1,09,04,24,172,35,05,35,307,44,06,45,191,43,09,59,228,46,7*79
$GAGSV,3,2,09,16,20,258,30,18,66,102,45,23,22,059,32,31,68,017,46,7*7D
$GAGSV,3,3,09,33,15,107,33,7*48
$GAGSV,1,1,02,12,01,155,,26,12,058,,0*7F
$GBGSV,2,1,08,09,56,317,42,11,44,087,43,16,75,352,47,23,67,344,49,1*70
$GBGSV,2,2,08,25,42,080,44,32,27,255,41,34,32,058,39,39,80,043,47,1*73
$GBGSV,2,1,08,06,72,337,31,07,40,208,38,09,56,317,39,10,26,214,35,B*0B
$GBGSV,2,2,08,11,44,087,41,16,75,352,26,34,32,058,07,39,80,043,07,B*0C
$GBGSV,1,1,01,12,13,038,,0*4C
$GQGSV,1,1,02,02,79,102,46,07,47,179,38,1*6A
$GQGSV,1,1,03,02,79,102,43,04,26,184,35,07,47,179,33,6*59
$GQGSV,1,1,02,03,17,154,,08,33,230,,0*6A
$GNRMC,070641.00,A,3727.0359911,N,12639.1141603,E,0.012,,191125,,,R,V*07
$GNVTG,,T,,M,0.012,N,0.022,K,D*3B
$GNGGA,070641.00,3727.0359911,N,12639.1141603,E,4,12,0.53,16.932,M,17.832,M,1.0,4095*59
$GNGSA,A,3,08,31,04,09,27,18,26,28,16,,,,1.00,0.53,0.85,1*09
$GNGSA,A,3,75,76,84,72,85,,,,,,,,1.00,0.53,0.85,2*0F
$GNGSA,A,3,33,04,06,23,09,16,05,31,,,,,1.00,0.53,0.85,3*03
$GNGSA,A,3,06,34,11,25,16,10,32,23,39,,,,1.00,0.53,0.85,4*04
$GNGSA,A,3,02,,,,,,,,,,,,1.00,0.53,0.85,5*0D
$GPGSV,3,1,11,04,49,278,44,08,21,211,37,09,23,312,39,16,69,316,46,1*63
$GPGSV,3,2,11,18,20,080,31,26,56,048,45,27,51,197,42,28,26,121,35,1*6C
$GPGSV,3,3,11,31,55,109,47,42,33,230,44,50,47,179,42,1*55
$GPGSV,2,1,08,04,49,278,38,08,21,211,35,09,23,312,41,18,20,080,30,6*65
$GPGSV,2,2,08,26,56,048,35,27,51,197,40,28,26,121,41,31,55,109,37,6*6B
$GPGSV,1,1,03,29,00,037,,40,07,259,,41,27,238,,0*5D
$GLGSV,2,1,07,65,38,264,46,72,17,206,46,74,33,062,36,75,54,348,47,1*7E
$GLGSV,2,2,07,76,17,290,38,84,34,059,42,85,37,125,46,1*44
$GLGSV,2,1,06,65,38,264,07,72,17,206,35,75,54,348,35,76,17,290,40,3*73
$GLGSV,2,2,06,84,34,059,36,85,37,125,40,3*75
$GLGSV,1,1,03,66,23,320,,83,02,019,,86,01,172,,0*40
$GAGSV,3,1,09,04,24,172,44,05,35,307,42,06,45,191,43,09,59,228,42,2*78
$GAGSV,3,2,09,16,20,258,38,18,66,102,44,23,22,059,22,31,68,017,39,2*78
$GAGSV,3,3,09,33,15,107,37,2*49
$GAGSV,3,1,09,04,24,172,36,05,35,307,44,06,45,191,43,09,59,228,46,7*7A
$GAGSV,3,2,09,16,20,258,30,18,66,102,45,23,22,059,32,31,68,017,46,7*7D
$GAGSV,3,3,09,33,15,107,33,7*48
$GAGSV,1,1,02,12,01,155,,26,12,058,,0*7F
$GBGSV,2,1,08,09,56,317,42,11,44,087,43,16,75,352,47,23,67,344,49,1*70
$GBGSV,2,2,08,25,42,080,44,32,27,255,41,34,32,058,39,39,80,043,47,1*73
$GBGSV,2,1,06,06,72,337,34,07,40,208,38,09,56,317,39,10,26,214,36,B*03
$GBGSV,2,2,06,11,44,087,42,16,75,352,28,B*01
$GBGSV,1,1,01,12,13,038,,0*4C
$GQGSV,1,1,02,02,79,102,46,07,47,179,38,1*6A
$GQGSV,1,1,03,02,79,102,42,04,26,184,36,07,47,179,33,6*5B
$GQGSV,1,1,02,03,17,154,,08,33,230,,0*6A
$GNRMC,070642.00,A,3727.0359907,N,12639.1141605,E,0.012,,191125,,,R,V*05
$GNVTG,,T,,M,0.012,N,0.022,K,D*3B
$GNGGA,070642.00,3727.0359907,N,12639.1141605,E,4,12,0.53,16.938,M,17.832,M,1.0,4095*51
$GNGSA,A,3,08,31,04,09,27,18,26,28,16,,,,1.00,0.53,0.85,1*09
$GNGSA,A,3,75,76,84,72,85,,,,,,,,1.00,0.53,0.85,2*0F
$GNGSA,A,3,33,04,06,23,09,16,05,31,,,,,1.00,0.53,0.85,3*03
$GNGSA,A,3,06,34,11,25,16,10,32,23,39,,,,1.00,0.53,0.85,4*04
$GNGSA,A,3,02,,,,,,,,,,,,1.00,0.53,0.85,5*0D
$GPGSV,3,1,11,04,49,278,44,08,21,211,38,09,23,312,38,16,69,316,46,1*6D
$GPGSV,3,2,11,18,20,080,31,26,56,048,45,27,51,197,42,28,26,121,35,1*6C
$GPGSV,3,3,11,31,55,109,47,42,33,230,44,50,47,179,41,1*56
$GPGSV,2,1,08,04,49,278,37,08,21,211,36,09,23,312,41,18,20,080,29,6*61
$GPGSV,2,2,08,26,56,048,34,27,51,197,39,28,26,121,40,31,55,109,36,6*64
$GPGSV,1,1,03,29,00,037,,40,07,259,,41,27,238,,0*5D
$GLGSV,2,1,07,65,38,264,46,72,17,206,44,74,33,062,36,75,54,348,47,1*7C
$GLGSV,2,2,07,76,17,290,38,84,34,059,42,85,37,125,46,1*44
$GLGSV,2,1,06,65,38,264,08,72,17,206,38,75,54,348,36,76,17,290,41,3*73
$GLGSV,2,2,06,84,34,059,38,85,37,125,42,3*79
$GLGSV,1,1,03,66,23,320,,83,02,019,,86,01,172,,0*40
$GAGSV,3,1,09,04,24,172,44,05,35,307,42,06,45,191,43,09,59,228,42,2*78
$GAGSV,3,2,09,16,20,258,39,18,66,102,44,23,22,059,23,31,68,017,38,2*79
$GAGSV,3,3,09,33,15,107,37,2*49
$GAGSV,3,1,09,04,24,172,36,05,35,307,44,06,45,191,43,09,59,228,46,7*7A
$GAGSV,3,2,09,16,20,258,31,18,66,102,45,23,22,059,32,31,68,017,46,7*7C
$GAGSV,3,3,09,33,15,107,33,7*48
$GAGSV,1,1,02,12,01,155,,26,12,058,,0*7F
$GBGSV,2,1,08,09,56,317,42,11,44,087,43,16,75,352,47,23,67,344,49,1*70
$GBGSV,2,2,08,25,42,080,44,32,27,255,41,34,32,058,39,39,80,043,47,1*73
$GBGSV,2,1,06,06,72,337,34,07,40,208,39,09,56,317,39,10,26,214,36,B*02
$GBGSV,2,2,06,11,44,087,42,16,75,352,28,B*01
$GBGSV,1,1,01,12,13,038,,0*4C
$GQGSV,1,1,02,02,79,102,46,07,47,179,38,1*6A
$GQGSV,1,1,03,02,79,102,41,04,26,184,35,07,47,179,32,6*5A
$GQGSV,1,1,02,03,17,154,,08,33,230,,0*6A
$GNRMC,070643.00,A,3727.0359921,N,12639.1141612,E,0.006,,191125,,,R,V*03
$GNVTG,,T,,M,0.006,N,0.011,K,D*3E
$GNGGA,070643.00,3727.0359921,N,12639.1141612,E,4,12,0.53,16.940,M,17.832,M,1.0,4095*5D
$GNGSA,A,3,08,31,04,09,27,18,26,28,16,,,,1.00,0.53,0.85,1*09
$GNGSA,A,3,75,76,84,72,85,,,,,,,,1.00,0.53,0.85,2*0F
$GNGSA,A,3,33,04,06,23,09,16,05,31,,,,,1.00,0.53,0.85,3*03
$GNGSA,A,3,06,34,11,25,16,10,32,23,39,,,,1.00,0.53,0.85,4*04
$GNGSA,A,3,02,,,,,,,,,,,,1.00,0.53,0.85,5*0D
$GPGSV,3,1,11,04,49,278,44,08,21,211,38,09,23,312,38,16,69,316,46,1*6D
$GPGSV,3,2,11,18,20,080,31,26,56,048,45,27,51,197,42,28,26,121,35,1*6C
$GPGSV,3,3,11,31,55,109,47,42,33,230,44,50,47,179,41,1*56
$GPGSV,2,1,08,04,49,278,38,08,21,211,35,09,23,312,41,18,20,080,29,6*6D
$GPGSV,2,2,08,26,56,048,34,27,51,197,39,28,26,121,40,31,55,109,36,6*64
$GPGSV,1,1,03,29,00,037,,40,07,259,,41,27,238,,0*5D
$GLGSV,2,1,07,65,38,264,46,72,17,206,44,74,33,062,36,75,54,348,47,1*7C
$GLGSV,2,2,07,76,17,290,37,84,34,059,42,85,37,125,47,1*4A
$GLGSV,2,1,06,65,38,264,08,72,17,206,38,75,54,348,35,76,17,290,41,3*70
$GLGSV,2,2,06,84,34,059,38,85,37,125,41,3*7A
$GLGSV,1,1,03,66,23,320,,83,02,019,,86,01,172,,0*40
$GAGSV,3,1,09,04,24,172,44,05,35,307,42,06,45,191,44,09,59,228,44,2*79
$GAGSV,3,2,09,16,20,258,38,18,66,102,44,23,22,059,23,31,68,017,38,2*78
$GAGSV,3,3,09,33,15,107,38,2*46
$GAGSV,3,1,09,04,24,172,36,05,35,307,44,06,45,191,43,09,59,228,46,7*7A
$GAGSV,3,2,09,16,20,258,32,18,66,102,44,23,22,059,32,31,68,017,46,7*7E
$GAGSV,3,3,09,33,15,107,34,7*4F
$GAGSV,1,1,02,12,01,155,,26,12,058,,0*7F
$GBGSV,2,1,08,09,56,317,42,11,44,087,43,16,75,352,47,23,67,344,49,1*70
$GBGSV,2,2,08,25,42,080,44,32,27,255,41,34,32,058,39,39,80,043,47,1*73
$GBGSV,2,1,06,06,72,337,34,07,40,208,39,09,56,317,39,10,26,214,36,B*02
$GBGSV,2,2,06,11,44,087,41,16,75,352,27,B*0D
$GBGSV,1,1,01,12,13,038,,0*4C
$GQGSV,1,1,02,02,79,102,46,07,47,179,38,1*6A
$GQGSV,1,1,03,02,79,102,41,04,26,184,35,07,47,179,32,6*5A
$GQGSV,1,1,02,03,17,154,,08,33,230,,0*6A
$GNRMC,070644.00,A,3727.0359913,N,12639.1141595,E,0.014,,191125,,,R,V*0A
$GNVTG,,T,,M,0.014,N,0.026,K,D*39
$GNGGA,070644.00,3727.0359913,N,12639.1141595,E,4,12,0.53,16.942,M,17.832,M,1.0,4095*55
$GNGSA,A,3,08,31,04,09,27,18,26,28,16,,,,1.00,0.53,0.85,1*09
$GNGSA,A,3,75,76,84,72,85,,,,,,,,1.00,0.53,0.85,2*0F
$GNGSA,A,3,33,04,06,23,09,16,05,31,,,,,1.00,0.53,0.85,3*03
$GNGSA,A,3,06,34,11,25,16,10,32,23,39,,,,1.00,0.53,0.85,4*04
$GNGSA,A,3,02,,,,,,,,,,,,1.00,0.53,0.85,5*0D
$GPGSV,3,1,11,04,49,278,44,08,21,211,37,09,23,312,38,16,69,316,46,1*62
$GPGSV,3,2,11,18,20,080,31,26,56,048,45,27,51,197,42,28,26,121,35,1*6C
$GPGSV,3,3,11,31,55,109,47,42,33,230,44,50,47,179,41,1*56
$GPGSV,2,1,08,04,49,278,38,08,21,211,34,09,23,312,41,18,20,080,30,6*64
$GPGSV,2,2,08,26,56,048,35,27,51,197,39,28,26,121,40,31,55,109,35,6*66
$GPGSV,1,1,03,29,00,037,,40,07,259,,41,27,238,,0*5D
$GLGSV,2,1,07,65,38,264,47,72,17,206,44,74,33,062,36,75,54,348,47,1*7D
$GLGSV,2,2,07,76,17,290,37,84,34,059,42,85,37,125,47,1*4A
$GLGSV,2,1,06,65,38,264,08,72,17,206,37,75,54,348,36,76,17,290,41,3*7C
$GLGSV,2,2,06,84,34,059,38,85,37,125,41,3*7A
$GLGSV,1,1,03,66,23,320,,83,02,019,,86,01,172,,0*40
$GAGSV,3,1,09,04,24,172,44,05,35,307,42,06,45,191,44,09,59,228,43,2*7E
$GAGSV,3,2,09,16,20,258,38,18,66,102,44,23,22,059,24,31,68,017,39,2*7E
$GAGSV,3,3,09,33,15,107,38,2*46
$GAGSV,3,1,09,04,24,172,37,05,35,307,44,06,45,191,42,09,59,228,46,7*7A
$GAGSV,3,2,09,16,20,258,33,18,66,102,44,23,22,059,32,31,68,017,46,7*7F
$GAGSV,3,3,09,33,15,107,33,7*48
$GAGSV,1,1,02,12,01,155,,26,12,058,,0*7F
$GBGSV,2,1,08,09,56,317,42,11,44,087,44,16,75,352,47,23,67,344,49,1*77
$GBGSV,2,2,08,25,42,080,44,32,27,255,41,34,32,058,40,39,80,043,47,1*7D
$GBGSV,2,1,06,06,72,337,33,07,40,208,37,09,56,317,38,10,26,214,36,B*0A
$GBGSV,2,2,06,11,44,087,41,16,75,352,26,B*0C
$GBGSV,1,1,01,12,13,038,,0*4C
$GQGSV,1,1,02,02,79,102,46,07,47,179,38,1*6A
$GQGSV,1,1,03,02,79,102,42,04,26,184,35,07,47,179,32,6*59
$GQGSV,1,1,02,03,17,154,,08,33,230,,0*6A
$GNRMC,070645.00,A,3727.0359902,N,12639.1141611,E,0.004,,191125,,,R,V*05
$GNVTG,,T,,M,0.004,N,0.008,K,D*34
$GNGGA,070645.00,3727.0359902,N,12639.1141611,E,4,12,0.53,16.941,M,17.832,M,1.0,4095*58
$GNGSA,A,3,08,31,04,09,27,18,26,28,16,,,,1.00,0.53,0.85,1*09
$GNGSA,A,3,75,76,84,72,85,,,,,,,,1.00,0.53,0.85,2*0F
$GNGSA,A,3,33,04,06,23,09,16,05,31,,,,,1.00,0.53,0.85,3*03
$GNGSA,A,3,06,34,11,25,16,10,32,23,39,,,,1.00,0.53,0.85,4*04
$GNGSA,A,3,02,,,,,,,,,,,,1.00,0.53,0.85,5*0D
$GPGSV,3,1,11,04,49,278,44,08,21,211,37,09,23,312,38,16,69,316,46,1*62
$GPGSV,3,2,11,18,20,080,31,26,56,048,45,27,51,197,42,28,26,121,35,1*6C
$GPGSV,3,3,11,31,55,109,47,42,33,230,44,50,47,179,41,1*56
$GPGSV,2,1,08,04,49,278,38,08,21,211,33,09,23,312,41,18,20,080,30,6*63
$GPGSV,2,2,08,26,56,048,35,27,51,197,39,28,26,121,40,31,55,109,34,6*67
$GPGSV,1,1,03,29,00,037,,40,07,259,,41,27,238,,0*5D
$GLGSV,2,1,07,65,38,264,47,72,17,206,44,74,33,062,36,75,54,348,47,1*7D
$GLGSV,2,2,07,76,17,290,36,84,34,059,41,85,37,125,46,1*49
$GLGSV,2,1,06,65,38,264,09,72,17,206,36,75,54,348,36,76,17,290,41,3*7C
$GLGSV,2,2,06,84,34,059,38,85,37,125,41,3*7A
$GLGSV,1,1,03,66,23,320,,83,02,019,,86,01,172,,0*40
$GAGSV,3,1,09,04,24,172,44,05,35,307,42,06,45,191,43,09,59,228,43,2*79
$GAGSV,3,2,09,16,20,258,38,18,66,102,44,23,22,059,25,31,67,018,39,2*7F
$GAGSV,3,3,09,33,15,107,38,2*46
$GAGSV,3,1,09,04,24,172,37,05,35,307,44,06,45,191,43,09,59,228,46,7*7B
$GAGSV,3,2,09,16,20,258,33,18,66,102,44,23,22,059,33,31,67,018,46,7*7E
$GAGSV,3,3,09,33,15,107,32,7*49
$GAGSV,1,1,02,12,01,155,,26,12,058,,0*7F
$GBGSV,2,1,08,09,56,317,42,11,44,087,43,16,75,352,47,23,67,344,49,1*70
$GBGSV,2,2,08,25,42,080,44,32,27,255,42,34,32,058,40,39,80,043,47,1*7E
$GBGSV,2,1,06,06,72,337,33,07,40,208,38,09,56,317,38,10,26,214,36,B*05
$GBGSV,2,2,06,11,44,087,41,16,75,352,26,B*0C
$GBGSV,1,1,01,12,13,038,,0*4C
$GQGSV,1,1,02,02,79,102,45,07,47,179,38,1*69
$GQGSV,1,1,03,02,79,102,42,04,26,184,35,07,47,179,32,6*59
$GQGSV,1,1,02,03,17,154,,08,33,230,,0*6A
$GNRMC,070646.00,A,3727.0359910,N,12639.1141610,E,0.009,,191125,,,R,V*09
$GNVTG,,T,,M,0.009,N,0.016,K,D*36
$GNGGA,070646.00,3727.0359910,N,12639.1141610,E,4,12,0.53,16.941,M,17.832,M,1.0,4095*59
$GNGSA,A,3,08,31,04,09,27,18,26,28,16,,,,1.00,0.53,0.85,1*09
$GNGSA,A,3,75,76,84,72,85,,,,,,,,1.00,0.53,0.85,2*0F
$GNGSA,A,3,33,04,06,23,09,16,05,31,,,,,1.00,0.53,0.85,3*03
$GNGSA,A,3,06,34,11,25,16,10,32,23,39,,,,1.00,0.53,0.85,4*04
$GNGSA,A,3,02,,,,,,,,,,,,1.00,0.53,0.85,5*0D
$GPGSV,3,1,11,04,49,278,44,08,21,211,37,09,23,312,38,16,69,316,46,1*62
$GPGSV,3,2,11,18,20,080,30,26,56,048,45,27,51,197,43,28,26,121,34,1*6D
$GPGSV,3,3,11,31,55,109,47,42,33,230,44,50,47,179,41,1*56
$GPGSV,2,1,08,04,49,278,39,08,21,211,33,09,23,312,41,18,20,080,30,6*62
$GPGSV,2,2,08,26,56,048,35,27,51,197,39,28,26,121,41,31,55,109,35,6*67
$GPGSV,1,1,03,29,00,037,,40,07,259,,41,27,238,,0*5D
$GLGSV,2,1,07,65,38,264,47,72,17,206,45,74,33,062,35,75,54,348,48,1*70
$GLGSV,2,2,07,76,17,290,36,84,34,059,42,85,37,125,46,1*4A
$GLGSV,2,1,06,65,38,264,08,72,17,206,36,75,54,348,36,76,17,290,41,3*7D
$GLGSV,2,2,06,84,34,059,37,85,37,125,40,3*74
$GLGSV,1,1,03,66,23,320,,83,02,019,,86,01,172,,0*40
$GAGSV,3,1,09,04,24,172,44,05,35,307,42,06,45,191,43,09,59,228,43,2*79
$GAGSV,3,2,09,16,20,258,39,18,66,102,44,23,22,059,25,31,67,018,38,2*7F
$GAGSV,3,3,09,33,16,106,38,2*44
$GAGSV,3,1,09,04,24,172,37,05,35,307,44,06,45,191,43,09,59,228,46,7*7B
$GAGSV,3,2,09,16,20,258,33,18,66,102,44,23,22,059,33,31,67,018,46,7*7E
$GAGSV,3,3,09,33,16,106,31,7*48
$GAGSV,1,1,02,12,01,155,,26,12,058,,0*7F
$GBGSV,2,1,08,09,56,317,42,11,44,087,44,16,75,352,47,23,67,344,49,1*77
$GBGSV,2,2,08,25,42,080,44,32,27,255,42,34,32,058,40,39,80,043,47,1*7E
$GBGSV,2,1,06,06,72,337,34,07,40,208,38,09,56,317,39,10,26,214,36,B*03
$GBGSV,2,2,06,11,44,087,40,16,75,352,27,B*0C
$GBGSV,1,1,01,12,13,038,,0*4C
$GQGSV,1,1,02,02,79,102,46,07,47,179,38,1*6A
$GQGSV,1,1,03,02,79,102,42,04,26,184,35,07,47,179,33,6*58
$GQGSV,1,1,02,03,17,154,,08,33,230,,0*6A
$GNRMC,070647.00,A,3727.0359905,N,12639.1141601,E,0.013,,191125,,,R,V*07
$GNVTG,,T,,M,0.013,N,0.024,K,D*3C
$GNGGA,070647.00,3727.0359905,N,12639.1141601,E,4,12,0.53,16.942,M,17.832,M,1.0,4095*5F
$GNGSA,A,3,08,31,04,09,27,18,26,28,16,,,,1.00,0.53,0.85,1*09
$GNGSA,A,3,75,76,84,72,85,,,,,,,,1.00,0.53,0.85,2*0F
$GNGSA,A,3,33,04,06,23,09,16,05,31,,,,,1.00,0.53,0.85,3*03
$GNGSA,A,3,06,34,11,25,16,10,32,23,39,,,,1.00,0.53,0.85,4*04
$GNGSA,A,3,02,,,,,,,,,,,,1.00,0.53,0.85,5*0D
$GPGSV,3,1,11,04,49,278,44,08,21,211,37,09,23,312,39,16,69,316,46,1*63
$GPGSV,3,2,11,18,20,080,30,26,56,048,45,27,51,197,43,28,26,121,34,1*6D
$GPGSV,3,3,11,31,55,109,47,42,33,230,44,50,47,179,41,1*56
$GPGSV,2,1,08,04,49,278,38,08,21,211,32,09,23,312,41,18,20,080,30,6*62
$GPGSV,2,2,08,26,56,048,35,27,51,197,38,28,26,121,41,31,55,109,35,6*66
$GPGSV,1,1,03,29,00,037,,40,07,259,,41,27,238,,0*5D
$GLGSV,2,1,07,65,38,264,47,72,17,206,44,74,33,062,35,75,54,348,48,1*71
$GLGSV,2,2,07,76,17,290,38,84,34,059,42,85,37,125,46,1*44
$GLGSV,2,1,06,65,38,264,08,72,17,206,36,75,54,348,35,76,17,290,43,3*7C
$GLGSV,2,2,06,84,34,059,37,85,37,125,41,3*75
$GLGSV,1,1,03,66,23,320,,83,02,019,,86,01,172,,0*40
$GAGSV,3,1,09,04,24,172,44,05,35,307,42,06,45,191,43,09,59,228,43,2*79
$GAGSV,3,2,09,16,20,258,39,18,66,102,44,23,22,059,24,31,67,018,39,2*7F
$GAGSV,3,3,09,33,16,106,37,2*4B
$GAGSV,3,1,09,04,24,172,37,05,35,307,44,06,45,191,42,09,59,228,47,7*7B
$GAGSV,3,2,09,16,20,258,33,18,66,102,44,23,22,059,33,31,67,018,46,7*7E
$GAGSV,3,3,09,33,16,106,31,7*48
$GAGSV,1,1,02,12,01,155,,26,12,058,,0*7F
$GBGSV,2,1,08,09,56,317,42,11,44,087,43,16,75,352,47,23,67,344,49,1*70
$GBGSV,2,2,08,25,42,080,44,32,27,255,42,34,32,058,39,39,80,043,47,1*70
$GBGSV,2,1,06,06,72,337,34,07,40,208,38,09,56,317,39,10,26,214,36,B*03
$GBGSV,2,2,06,11,44,087,40,16,75,352,28,B*03
$GBGSV,1,1,01,12,13,038,,0*4C
$GQGSV,1,1,02,02,79,102,46,07,47,179,38,1*6A
$GQGSV,1,1,03,02,79,102,42,04,26,184,35,07,47,179,33,6*58
$GQGSV,1,1,02,03,17,154,,08,33,230,,0*6A
$GNRMC,070648.00,A,3727.0359926,N,12639.1141605,E,0.009,,191125,,,R,V*06
$GNVTG,,T,,M,0.009,N,0.017,K,D*37
$GNGGA,070648.00,3727.0359926,N,12639.1141605,E,4,12,0.53,16.939,M,17.832,M,1.0,4095*59
$GNGSA,A,3,08,31,04,09,27,18,26,28,16,,,,1.00,0.53,0.85,1*09
$GNGSA,A,3,75,76,84,72,85,,,,,,,,1.00,0.53,0.85,2*0F
$GNGSA,A,3,33,04,06,23,09,16,05,31,,,,,1.00,0.53,0.85,3*03
$GNGSA,A,3,06,34,11,25,16,10,32,23,39,,,,1.00,0.53,0.85,4*04
$GNGSA,A,3,02,,,,,,,,,,,,1.00,0.53,0.85,5*0D
$GPGSV,3,1,11,04,49,278,44,08,21,211,37,09,23,312,38,16,69,316,46,1*62
$GPGSV,3,2,11,18,20,080,29,26,56,048,45,27,51,197,42,28,26,121,35,1*65
$GPGSV,3,3,11,31,55,109,47,42,33,230,44,50,47,179,41,1*56
$GPGSV,2,1,08,04,49,278,38,08,21,211,33,09,23,312,41,18,20,080,30,6*63
$GPGSV,2,2,08,26,56,048,35,27,51,197,38,28,26,121,41,31,55,109,33,6*60
$GPGSV,1,1,03,29,00,037,,40,07,259,,41,27,238,,0*5D
$GLGSV,2,1,07,65,38,264,47,72,17,206,40,74,33,062,35,75,54,348,47,1*7A
$GLGSV,2,2,07,76,17,290,38,84,34,059,42,85,37,125,46,1*44
$GLGSV,2,1,06,65,38,264,09,72,17,206,36,75,54,348,35,76,17,290,41,3*7F
$GLGSV,2,2,06,84,34,059,37,85,37,125,41,3*75
$GLGSV,1,1,03,66,23,320,,83,02,019,,86,01,172,,0*40
$GAGSV,3,1,09,04,24,172,44,05,35,307,42,06,45,191,43,09,59,228,43,2*79
$GAGSV,3,2,09,16,20,258,39,18,66,102,44,23,22,059,24,31,67,018,39,2*7F
$GAGSV,3,3,09,33,16,106,37,2*4B
$GAGSV,3,1,09,04,24,172,37,05,35,307,44,06,45,191,43,09,59,228,46,7*7B
$GAGSV,3,2,09,16,20,258,33,18,66,102,44,23,22,059,33,31,67,018,46,7*7E
$GAGSV,3,3,09,33,16,106,31,7*48
$GAGSV,1,1,02,12,01,155,,26,12,058,,0*7F
$GBGSV,2,1,08,09,56,317,42,11,44,087,44,16,75,352,47,23,67,344,49,1*77
$GBGSV,2,2,08,25,42,080,44,32,27,255,42,34,32,058,39,39,80,043,47,1*70
$GBGSV,2,1,06,06,72,337,34,07,40,208,38,09,56,317,39,10,26,214,36,B*03
$GBGSV,2,2,06,11,44,087,40,16,75,352,26,B*0D
$GBGSV,1,1,01,12,13,038,,0*4C
$GQGSV,1,1,02,02,79,102,46,07,47,179,38,1*6A
$GQGSV,1,1,03,02,79,102,42,04,26,184,35,07,47,179,32,6*59
$GQGSV,1,1,02,03,17,154,,08,33,230,,0*6A
$GNRMC,070649.00,A,3727.0359927,N,12639.1141624,E,0.008,,191125,,,R,V*04
$GNVTG,,T,,M,0.008,N,0.015,K,D*34
$GNGGA,070649.00,3727.0359927,N,12639.1141624,E,4,12,0.53,16.942,M,17.832,M,1.0,4095*56
$GNGSA,A,3,08,31,04,09,27,18,26,28,16,,,,1.00,0.53,0.85,1*09
$GNGSA,A,3,75,76,84,72,85,,,,,,,,1.00,0.53,0.85,2*0F
$GNGSA,A,3,33,04,06,23,09,16,05,31,,,,,1.00,0.53,0.85,3*03
$GNGSA,A,3,06,34,11,25,16,10,32,23,39,,,,1.00,0.53,0.85,4*04
$GNGSA,A,3,02,,,,,,,,,,,,1.00,0.53,0.85,5*0D
$GPGSV,3,1,11,04,49,278,44,08,21,211,37,09,23,312,38,16,69,316,46,1*62
$GPGSV,3,2,11,18,20,080,28,26,56,048,45,27,51,197,43,28,26,121,35,1*65
$GPGSV,3,3,11,31,55,109,47,42,33,230,44,50,47,179,41,1*56
$GPGSV,2,1,08,04,49,278,39,08,21,211,33,09,23,312,41,18,20,080,30,6*62
$GPGSV,2,2,08,26,56,048,35,27,51,197,38,28,26,121,39,31,55,109,34,6*68
$GPGSV,1,1,03,29,00,037,,40,07,259,,41,27,238,,0*5D
$GLGSV,2,1,07,65,38,264,47,72,17,206,43,74,33,062,35,75,54,348,47,1*79
$GLGSV,2,2,07,76,17,290,38,84,34,059,43,85,37,125,47,1*44
$GLGSV,2,1,05,72,17,206,36,75,54,348,34,76,17,290,41,84,34,059,36,3*7E
$GLGSV,2,2,05,85,37,125,39,3*4A
$GLGSV,1,1,03,66,23,320,,83,02,019,,86,01,172,,0*40
$GAGSV,3,1,09,04,24,172,43,05,35,307,42,06,45,191,43,09,59,228,42,2*7F
$GAGSV,3,2,09,16,20,258,38,18,66,102,44,23,22,059,24,31,67,018,38,2*7F
$GAGSV,3,3,09,33,16,106,37,2*4B
$GAGSV,3,1,09,04,24,172,36,05,35,307,44,06,45,191,43,09,59,228,46,7*7A
$GAGSV,3,2,09,16,20,258,33,18,66,102,44,23,22,059,33,31,67,018,46,7*7E
$GAGSV,3,3,09,33,16,106,31,7*48
$GAGSV,1,1,02,12,01,155,,26,12,058,,0*7F
$GBGSV,2,1,08,09,56,317,42,11,44,087,43,16,75,352,47,23,67,344,49,1*70
$GBGSV,2,2,08,25,42,080,45,32,27,255,42,34,32,058,39,39,80,043,47,1*71
$GBGSV,2,1,06,06,72,337,34,07,40,208,38,09,56,317,39,10,26,214,35,B*00
$GBGSV,2,2,06,11,44,087,39,16,75,352,27,B*02
$GBGSV,1,1,01,12,13,038,,0*4C
$GQGSV,1,1,02,02,79,102,46,07,47,179,38,1*6A
$GQGSV,1,1,03,02,79,102,41,04,26,184,35,07,47,179,31,6*59
$GQGSV,1,1,02,03,17,154,,08,33,230,,0*6A
$GNRMC,070650.00,A,3727.0359910,N,12639.1141620,E,0.007,,191125,,,R,V*03
$GNVTG,,T,,M,0.007,N,0.012,K,D*3C
$GNGGA,070650.00,3727.0359910,N,12639.1141620,E,4,12,0.53,16.938,M,17.832,M,1.0,4095*53
$GNGSA,A,3,08,31,04,09,27,18,26,28,16,,,,1.00,0.53,0.85,1*09
$GNGSA,A,3,75,76,84,72,85,,,,,,,,1.00,0.53,0.85,2*0F
$GNGSA,A,3,33,04,06,23,09,16,05,31,,,,,1.00,0.53,0.85,3*03
$GNGSA,A,3,06,34,11,25,16,10,32,23,39,,,,1.00,0.53,0.85,4*04
$GNGSA,A,3,02,,,,,,,,,,,,1.00,0.53,0.85,5*0D
$GPGSV,3,1,11,04,49,278,44,08,21,211,38,09,23,312,39,16,69,316,46,1*6C
$GPGSV,3,2,11,18,20,080,28,26,56,048,45,27,51,197,42,28,26,121,35,1*64
$GPGSV,3,3,11,31,55,109,47,42,33,230,44,50,47,179,41,1*56
$GPGSV,2,1,08,04,49,278,38,08,21,211,33,09,23,312,40,18,20,080,31,6*63
$GPGSV,2,2,08,26,56,048,35,27,51,197,36,28,26,121,39,31,55,109,32,6*60
$GPGSV,1,1,03,29,00,037,,40,07,259,,41,27,238,,0*5D
$GLGSV,2,1,07,65,38,264,47,72,17,206,42,74,33,062,36,75,54,348,47,1*7B
$GLGSV,2,2,07,76,17,290,39,84,34,059,43,85,37,125,47,1*45
$GLGSV,2,1,05,72,17,206,32,75,54,348,31,76,17,290,38,84,34,059,33,3*74
$GLGSV,2,2,05,85,37,125,38,3*4B
$GLGSV,1,1,03,66,23,320,,83,02,019,,86,01,172,,0*40
$GAGSV,3,1,09,04,24,172,43,05,35,307,42,06,45,191,43,09,59,228,43,2*7E
$GAGSV,3,2,09,16,20,258,38,18,66,102,43,23,22,059,25,31,67,018,38,2*79
$GAGSV,3,3,09,33,16,106,37,2*4B
$GAGSV,3,1,09,04,24,172,36,05,35,307,44,06,45,191,43,09,59,228,46,7*7A
$GAGSV,3,2,09,16,20,258,33,18,66,102,44,23,22,059,33,31,67,018,46,7*7E
$GAGSV,3,3,09,33,16,106,31,7*48
$GAGSV,1,1,02,12,01,155,,26,12,058,,0*7F
$GBGSV,2,1,08,09,56,317,42,11,44,087,44,16,75,352,47,23,67,344,49,1*77
$GBGSV,2,2,08,25,42,080,45,32,27,255,43,34,32,058,39,39,80,043,47,1*70
$GBGSV,2,1,06,06,72,337,33,07,40,209,38,09,56,317,38,10,26,214,35,B*07
$GBGSV,2,2,06,11,44,087,39,16,75,352,26,B*03
$GBGSV,1,1,01,12,13,038,,0*4C
$GQGSV,1,1,02,02,79,102,45,07,47,179,38,1*69
$GQGSV,1,1,03,02,79,102,41,04,26,184,35,07,47,179,31,6*59
$GQGSV,1,1,02,03,17,154,,08,33,230,,0*6A
$GNRMC,070651.00,A,3727.0359889,N,12639.1141629,E,0.003,,191125,,,R,V*0E
$GNVTG,,T,,M,0.003,N,0.005,K,D*3E
$GNGGA,070651.00,3727.0359889,N,12639.1141629,E,4,12,0.53,16.939,M,17.832,M,1.0,4095*5B
$GNGSA,A,3,08,31,04,09,27,18,26,28,16,,,,1.00,0.53,0.85,1*09
$GNGSA,A,3,75,76,84,72,85,,,,,,,,1.00,0.53,0.85,2*0F
$GNGSA,A,3,33,04,06,23,09,16,05,31,,,,,1.00,0.53,0.85,3*03
$GNGSA,A,3,06,34,11,25,16,10,32,23,39,,,,1.00,0.53,0.85,4*04
$GNGSA,A,3,02,,,,,,,,,,,,1.00,0.53,0.85,5*0D
$GPGSV,3,1,11,04,49,278,44,08,21,211,38,09,23,312,39,16,69,316,46,1*6C
$GPGSV,3,2,11,18,20,080,28,26,56,048,45,27,51,197,43,28,26,121,35,1*65
$GPGSV,3,3,11,31,55,109,47,42,33,230,44,50,47,179,41,1*56
$GPGSV,2,1,08,04,49,278,39,08,21,211,32,09,23,312,40,18,20,080,31,6*63
$GPGSV,2,2,08,26,56,048,35,27,51,197,37,28,26,121,40,31,55,109,34,6*69
$GPGSV,1,1,03,29,00,037,,40,07,259,,41,27,238,,0*5D
$GLGSV,2,1,07,65,38,264,47,72,17,206,41,74,33,062,36,75,54,348,47,1*78
$GLGSV,2,2,07,76,17,290,39,84,34,059,43,85,37,125,47,1*45
$GLGSV,2,1,05,72,17,206,33,75,54,348,32,76,17,290,39,84,34,059,35,3*71
$GLGSV,2,2,05,85,37,125,38,3*4B
$GLGSV,1,1,03,66,23,320,,83,02,019,,86,01,172,,0*40
$GAGSV,3,1,09,04,24,172,44,05,35,307,42,06,45,191,43,09,59,228,43,2*79
$GAGSV,3,2,09,16,20,258,38,18,66,102,44,23,22,059,25,31,67,018,38,2*7E
$GAGSV,3,3,09,33,16,106,38,2*44
$GAGSV,3,1,09,04,24,172,36,05,35,307,44,06,45,191,43,09,59,228,47,7*7B
$GAGSV,3,2,09,16,20,258,33,18,66,102,44,23,22,059,33,31,67,018,46,7*7E
$GAGSV,3,3,09,33,16,106,31,7*48
$GAGSV,1,1,02,12,01,155,,26,12,058,,0*7F
$GBGSV,2,1,08,09,56,317,42,11,44,087,44,16,75,352,47,23,67,344,49,1*77
$GBGSV,2,2,08,25,42,080,45,32,27,255,42,34,32,058,39,39,80,043,47,1*71
$GBGSV,2,1,06,06,72,337,34,07,40,209,38,09,56,317,39,10,26,214,36,B*02
$GBGSV,2,2,06,11,44,087,39,16,75,352,26,B*03
$GBGSV,1,1,01,12,13,038,,0*4C
$GQGSV,1,1,02,02,79,102,46,07,47,179,38,1*6A
$GQGSV,1,1,03,02,79,102,41,04,26,184,36,07,47,179,31,6*5A
$GQGSV,1,1,02,03,17,154,,08,33,230,,0*6A
$GNRMC,070652.00,A,3727.0359884,N,12639.1141612,E,0.008,,191125,,,R,V*03
$GNVTG,,T,,M,0.008,N,0.015,K,D*34
$GNGGA,070652.00,3727.0359884,N,12639.1141612,E,4,12,0.53,16.939,M,17.832,M,1.0,4095*5D
$GNGSA,A,3,08,31,04,09,27,18,26,28,16,,,,1.00,0.53,0.85,1*09
$GNGSA,A,3,75,76,84,72,85,,,,,,,,1.00,0.53,0.85,2*0F
$GNGSA,A,3,33,04,06,23,09,16,05,31,,,,,1.00,0.53,0.85,3*03
$GNGSA,A,3,06,34,11,25,16,10,32,23,39,,,,1.00,0.53,0.85,4*04
$GNGSA,A,3,02,,,,,,,,,,,,1.00,0.53,0.85,5*0D
$GPGSV,3,1,11,04,49,278,44,08,21,211,37,09,23,312,39,16,69,316,46,1*63
$GPGSV,3,2,11,18,20,080,27,26,56,048,44,27,51,197,43,28,26,121,36,1*68
$GPGSV,3,3,11,31,55,109,47,42,33,230,44,50,47,179,41,1*56
$GPGSV,2,1,08,04,49,278,40,08,21,211,33,09,23,312,41,18,20,080,32,6*6E
$GPGSV,2,2,08,26,56,048,36,27,51,197,39,28,26,121,41,31,55,109,35,6*64
$GPGSV,1,1,03,29,00,037,,40,07,259,,41,27,238,,0*5D
$GLGSV,2,1,07,65,38,264,47,72,17,206,41,74,33,062,36,75,54,348,47,1*78
$GLGSV,2,2,07,76,17,290,38,84,34,059,43,85,37,125,48,1*4B
$GLGSV,2,1,05,72,17,206,33,75,54,348,32,76,17,290,40,84,34,059,35,3*7F
$GLGSV,2,2,05,85,37,125,39,3*4A
$GLGSV,1,1,03,66,23,320,,83,02,019,,86,01,172,,0*40
$GAGSV,3,1,09,04,24,172,44,05,35,307,42,06,45,191,43,09,59,228,43,2*79
$GAGSV,3,2,09,16,20,258,39,18,66,102,44,23,22,059,25,31,67,018,39,2*7E
$GAGSV,3,3,09,33,16,106,38,2*44
$GAGSV,3,1,09,04,24,172,37,05,35,307,44,06,45,191,43,09,59,228,47,7*7A
$GAGSV,3,2,09,16,20,258,33,18,66,102,44,23,22,059,33,31,67,018,46,7*7E
$GAGSV,3,3,09,33,16,106,31,7*48
$GAGSV,1,1,02,12,01,155,,26,12,058,,0*7F
$GBGSV,2,1,08,09,56,317,42,11,44,087,44,16,75,352,47,23,67,344,49,1*77
$GBGSV,2,2,08,25,42,080,45,32,27,255,43,34,32,058,39,39,80,043,47,1*70
$GBGSV,2,1,06,06,72,337,34,07,40,209,38,09,56,317,39,10,27,214,37,B*02
$GBGSV,2,2,06,11,44,087,39,16,75,352,27,B*02
$GBGSV,1,1,01,12,13,038,,0*4C
$GQGSV,1,1,02,02,79,102,46,07,47,179,38,1*6A
$GQGSV,1,1,03,02,79,102,42,04,26,184,37,07,47,179,32,6*5B
$GQGSV,1,1,02,03,17,154,,08,33,230,,0*6A
$GNRMC,070653.00,A,3727.0359894,N,12639.1141590,E,0.006,,191125,,,R,V*04
$GNVTG,,T,,M,0.006,N,0.011,K,D*3E
$GNGGA,070653.00,3727.0359894,N,12639.1141590,E,4,12,0.53,16.941,M,17.832,M,1.0,4095*5B
$GNGSA,A,3,08,31,04,09,27,18,26,28,16,,,,1.00,0.53,0.85,1*09
$GNGSA,A,3,75,76,84,72,85,,,,,,,,1.00,0.53,0.85,2*0F
$GNGSA,A,3,33,04,06,23,09,16,05,31,,,,,1.00,0.53,0.85,3*03
$GNGSA,A,3,06,34,11,25,16,10,32,23,39,,,,1.00,0.53,0.85,4*04
$GNGSA,A,3,02,,,,,,,,,,,,1.00,0.53,0.85,5*0D
$GPGSV,3,1,11,04,49,278,44,08,21,211,37,09,23,312,38,16,69,316,46,1*62
$GPGSV,3,2,11,18,20,080,27,26,56,048,45,27,51,197,43,28,26,121,35,1*6A
$GPGSV,3,3,11,31,55,109,47,42,33,230,44,50,47,179,41,1*56
$GPGSV,1,1,01,16,69,316,19,5*55
$GPGSV,2,1,08,04,49,278,40,08,21,211,33,09,23,312,42,18,20,080,33,6*6C
$GPGSV,2,2,08,26,56,048,37,27,51,197,39,28,26,121,42,31,55,109,35,6*66
$GPGSV,1,1,03,29,00,037,,40,07,259,,41,27,238,,0*5D
$GLGSV,2,1,07,65,38,264,47,72,17,206,40,74,33,062,36,75,54,348,47,1*79
$GLGSV,2,2,07,76,17,290,38,84,34,059,43,85,37,125,47,1*44
$GLGSV,2,1,05,72,17,206,36,75,54,348,35,76,17,290,43,84,34,059,38,3*73
$GLGSV,2,2,05,85,37,125,42,3*46
$GLGSV,1,1,03,66,23,320,,83,02,019,,86,01,172,,0*40
$GAGSV,3,1,09,04,24,172,44,05,35,307,42,06,45,191,44,09,59,228,43,2*7E
$GAGSV,3,2,09,16,20,258,39,18,66,102,44,23,22,059,25,31,67,018,39,2*7E
$GAGSV,3,3,09,33,16,106,39,2*45
$GAGSV,3,1,09,04,24,172,37,05,35,307,44,06,45,191,43,09,59,228,47,7*7A
$GAGSV,3,2,09,16,20,258,32,18,66,102,44,23,22,059,33,31,67,018,46,7*7F
$GAGSV,3,3,09,33,16,106,31,7*48
$GAGSV,1,1,02,12,01,155,,26,12,058,,0*7F
$GBGSV,2,1,08,09,56,317,42,11,44,086,44,16,75,352,47,23,67,344,49,1*76
$GBGSV,2,2,08,25,42,080,45,32,27,255,43,34,32,058,39,39,80,043,47,1*70
$GBGSV,2,1,06,06,72,337,35,07,40,209,39,09,56,317,40,10,27,214,38,B*03
$GBGSV,2,2,06,11,44,086,40,16,75,352,26,B*0C
$GBGSV,1,1,01,12,13,038,,0*4C
$GQGSV,1,1,02,02,79,102,46,07,47,179,38,1*6A
$GQGSV,1,1,03,02,79,102,43,04,26,184,38,07,47,179,32,6*55
$GQGSV,1,1,02,03,17,154,,08,33,230,,0*6A
$GNRMC,070654.00,A,3727.0359886,N,12639.1141580,E,0.008,,191125,,,R,V*0F
$GNVTG,,T,,M,0.008,N,0.015,K,D*34
$GNGGA,070654.00,3727.0359886,N,12639.1141580,E,4,12,0.53,16.951,M,17.832,M,1.0,4095*5F
$GNGSA,A,3,08,31,04,09,27,18,26,28,16,,,,1.00,0.53,0.85,1*09
$GNGSA,A,3,75,76,84,72,85,,,,,,,,1.00,0.53,0.85,2*0F
$GNGSA,A,3,33,04,06,23,09,16,05,31,,,,,1.00,0.53,0.85,3*03
$GNGSA,A,3,06,34,11,25,16,10,32,23,39,,,,1.00,0.53,0.85,4*04
$GNGSA,A,3,02,,,,,,,,,,,,1.00,0.53,0.85,5*0D
$GPGSV,3,1,11,04,49,278,45,08,21,211,37,09,23,312,39,16,69,316,46,1*62
$GPGSV,3,2,11,18,20,080,27,26,56,048,45,27,51,197,43,28,26,121,36,1*69
$GPGSV,3,3,11,31,55,109,47,42,33,230,44,50,47,179,41,1*56
$GPGSV,1,1,01,16,69,316,16,5*5A
$GPGSV,2,1,08,04,49,278,40,08,21,211,32,09,23,312,42,18,20,080,33,6*6D
$GPGSV,2,2,08,26,56,048,36,27,51,197,39,28,26,121,41,31,55,109,35,6*64
$GPGSV,1,1,03,29,00,037,,40,07,259,,41,27,238,,0*5D
$GLGSV,2,1,07,65,38,264,47,72,17,206,38,74,33,062,36,75,54,348,48,1*79
$GLGSV,2,2,07,76,17,290,38,84,34,059,43,85,37,125,47,1*44
$GLGSV,2,1,06,72,17,206,34,74,33,062,17,75,54,348,33,76,17,290,41,3*7B
$GLGSV,2,2,06,84,34,059,36,85,37,125,39,3*7B
$GLGSV,1,1,03,66,23,320,,83,02,019,,86,01,172,,0*40
$GAGSV,3,1,09,04,24,172,44,05,35,307,42,06,45,191,43,09,59,228,43,2*79
$GAGSV,3,2,09,16,20,258,38,18,66,102,44,23,22,059,25,31,67,018,38,2*7E
$GAGSV,3,3,09,33,16,106,38,2*44
$GAGSV,3,1,09,04,24,172,37,05,35,307,44,06,45,191,43,09,59,228,47,7*7A
$GAGSV,3,2,09,16,20,258,32,18,66,102,44,23,22,059,33,31,67,018,46,7*7F
$GAGSV,3,3,09,33,16,106,31,7*48
$GAGSV,1,1,02,12,01,155,,26,12,058,,0*7F
$GBGSV,2,1,08,09,56,317,42,11,44,086,44,16,75,352,47,23,67,344,49,1*76
$GBGSV,2,2,08,25,42,080,45,32,27,255,43,34,32,058,39,39,80,043,47,1*70
$GBGSV,2,1,06,06,72,337,35,07,40,209,38,09,56,317,40,10,27,214,38,B*02
$GBGSV,2,2,06,11,44,086,40,16,75,352,28,B*02
$GBGSV,1,1,01,12,12,038,,0*4D
$GQGSV,1,1,02,02,79,102,46,07,47,179,38,1*6A
$GQGSV,1,1,03,02,79,102,43,04,26,184,37,07,47,179,31,6*59
$GQGSV,1,1,02,03,17,154,,08,33,230,,0*6A
$GNRMC,070655.00,A,3727.0359914,N,12639.1141613,E,0.004,,191125,,,R,V*01
$GNVTG,,T,,M,0.004,N,0.007,K,D*3B
$GNGGA,070655.00,3727.0359914,N,12639.1141613,E,4,12,0.53,16.955,M,17.832,M,1.0,4095*59
$GNGSA,A,3,08,31,04,09,27,18,26,28,16,,,,1.00,0.53,0.85,1*09
$GNGSA,A,3,75,76,84,72,85,,,,,,,,1.00,0.53,0.85,2*0F
$GNGSA,A,3,33,04,06,23,09,16,05,31,,,,,1.00,0.53,0.85,3*03
$GNGSA,A,3,06,34,11,25,16,10,32,23,39,,,,1.00,0.53,0.85,4*04
$GNGSA,A,3,02,,,,,,,,,,,,1.00,0.53,0.85,5*0D
$GPGSV,3,1,11,04,49,278,45,08,21,211,37,09,23,312,39,16,69,316,46,1*62
$GPGSV,3,2,11,18,20,080,27,26,56,048,45,27,51,197,43,28,26,121,36,1*69
$GPGSV,3,3,11,31,55,109,47,42,33,230,44,50,47,179,41,1*56
$GPGSV,3,1,09,04,49,278,39,08,21,211,32,09,23,312,43,16,69,316,13,6*6F
$GPGSV,3,2,09,18,20,080,31,26,56,048,35,27,51,197,39,28,26,121,41,6*6A
$GPGSV,3,3,09,31,55,109,34,6*57
$GPGSV,1,1,03,29,00,037,,40,07,259,,41,27,238,,0*5D
$GLGSV,2,1,07,65,38,264,47,72,17,206,35,74,33,062,36,75,54,348,48,1*74
$GLGSV,2,2,07,76,17,290,39,84,34,059,43,85,37,125,47,1*45
$GLGSV,2,1,06,72,17,206,32,74,33,062,12,75,54,348,32,76,17,290,40,3*78
$GLGSV,2,2,06,84,34,059,36,85,37,125,39,3*7B
$GLGSV,1,1,03,66,23,320,,83,02,019,,86,01,172,,0*40
$GAGSV,3,1,09,04,24,172,44,05,35,307,42,06,45,191,43,09,59,228,43,2*79
$GAGSV,3,2,09,16,20,258,39,18,66,102,44,23,22,059,26,31,67,018,39,2*7D
$GAGSV,3,3,09,33,16,106,38,2*44
$GAGSV,3,1,09,04,24,172,37,05,35,307,44,06,45,191,43,09,59,228,47,7*7A
$GAGSV,3,2,09,16,20,258,31,18,66,102,44,23,22,059,33,31,67,018,46,7*7C
$GAGSV,3,3,09,33,16,106,32,7*4B
$GAGSV,1,1,02,12,01,155,,26,12,058,,0*7F
$GBGSV,2,1,08,09,56,317,42,11,44,086,44,16,75,352,47,23,67,344,49,1*76
$GBGSV,2,2,08,25,42,080,44,32,27,255,43,34,32,058,40,39,80,043,47,1*7F
$GBGSV,2,1,06,06,72,337,34,07,40,209,39,09,56,317,40,10,27,214,38,B*02
$GBGSV,2,2,06,11,44,086,40,16,75,352,28,B*02
$GBGSV,1,1,01,12,12,038,,0*4D
$GQGSV,1,1,02,02,79,102,46,07,47,179,38,1*6A
$GQGSV,1,1,03,02,79,102,42,04,26,184,36,07,47,179,29,6*50
$GQGSV,1,1,02,03,17,154,,08,33,230,,0*6A
$GNRMC,070656.00,A,3727.0359878,N,12639.1141608,E,0.005,,191125,,,R,V*02
$GNVTG,,T,,M,0.005,N,0.010,K,D*3C
$GNGGA,070656.00,3727.0359878,N,12639.1141608,E,4,12,0.53,16.954,M,17.832,M,1.0,4095*5A
$GNGSA,A,3,08,31,04,09,27,18,26,28,16,,,,1.00,0.53,0.85,1*09
$GNGSA,A,3,75,76,84,72,85,,,,,,,,1.00,0.53,0.85,2*0F
$GNGSA,A,3,33,04,06,23,09,16,05,31,,,,,1.00,0.53,0.85,3*03
$GNGSA,A,3,06,34,11,25,16,10,32,23,39,,,,1.00,0.53,0.85,4*04
$GNGSA,A,3,02,,,,,,,,,,,,1.00,0.53,0.85,5*0D
$GPGSV,3,1,11,04,49,278,45,08,21,211,37,09,23,312,39,16,69,316,46,1*62
$GPGSV,3,2,11,18,20,080,27,26,56,048,45,27,51,197,43,28,26,121,36,1*69
$GPGSV,3,3,11,31,55,109,47,42,33,230,44,50,47,179,41,1*56
$GPGSV,3,1,09,04,49,278,39,08,21,211,32,09,23,312,43,16,69,316,10,6*6C
$GPGSV,3,2,09,18,20,080,31,26,56,048,35,27,51,197,39,28,26,121,40,6*6B
$GPGSV,3,3,09,31,55,109,35,6*56
$GPGSV,1,1,03,29,00,037,,40,07,259,,41,27,238,,0*5D
